occurred_date_time,highest_offense_description,family_violence,report_date_time,location_type,address,zip_code,council_district,apd_sector,apd_district,pra,census_tract,clearance_status,clearance_date,ucr_category,category_description,latitude,longitude,year,month,week,day,hour
2017-01-01 00:00:00,RAPE,True,2020-10-26 20:00:00,RESIDENCE / HOME,7900 BLOCK GAULT ST,78757.0,7.0,ID,7,248.0,,Not Cleared,2021-01-26 00:00:00,11A,Rape,,,2017.0,1.0,52.0,1.0,0.0
2017-01-01 00:01:00,RAPE,True,2018-07-28 02:38:00,,1500 BLOCK REAGAN HILL DR,78752.0,4.0,ID,2,266,18.11,Not Cleared,2018-11-09 00:00:00,11A,Rape,,,2017.0,1.0,52.0,1.0,0.0
2017-01-01 00:01:00,RAPE,False,2018-09-11 13:41:00,PARKING LOTS / GARAGE,2900 BLOCK N QUINLAN PARK RD,78732.0,,88,88,737.0,,Not Cleared,2019-01-10 00:00:00,11A,Rape,,,2017.0,1.0,52.0,1.0,0.0
2017-01-01 00:07:00,AGGRAVATED ASSAULT,False,2017-01-01 00:07:00,STREETS / HWY / ROAD / ALLEY,600 BLOCK BRAZOS ST,78701.0,9.0,GE,2,381.0,11.0,,,13A,Aggravated Assault,30.26816195,-97.74136237,2017.0,1.0,52.0,1.0,0.0
2017-01-01 02:16:00,AGGRAVATED ASSAULT,False,2017-01-01 02:16:00,STREETS / HWY / ROAD / ALLEY,700 BRAZOS ST,78701.0,9.0,GE,2,381.0,11.0,Not Cleared,2017-01-13 00:00:00,13A,Aggravated Assault,30.26884954,-97.74122668,2017.0,1.0,52.0,1.0,2.0
2017-01-01 04:20:00,AGGRAVATED ASSAULT,False,2017-01-01 04:20:00,PARKING LOTS / GARAGE,1800 PATTON LN,78723.0,1.0,ID,3,294.0,21.12,Not Cleared,2017-03-08 00:00:00,13A,Aggravated Assault,30.3186038,-97.68793685,2017.0,1.0,52.0,1.0,4.0
2017-01-01 08:45:00,RAPE,False,2017-01-01 09:01:00,STREETS / HWY / ROAD / ALLEY,200 BLOCK E 10TH ST,78701.0,1.0,GE,1,379.0,,Not Cleared,2017-02-06 00:00:00,11A,Rape,,,2017.0,1.0,52.0,1.0,8.0
2017-01-01 14:30:00,RAPE,False,2017-01-01 19:31:00,RESIDENCE / HOME,2100 BLOCK E WILLIAM CANNON DR,78744.0,2.0,FR,8,516,24.19,Cleared,2017-09-21 00:00:00,11A,Rape,,,2017.0,1.0,52.0,1.0,14.0
2017-01-01 17:30:00,AGGRAVATED ASSAULT,False,2017-01-01 17:30:00,PARKING LOTS / GARAGE,9329 NORTHGATE BLVD,78758.0,4.0,ED,2,236.0,18.2,Not Cleared,2017-02-14 00:00:00,13A,Aggravated Assault,30.37310385,-97.71440302,2017.0,1.0,52.0,1.0,17.0
2017-01-01 18:25:00,ARMED ROBBERY,False,2017-01-01 18:35:00,PARKING LOTS / GARAGE,1070 MEARNS MEADOW BLVD,78758.0,4.0,ED,1,239.0,18.22,Cleared,2017-01-01 00:00:00,120,Robbery,30.36948655,-97.69959977,2017.0,1.0,52.0,1.0,18.0
2017-01-02 06:30:00,ARMED ROBBERY,False,2017-01-02 06:30:00,PARKING LOTS / GARAGE,1912 E WILLIAM CANNON DR,78744.0,2.0,FR,8,516.0,24.19,Not Cleared,2018-09-15 00:00:00,120,Robbery,30.18854877,-97.76458936,2017.0,1.0,1.0,2.0,6.0
2017-01-02 11:51:00,AGGRAVATED ASSAULT,False,2017-01-02 11:51:00,PARKING LOTS / GARAGE,519 E 7TH ST,78701.0,9.0,GE,2,382.0,11.0,Cleared,2017-01-02 00:00:00,13A,Aggravated Assault,30.26725491,-97.73717896,2017.0,1.0,1.0,2.0,11.0
2017-01-02 23:00:00,AGGRAVATED ASSAULT,False,2017-01-05 11:19:00,PARK / PLAYGROUND,300 COMAL ST,78702.0,3.0,CH,1,410.0,9.0,Not Cleared,2017-01-19 00:00:00,13A,Aggravated Assault,30.26053691,-97.72788327,2017.0,1.0,1.0,2.0,23.0
2017-01-03 00:49:00,ARMED ROBBERY,False,2017-01-03 00:49:00,GAS / SERVICE STATIONS,408 E RUNDBERG LN,78753.0,4.0,ED,1,240.0,18.23,Cleared,2017-01-09 00:00:00,120,Robbery,30.35987625,-97.69035066,2017.0,1.0,1.0,3.0,0.0
2017-01-03 12:00:00,RAPE,False,2017-01-25 10:29:00,RESIDENCE / HOME,2400 BLOCK WESTERN TRAILS BLVD,78745.0,5.0,DA,4,488.0,17.12,Not Cleared,2017-03-27 00:00:00,11A,Rape,,,2017.0,1.0,1.0,3.0,12.0
2017-01-04 00:00:00,RAPE,True,2017-01-25 14:53:00,RESIDENCE / HOME,2600 BLOCK SOL WILSON AVE,78702.0,1.0,CH,2,415.0,8.02,Cleared,2017-02-13 00:00:00,11A,Rape,,,2017.0,1.0,1.0,4.0,0.0
2017-01-04 14:53:00,RAPE,False,2017-01-04 14:53:00,COMMERCIAL / OFFICE BUILDING,2100 BLOCK BOCA RATON DR,78747.0,5.0,FR,7,797.0,24.28,Cleared,2017-04-04 00:00:00,11A,Rape,,,2017.0,1.0,1.0,4.0,14.0
2017-01-04 16:36:00,AGGRAVATED ASSAULT,False,2017-01-04 17:36:00,RESIDENCE / HOME,9801 W PARMER LN,78717.0,6.0,AD,5,574.0,205.08,Cleared,2017-01-09 00:00:00,13A,Aggravated Assault,30.48543801,-97.77170883,2017.0,1.0,1.0,4.0,16.0
2017-01-04 17:06:00,AGGRAVATED ASSAULT,False,2017-01-04 17:24:00,STREETS / HWY / ROAD / ALLEY,900 E 11TH ST,78702.0,1.0,CH,2,413.0,8.0,Not Cleared,2017-01-17 00:00:00,13A,Aggravated Assault,30.27009178,-97.73127562,2017.0,1.0,1.0,4.0,17.0
2017-01-04 19:30:00,ARMED ROBBERY,False,2017-01-04 19:30:00,RESIDENCE / HOME,1881 GROVE BLVD,78741.0,3.0,HE,3,443.0,23.18,Not Cleared,2017-04-05 00:00:00,120,Robbery,30.22863192,-97.70615517,2017.0,1.0,1.0,4.0,19.0
2017-01-04 23:16:00,ARMED ROBBERY,False,2017-01-05 00:15:00,RESIDENCE / HOME,10610 MORADO CIR,78759.0,10.0,AD,7,198.0,17.22,Not Cleared,2017-02-03 00:00:00,120,Robbery,30.40390628,-97.75232436,2017.0,1.0,1.0,4.0,23.0
2017-01-05 01:00:00,ARMED ROBBERY,False,2017-01-05 01:00:00,GAS / SERVICE STATIONS,3008 W SLAUGHTER LN,78748.0,5.0,FR,1,535.0,,,,120,Robbery,30.17932364,-97.8402354,2017.0,1.0,1.0,5.0,1.0
2017-01-05 20:29:00,AGGRAVATED ASSAULT,True,2017-01-05 20:29:00,RESIDENCE / HOME,2302 DURWOOD ST,78704.0,9.0,DA,1,476.0,13.0,Cleared,2017-01-06 00:00:00,13A,Aggravated Assault,30.24193769,-97.7577335,2017.0,1.0,1.0,5.0,20.0
2017-01-05 23:04:00,AGGRAVATED ASSAULT,False,2017-01-05 23:04:00,RESTAURANTS,4619 BORAGE DR,78744.0,2.0,FR,8,530.0,24.3,Not Cleared,2017-01-18 00:00:00,13A,Aggravated Assault,30.17426952,-97.75762512,2017.0,1.0,1.0,5.0,23.0
2017-01-06 20:57:00,ARMED ROBBERY,False,2017-01-06 20:57:00,RESIDENCE / HOME,4320 S CONGRESS AVE,78745.0,3.0,DA,3,491.0,20.03,Not Cleared,2017-05-03 00:00:00,120,Robbery,30.21903307,-97.76718941,2017.0,1.0,1.0,6.0,20.0
2017-01-06 22:00:00,RAPE,False,2017-01-07 08:21:00,BAR / NIGHT CLUB,6500 BLOCK N LAMAR BLVD,78757.0,7.0,ID,7,277.0,15.0,Cleared,2017-02-21 00:00:00,11A,Rape,,,2017.0,1.0,1.0,6.0,22.0
2017-01-07 03:00:00,AGGRAVATED ASSAULT,False,2017-01-07 04:41:00,RESIDENCE / HOME,9603 PARKFIELD DR,78758.0,4.0,ED,1,239.0,18.22,Cleared,2017-01-09 00:00:00,13A,Aggravated Assault,30.37045116,-97.70438839,2017.0,1.0,1.0,7.0,3.0
2017-01-07 17:50:00,ARMED ROBBERY,False,2017-01-07 17:52:00,PARKING LOTS / GARAGE,1015 RUTLAND DR,78758.0,4.0,ED,1,238.0,,Not Cleared,2017-07-03 00:00:00,120,Robbery,30.3671238,-97.70414923,2017.0,1.0,1.0,7.0,17.0
2017-01-07 21:47:00,ARMED ROBBERY,False,2017-01-07 21:52:00,PARKING LOTS / GARAGE,8926 N LAMAR BLVD,78758.0,4.0,ED,1,237.0,18.19,Not Cleared,2017-07-03 00:00:00,120,Robbery,30.35875709,-97.69972149,2017.0,1.0,1.0,7.0,21.0
2017-01-07 22:15:00,ARMED ROBBERY,False,2017-01-08 00:22:00,PARKING LOTS / GARAGE,12349 METRIC BLVD,78758.0,7.0,ED,4,204.0,18.26,Not Cleared,2017-07-03 00:00:00,120,Robbery,30.40977797,-97.69537019,2017.0,1.0,1.0,7.0,22.0
2017-01-08 02:19:00,ARMED ROBBERY,False,2017-01-10 14:12:00,PARKING LOTS / GARAGE,2200 S PLEASANT VALLEY RD,78741.0,3.0,HE,2,457.0,23.16,Not Cleared,2017-05-15 00:00:00,120,Robbery,30.23154682,-97.7260523,2017.0,1.0,1.0,8.0,2.0
2017-01-08 02:19:00,ARMED ROBBERY,False,2017-01-08 02:19:00,RESIDENCE / HOME,2200 S PLEASANT VALLEY RD,78741.0,3.0,HE,2,457.0,23.16,Not Cleared,2017-05-15 00:00:00,120,Robbery,30.23154682,-97.7260523,2017.0,1.0,1.0,8.0,2.0
2017-01-08 09:15:00,AGGRAVATED ASSAULT,False,2017-01-08 10:22:00,RESIDENCE / HOME,3105 S IH 35 SVRD NB,78741.0,3.0,HE,2,482.0,23.07,Not Cleared,2017-01-17 00:00:00,13A,Aggravated Assault,30.22525037,-97.74417353,2017.0,1.0,1.0,8.0,9.0
2017-01-08 19:07:00,AGGRAVATED ASSAULT,False,2017-01-08 20:35:00,RESIDENCE / HOME,11607 SIERRA NEVADA,78759.0,10.0,AD,7,190.0,25.0,Not Cleared,2017-02-24 00:00:00,13A,Aggravated Assault,30.42085628,-97.75504086,2017.0,1.0,1.0,8.0,19.0
2017-01-08 23:06:00,AGGRAVATED ASSAULT,False,2017-01-08 23:06:00,DEPARTMENT / DISCOUNT STORE,1030 NORWOOD PARK BLVD,78753.0,4.0,ID,2,252.0,18.13,Not Cleared,2017-02-06 00:00:00,13A,Aggravated Assault,30.3391525,-97.69116892,2017.0,1.0,1.0,8.0,23.0
2017-01-09 01:52:00,AGGRAVATED ASSAULT,False,2017-01-09 03:18:00,STREETS / HWY / ROAD / ALLEY,9034 N IH 35 SVRD SB,78753.0,4.0,ED,1,250.0,18.0,Not Cleared,2017-01-17 00:00:00,13A,Aggravated Assault,30.35587055,-97.69042871,2017.0,1.0,2.0,9.0,1.0
2017-01-09 21:36:00,ARMED ROBBERY,False,2017-01-09 22:53:00,PARKING LOTS / GARAGE,2201 MONTOPOLIS DR,78741.0,3.0,HE,5,459.0,23.12,Not Cleared,2017-05-15 00:00:00,120,Robbery,30.22249725,-97.70447881,2017.0,1.0,2.0,9.0,21.0
2017-01-09 22:10:00,ARMED ROBBERY,False,2017-01-09 22:10:00,PARKING LOTS / GARAGE,8532 N LAMAR BLVD,78758.0,4.0,ED,2,249.0,18.0,Not Cleared,2017-07-03 00:00:00,120,Robbery,30.35525522,-97.70666419,2017.0,1.0,2.0,9.0,22.0
2017-01-09 22:10:00,ARMED ROBBERY,False,2017-01-09 23:11:00,PARKING LOTS / GARAGE,8532 N LAMAR BLVD,78758.0,4.0,ED,2,249.0,18.05,Not Cleared,2017-07-03 00:00:00,120,Robbery,30.35525522,-97.70666419,2017.0,1.0,2.0,9.0,22.0
2017-01-09 22:30:00,ARMED ROBBERY,False,2017-01-10 18:46:00,STREETS / HWY / ROAD / ALLEY,1212 WESTHEIMER DR,78752.0,4.0,ID,1,265.0,18.12,Not Cleared,2017-07-03 00:00:00,120,Robbery,30.32578989,-97.69444533,2017.0,1.0,2.0,9.0,22.0
2017-01-09 22:30:00,ARMED ROBBERY,False,2017-01-10 12:34:00,PARKING LOTS / GARAGE,1212 WESTHEIMER DR,78752.0,4.0,ID,1,265.0,18.12,Not Cleared,2017-07-03 00:00:00,120,Robbery,30.32578989,-97.69444533,2017.0,1.0,2.0,9.0,22.0
2017-01-10 00:10:00,RAPE,False,2017-01-10 00:10:00,HOTEL / MOTEL / ETC.,800 BLOCK E ANDERSON LN SVRD WB,78753.0,4.0,ID,2,252.0,18.13,Cleared,2017-01-10 00:00:00,11A,Rape,,,2017.0,1.0,2.0,10.0,0.0
2017-01-10 03:29:00,AGGRAVATED ASSAULT,False,2017-01-10 03:29:00,PARKING LOTS / GARAGE,739 W WILLIAM CANNON DR,78745.0,2.0,FR,3,526.0,24.24,Not Cleared,2017-01-16 00:00:00,13A,Aggravated Assault,30.1974094,-97.78989537,2017.0,1.0,2.0,10.0,3.0
2017-01-10 12:00:00,ARMED ROBBERY,False,2017-01-10 13:15:00,FIELD / WOODS,5200 N CAPITAL OF TEXAS HWY NB,78746.0,10.0,BA,7,307.0,19.12,Not Cleared,2017-10-03 00:00:00,120,Robbery,30.3499399,-97.79689336,2017.0,1.0,2.0,10.0,12.0
2017-01-10 12:02:00,ARMED ROBBERY,False,2017-01-10 12:02:00,PARK / PLAYGROUND,5200 N CAPITAL OF TEXAS HWY SB,78746.0,10.0,BA,8,305.0,19.12,Not Cleared,2018-02-08 00:00:00,120,Robbery,30.35004118,-97.79700803,2017.0,1.0,2.0,10.0,12.0
2017-01-10 15:31:00,AGGRAVATED ASSAULT,False,2017-01-10 15:31:00,STREETS / HWY / ROAD / ALLEY,4124 N IH 35 UPPER DECK SB,78705.0,9.0,BA,1,348.0,4.0,Not Cleared,2017-05-11 00:00:00,13A,Aggravated Assault,30.29822826,-97.71778505,2017.0,1.0,2.0,10.0,15.0
2017-01-11 05:25:00,ARMED ROBBERY,False,2017-01-11 05:25:00,PARKING LOTS / GARAGE,2000 CEDAR BEND DR,78758.0,7.0,AD,3,203.0,18.5,Not Cleared,2017-04-19 00:00:00,120,Robbery,30.40934374,-97.69873297,2017.0,1.0,2.0,11.0,5.0
2017-01-11 13:30:00,AGGRAVATED ASSAULT,False,2017-01-12 05:56:00,PARKING LOTS / GARAGE,7208 CAMERON RD,78752.0,4.0,ID,1,265.0,18.12,Not Cleared,2017-01-17 00:00:00,13A,Aggravated Assault,30.32638003,-97.69251739,2017.0,1.0,2.0,11.0,13.0
2017-01-11 15:01:00,AGGRAVATED ASSAULT,False,2017-01-11 15:01:00,STREETS / HWY / ROAD / ALLEY,E 51ST ST / BERKMAN DR,78723.0,4.0,ID,4,295.0,21.0,Not Cleared,2017-02-09 00:00:00,13A,Aggravated Assault,30.30390569,-97.69888228,2017.0,1.0,2.0,11.0,15.0
2017-01-11 20:32:00,AGGRAVATED ASSAULT,False,2017-01-11 20:32:00,PARKING LOTS / GARAGE,1705 S LAKESHORE BLVD,78741.0,3.0,HE,2,441.0,23.04,Not Cleared,2017-03-27 00:00:00,13A,Aggravated Assault,30.24450788,-97.72963988,2017.0,1.0,2.0,11.0,20.0
2017-01-12 05:50:00,ARMED ROBBERY,False,2017-01-12 05:50:00,PARKING LOTS / GARAGE,8630 RESEARCH BLVD SVRD SB,78757.0,7.0,ID,7,248.0,18.18,Cleared,2017-02-27 00:00:00,120,Robbery,30.36273234,-97.71791339,2017.0,1.0,2.0,12.0,5.0
2017-01-12 13:42:00,AGGRAVATED ASSAULT,False,2017-01-12 13:42:00,STREETS / HWY / ROAD / ALLEY,E RIVERSIDE DR / S PLEASANT VALLEY RD,78741.0,3.0,HE,3,442.0,23.18,Cleared,2017-01-18 00:00:00,13A,Aggravated Assault,30.2341129,-97.72281244,2017.0,1.0,2.0,12.0,13.0
2017-01-12 16:42:00,AGGRAVATED ASSAULT,False,2017-01-12 16:42:00,STREETS / HWY / ROAD / ALLEY,HUDSON ST / DARBY ST,78721.0,1.0,CH,5,397.0,,Cleared,2017-01-16 00:00:00,13A,Aggravated Assault,30.26943017,-97.67082082,2017.0,1.0,2.0,12.0,16.0
2017-01-12 16:44:00,ARMED ROBBERY,False,2017-01-12 20:08:00,FIELD / WOODS,600 BARWOOD PARK,78753.0,4.0,ED,1,250.0,18.0,Not Cleared,2017-01-31 00:00:00,120,Robbery,30.34950001,-97.69667616,2017.0,1.0,2.0,12.0,16.0
2017-01-12 18:39:00,AGGRAVATED ASSAULT,False,2017-01-12 19:45:00,STREETS / HWY / ROAD / ALLEY,S LAMAR BLVD SVRD NB / W BEN WHITE BLVD SVRD EB,78745.0,5.0,DA,4,488.0,17.12,Not Cleared,2017-01-24 00:00:00,13A,Aggravated Assault,30.23367988,-97.79666852,2017.0,1.0,2.0,12.0,18.0
2017-01-13 01:45:00,ARMED ROBBERY,False,2017-01-17 11:50:00,STREETS / HWY / ROAD / ALLEY,600 SAN JACINTO BLVD,78701.0,9.0,GE,2,381.0,11.0,Not Cleared,2017-01-17 00:00:00,120,Robbery,30.26750487,-97.74042313,2017.0,1.0,2.0,13.0,1.0
2017-01-13 04:44:00,ARMED ROBBERY,False,2017-01-13 04:44:00,PARKING LOTS / GARAGE,2201 WILLOW CREEK DR,78741.0,3.0,HE,2,457.0,23.16,Not Cleared,2017-04-27 00:00:00,120,Robbery,30.23039867,-97.72977637,2017.0,1.0,2.0,13.0,4.0
2017-01-13 13:50:00,AGGRAVATED ASSAULT,False,2017-01-13 16:37:00,RESIDENCE / HOME,6409 SPRINGDALE RD,78723.0,1.0,CH,4,324.0,21.0,Cleared,2017-02-03 00:00:00,13A,Aggravated Assault,30.30714138,-97.66939998,2017.0,1.0,2.0,13.0,13.0
2017-01-13 21:00:00,AGGRAVATED ASSAULT,False,2017-01-13 22:27:00,RESIDENCE / HOME,807 E 14TH ST,78702.0,1.0,CH,3,391.0,8.0,Cleared,2017-01-13 00:00:00,13A,Aggravated Assault,30.27383738,-97.73085146,2017.0,1.0,2.0,13.0,21.0
2017-01-14 01:08:00,AGGRAVATED ASSAULT,False,2017-01-14 01:08:00,BAR / NIGHT CLUB,10401 ANDERSON MILL RD,78750.0,6.0,AD,8,179.0,17.14,Cleared,2017-03-28 00:00:00,13A,Aggravated Assault,30.44650265,-97.80562383,2017.0,1.0,2.0,14.0,1.0
2017-01-14 03:38:00,AGGRAVATED ASSAULT,False,2017-01-14 03:38:00,STREETS / HWY / ROAD / ALLEY,710 W 6TH ST,78701.0,9.0,GE,1,373.0,11.0,Not Cleared,2017-05-25 00:00:00,13A,Aggravated Assault,30.27025454,-97.75005784,2017.0,1.0,2.0,14.0,3.0
2017-01-14 04:38:00,AGGRAVATED ASSAULT,False,2017-01-14 04:38:00,STREETS / HWY / ROAD / ALLEY,1625 E PARMER LN,78753.0,1.0,ED,7,223.0,18.35,Not Cleared,2017-01-24 00:00:00,13A,Aggravated Assault,30.38674135,-97.64925411,2017.0,1.0,2.0,14.0,4.0
2017-01-14 14:56:00,RAPE,False,2017-01-14 14:56:00,RESIDENCE / HOME,2300 BLOCK RIO GRANDE ST,78705.0,9.0,BA,1,359.0,6.0,Cleared,2017-08-01 00:00:00,11A,Rape,,,2017.0,1.0,2.0,14.0,14.0
2017-01-14 23:34:00,AGGRAVATED ASSAULT,False,2017-01-14 23:34:00,SPECIALTY  STORE (TV  FUR ETC.),1715 HILLCREST LN,78721.0,1.0,CH,5,397.0,21.1,,,13A,Aggravated Assault,30.27877288,-97.67610557,2017.0,1.0,2.0,14.0,23.0
2017-01-15 00:00:00,RAPE,True,2017-01-15 16:01:00,RESIDENCE / HOME,2300 BLOCK DURWOOD ST,78704.0,9.0,DA,1,476.0,13.0,Cleared,2017-01-31 00:00:00,11A,Rape,,,2017.0,1.0,2.0,15.0,0.0
2017-01-15 00:34:00,RAPE,True,2017-01-17 21:34:00,RESIDENCE / HOME,6100 BLOCK FAIRWAY ST,78741.0,3.0,HE,3,443.0,23.18,Cleared,2017-01-27 00:00:00,11A,Rape,,,2017.0,1.0,2.0,15.0,0.0
2017-01-15 06:26:00,AGGRAVATED ASSAULT,False,2017-01-15 06:26:00,RESIDENCE / HOME,8613 CAPITOL VIEW DR,78747.0,2.0,FR,7,600.0,,Not Cleared,2017-01-24 00:00:00,13A,Aggravated Assault,30.15168704,-97.74482438,2017.0,1.0,2.0,15.0,6.0
2017-01-15 19:30:00,AGGRAVATED ASSAULT,False,2017-01-16 21:30:00,PARKING LOTS / GARAGE,1301 SHOAL CREEK BLVD,78701.0,9.0,BA,2,374.0,7.0,Not Cleared,2017-02-21 00:00:00,13A,Aggravated Assault,30.27804051,-97.74922839,2017.0,1.0,2.0,15.0,19.0
2017-01-15 20:00:00,AGGRAVATED ASSAULT,False,2017-01-18 10:59:00,STREETS / HWY / ROAD / ALLEY,1200 BLOCK WEBBERVILLE RD,78721.0,1.0,CH,4,396.0,,Not Cleared,2017-03-21 00:00:00,13A,Aggravated Assault,30.27826788,-97.68505893,2017.0,1.0,2.0,15.0,20.0
2017-01-15 22:56:00,AGGRAVATED ASSAULT,False,2017-01-15 22:56:00,PARKING LOTS / GARAGE,2424 S CONGRESS AVE,78704.0,3.0,DA,2,475.0,13.0,Cleared,2017-01-16 00:00:00,13A,Aggravated Assault,30.23778057,-97.75479405,2017.0,1.0,2.0,15.0,22.0
2017-01-15 23:43:00,AGGRAVATED ASSAULT,False,2017-01-15 23:43:00,OTHER / UNKNOWN,4400 E RIVERSIDE DR,78741.0,3.0,HE,3,442.0,23.18,Cleared,2017-02-01 00:00:00,13A,Aggravated Assault,30.23376292,-97.72223909,2017.0,1.0,2.0,15.0,23.0
2017-01-16 00:01:00,RAPE,False,2017-01-20 10:24:00,RESIDENCE / HOME,2700 BLOCK RIO GRANDE ST,78705.0,9.0,BA,3,356.0,,Cleared,2017-05-08 00:00:00,11A,Rape,,,2017.0,1.0,3.0,16.0,0.0
2017-01-16 00:14:00,AGGRAVATED ASSAULT,False,2017-01-16 00:14:00,RESIDENCE / HOME,2503 E OLTORF ST,78741.0,3.0,HE,2,483.0,23.13,Not Cleared,2017-02-01 00:00:00,13A,Aggravated Assault,30.22745335,-97.72857305,2017.0,1.0,3.0,16.0,0.0
2017-01-16 17:30:00,ARMED ROBBERY,False,2017-01-16 17:49:00,GAS / SERVICE STATIONS,1801 E STASSNEY LN,78744.0,2.0,FR,8,516.0,24.19,Cleared,2017-02-15 00:00:00,120,Robbery,30.1968042,-97.76111504,2017.0,1.0,3.0,16.0,17.0
2017-01-16 21:50:00,AGGRAVATED ASSAULT,False,2017-01-16 22:08:00,PARK / PLAYGROUND,1616 E 3RD ST,78702.0,3.0,CH,1,410.0,,Not Cleared,2017-02-06 00:00:00,13A,Aggravated Assault,30.2602435,-97.72711496,2017.0,1.0,3.0,16.0,21.0
2017-01-16 23:24:00,AGGRAVATED ASSAULT,False,2017-01-16 23:24:00,HOTEL / MOTEL / ETC.,5330 N IH 35 SVRD SB,78751.0,4.0,ID,6,291.0,,Not Cleared,2017-03-28 00:00:00,13A,Aggravated Assault,30.31255268,-97.70919917,2017.0,1.0,3.0,16.0,23.0
2017-01-17 01:22:00,AGGRAVATED ASSAULT,False,2017-01-17 01:22:00,STREETS / HWY / ROAD / ALLEY,COLORADO ST / W 6TH ST,78701.0,9.0,GE,1,380.0,11.0,Not Cleared,2017-01-18 00:00:00,13A,Aggravated Assault,30.26841602,-97.74413436,2017.0,1.0,3.0,17.0,1.0
2017-01-18 04:44:00,AGGRAVATED ASSAULT,False,2017-01-18 04:44:00,DRUG STORE / DR. OFFICE / HOSPITAL,DECKER LN / LOYOLA LN,78724.0,1.0,CH,6,303.0,22.0,Not Cleared,2017-02-10 00:00:00,13A,Aggravated Assault,30.29122388,-97.62799126,2017.0,1.0,3.0,18.0,4.0
2017-01-18 07:00:00,AGGRAVATED ASSAULT,False,2017-01-18 15:27:00,COMMUNITY CENTER,1000 E 41ST ST,78751.0,9.0,BA,5,332.0,3.0,Not Cleared,2017-02-23 00:00:00,13A,Aggravated Assault,30.30046112,-97.71965166,2017.0,1.0,3.0,18.0,7.0
2017-01-18 17:04:00,AGGRAVATED ASSAULT,False,2017-01-19 06:52:00,STREETS / HWY / ROAD / ALLEY,12500 N IH 35 SVRD NB,78753.0,7.0,ED,6,206.0,18.39,Cleared,2017-01-30 00:00:00,13A,Aggravated Assault,30.4067542,-97.67439612,2017.0,1.0,3.0,18.0,17.0
2017-01-18 18:41:00,AGGRAVATED ASSAULT,False,2017-01-18 18:41:00,STREETS / HWY / ROAD / ALLEY,7900 THAXTON RD,78747.0,2.0,FR,7,600.0,,Cleared,2017-01-18 00:00:00,13A,Aggravated Assault,30.15825967,-97.74574658,2017.0,1.0,3.0,18.0,18.0
2017-01-18 20:50:00,MURDER,False,2017-01-18 20:50:00,PARKING LOTS / GARAGE,1701 E RIVERSIDE DR,78741.0,9.0,HE,1,456.0,14.0,Cleared,2017-01-23 00:00:00,09A,Murder,30.24437848,-97.73058102,2017.0,1.0,3.0,18.0,20.0
2017-01-18 22:00:00,RAPE,False,2017-01-20 03:03:00,RESIDENCE / HOME,2300 BLOCK TOWN LAKE CIR,78741.0,3.0,HE,2,441.0,,Cleared,2017-08-09 00:00:00,11A,Rape,,,2017.0,1.0,3.0,18.0,22.0
2017-01-19 01:55:00,AGGRAVATED ASSAULT,False,2017-01-19 01:55:00,PARKING LOTS / GARAGE,863 AIRPORT BLVD,78721.0,3.0,CH,5,428.0,21.11,Not Cleared,2017-01-30 00:00:00,13A,Aggravated Assault,30.25926124,-97.69324431,2017.0,1.0,3.0,19.0,1.0
2017-01-20 18:18:00,RAPE,False,2017-01-20 21:07:00,RESIDENCE / HOME,1200 BLOCK MEARNS MEADOW BLVD,78758.0,4.0,ED,1,239.0,18.22,Not Cleared,2017-03-29 00:00:00,11A,Rape,,,2017.0,1.0,3.0,20.0,18.0
2017-01-20 19:12:00,AGGRAVATED ASSAULT,False,2017-01-20 19:12:00,RESIDENCE / HOME,5605 BERKMAN DR,78723.0,4.0,ID,4,295.0,21.0,Not Cleared,2017-01-20 00:00:00,13A,Aggravated Assault,30.31102666,-97.69408191,2017.0,1.0,3.0,20.0,19.0
2017-01-20 21:00:00,AGGRAVATED ASSAULT,False,2017-01-20 22:16:00,STREETS / HWY / ROAD / ALLEY,753 MONTOPOLIS DR,78741.0,3.0,HE,5,444.0,23.12,Not Cleared,2017-01-26 00:00:00,13A,Aggravated Assault,30.23636375,-97.69574545,2017.0,1.0,3.0,20.0,21.0
2017-01-21 01:19:00,RAPE,False,2017-01-21 01:19:00,DRUG STORE / DR. OFFICE / HOSPITAL,4800 BLOCK MANOR RD,78723.0,9.0,BA,4,900.0,3.0,Not Cleared,2017-02-03 00:00:00,11A,Rape,,,2017.0,1.0,3.0,21.0,1.0
2017-01-21 01:41:00,ARMED ROBBERY,False,2017-01-21 02:54:00,RESIDENCE / HOME,2800 LYONS RD,78702.0,3.0,CH,2,423.0,8.0,,,120,Robbery,30.2640271,-97.7075398,2017.0,1.0,3.0,21.0,1.0
2017-01-21 16:30:00,AGGRAVATED ASSAULT,False,2017-01-21 16:43:00,STREETS / HWY / ROAD / ALLEY,1111 MONTOPOLIS DR,78741.0,3.0,HE,5,444.0,23.12,Not Cleared,2017-04-04 00:00:00,13A,Aggravated Assault,30.23232221,-97.69808883,2017.0,1.0,3.0,21.0,16.0
2017-01-21 19:00:00,AGGRAVATED ASSAULT,False,2017-01-23 18:06:00,STREETS / HWY / ROAD / ALLEY,15000 N IH 35 SVRD SB,78728.0,7.0,ED,6,172.0,,Not Cleared,2017-01-29 00:00:00,13A,Aggravated Assault,30.44318467,-97.66849929,2017.0,1.0,3.0,21.0,19.0
2017-01-21 21:00:00,RAPE,False,2017-01-27 16:11:00,RESIDENCE / HOME,1000 BLOCK E 40TH ST,78751.0,9.0,BA,5,332.0,3.0,Not Cleared,2017-02-21 00:00:00,11A,Rape,,,2017.0,1.0,3.0,21.0,21.0
2017-01-21 22:00:00,AGGRAVATED ASSAULT,False,2017-01-21 22:19:00,RESIDENCE / HOME,12440 ALAMEDA TRACE CIR,78727.0,6.0,AD,3,183.0,,Not Cleared,2017-01-22 00:00:00,13A,Aggravated Assault,30.42948175,-97.74372078,2017.0,1.0,3.0,21.0,22.0
2017-01-22 01:44:00,ARMED ROBBERY,False,2017-01-22 03:37:00,PARKING LOTS / GARAGE,12820 N LAMAR BLVD,78753.0,7.0,ED,4,193.0,18.48,Not Cleared,2017-02-08 00:00:00,120,Robbery,30.41431827,-97.67840489,2017.0,1.0,3.0,22.0,1.0
2017-01-22 03:10:00,ARMED ROBBERY,False,2017-01-22 05:12:00,CONVENIENCE STORE,8900 N LAMAR BLVD,78758.0,4.0,ED,1,237.0,18.19,,,120,Robbery,30.35828676,-97.70039084,2017.0,1.0,3.0,22.0,3.0
2017-01-22 07:57:00,AGGRAVATED ASSAULT,False,2017-01-22 08:04:00,HOTEL / MOTEL / ETC.,12401 N LAMAR BLVD,78753.0,7.0,ED,4,205.0,18.26,Not Cleared,2017-06-06 00:00:00,13A,Aggravated Assault,30.40652653,-97.67748032,2017.0,1.0,3.0,22.0,7.0
2017-01-22 10:20:00,AGGRAVATED ASSAULT,False,2017-01-22 10:24:00,PARKING LOTS / GARAGE,8912 N LAMAR BLVD,78758.0,4.0,ED,1,237.0,,Cleared,2017-03-15 00:00:00,13A,Aggravated Assault,30.35850639,-97.69996937,2017.0,1.0,3.0,22.0,10.0
2017-01-23 07:22:00,AGGRAVATED ASSAULT,False,2017-01-23 08:30:00,HOTEL / MOTEL / ETC.,2700 S IH 35 SVRD SB,78704.0,9.0,DA,2,479.0,23.0,Not Cleared,2017-02-21 00:00:00,13A,Aggravated Assault,30.22962946,-97.74447421,2017.0,1.0,4.0,23.0,7.0
2017-01-23 23:30:00,AGGRAVATED ASSAULT,False,2017-04-14 16:12:00,RESIDENCE / HOME,4700 E RIVERSIDE DR,78741.0,3.0,HE,3,442.0,23.18,Not Cleared,2017-08-10 00:00:00,13A,Aggravated Assault,30.23289806,-97.71880686,2017.0,1.0,4.0,23.0,23.0
2017-01-24 01:00:00,ARMED ROBBERY,False,2017-01-24 04:49:00,RESIDENCE / HOME,1215 W SLAUGHTER LN,78748.0,5.0,FR,2,542.0,24.21,Cleared,2017-03-16 00:00:00,120,Robbery,30.17309049,-97.81433268,2017.0,1.0,4.0,24.0,1.0
2017-01-24 15:30:00,AGGRAVATED ASSAULT,False,2017-01-24 15:30:00,PARK / PLAYGROUND,2205 S CONGRESS AVE,78704.0,9.0,HE,1,478.0,,Not Cleared,2017-02-01 00:00:00,13A,Aggravated Assault,30.24139619,-97.75241998,2017.0,1.0,4.0,24.0,15.0
2017-01-24 17:07:00,AGGRAVATED ASSAULT,False,2017-01-24 17:07:00,PARKING LOTS / GARAGE,907 THOMPSON ST,78702.0,1.0,CH,2,416.0,8.0,Not Cleared,2017-05-01 00:00:00,13A,Aggravated Assault,30.27070373,-97.7088221,2017.0,1.0,4.0,24.0,17.0
2017-01-25 01:04:00,AGGRAVATED ASSAULT,False,2017-01-25 01:04:00,OTHER / UNKNOWN,8500 SHOAL CREEK BLVD,78757.0,7.0,BA,6,232.0,18.17,Cleared,2017-02-14 00:00:00,13A,Aggravated Assault,30.37003781,-97.73811364,2017.0,1.0,4.0,25.0,1.0
2017-01-25 03:30:00,ARMED ROBBERY,False,2017-01-30 20:05:00,RESIDENCE / HOME,3309 BLUMIE ST,78745.0,5.0,FR,1,98,17.29,Cleared,2017-03-02 00:00:00,120,Robbery,30.20304906,-97.83284402,2017.0,1.0,4.0,25.0,3.0
2017-01-25 13:24:00,AGGRAVATED ASSAULT,False,2017-01-25 13:24:00,STREETS / HWY / ROAD / ALLEY,700 RED RIVER ST,78701.0,9.0,GE,2,382.0,11.0,Not Cleared,2017-02-23 00:00:00,13A,Aggravated Assault,30.26751257,-97.73686469,2017.0,1.0,4.0,25.0,13.0
2017-01-25 21:00:00,ARMED ROBBERY,False,2017-01-25 22:30:00,STREETS / HWY / ROAD / ALLEY,900 W 9TH ST,78701.0,9.0,GE,1,373.0,11.0,Not Cleared,2017-04-27 00:00:00,120,Robbery,30.27373748,-97.75133669,2017.0,1.0,4.0,25.0,21.0
2017-01-25 21:52:00,AGGRAVATED ASSAULT,False,2017-01-25 21:52:00,RESIDENCE / HOME,5935 CHERRY LOOP,78745.0,2.0,FR,4,512.0,24.1,Not Cleared,2017-02-02 00:00:00,13A,Aggravated Assault,30.20712465,-97.78898728,2017.0,1.0,4.0,25.0,21.0
2017-01-25 22:00:00,ARMED ROBBERY,False,2017-01-25 22:15:00,RESIDENCE / HOME,2207 WICKERSHAM LN,78741.0,3.0,HE,4,458.0,23.14,Not Cleared,2017-02-07 00:00:00,120,Robbery,30.22899132,-97.72063244,2017.0,1.0,4.0,25.0,22.0
2017-01-26 02:15:00,AGGRAVATED ASSAULT,False,2017-01-26 02:20:00,STREETS / HWY / ROAD / ALLEY,10200 RESEARCH BLVD NB,78759.0,10.0,AD,1,215.0,17.53,Not Cleared,2017-01-27 00:00:00,13A,Aggravated Assault,30.39443803,-97.74637525,2017.0,1.0,4.0,26.0,2.0
2017-01-26 07:33:00,ARMED ROBBERY,False,2017-01-26 07:33:00,STREETS / HWY / ROAD / ALLEY,9111 S 1ST ST,78748.0,5.0,FR,2,542.0,24.21,Cleared,2017-03-16 00:00:00,120,Robbery,30.17145549,-97.80018837,2017.0,1.0,4.0,26.0,7.0
2017-01-26 21:35:00,ARMED ROBBERY,False,2017-01-26 21:40:00,PARKING LOTS / GARAGE,8312 N IH 35 SVRD SB,78753.0,4.0,ED,1,250.0,18.0,Not Cleared,2017-01-31 00:00:00,120,Robbery,30.34664576,-97.69657342,2017.0,1.0,4.0,26.0,21.0
2017-01-26 22:58:00,AGGRAVATED ASSAULT,True,2017-01-26 22:58:00,RESIDENCE / HOME,5213 PARK AT WOODLANDS DR,78724.0,1.0,CH,6,303.0,,Cleared,2017-02-10 00:00:00,13A,Aggravated Assault,30.27456309,-97.63234948,2017.0,1.0,4.0,26.0,22.0
2017-01-27 04:52:00,RAPE,True,2017-01-27 04:52:00,RESIDENCE / HOME,4600 BLOCK SARA DR,78721.0,3.0,CH,5,397.0,,Cleared,2017-03-15 00:00:00,11A,Rape,,,2017.0,1.0,4.0,27.0,4.0
2017-01-27 19:32:00,AGGRAVATED ASSAULT,False,2017-01-27 19:32:00,CAMP / CAMPGROUND,6607 S IH 35 SVRD NB,78744.0,2.0,FR,8,529.0,24.27,Not Cleared,2017-02-07 00:00:00,13A,Aggravated Assault,30.18875113,-97.76892127,2017.0,1.0,4.0,27.0,19.0
2017-01-28 16:15:00,ARMED ROBBERY,False,2017-01-28 18:55:00,PARKING LOTS / GARAGE,1845 BURTON DR,78741.0,3.0,HE,2,457.0,23.15,Not Cleared,2017-03-06 00:00:00,120,Robbery,30.2344291,-97.72969939,2017.0,1.0,4.0,28.0,16.0
2017-01-28 16:40:00,AGGRAVATED ASSAULT,False,2017-01-28 16:54:00,RESIDENCE / HOME,1009 W 26TH ST,78705.0,9.0,BA,3,356.0,6.03,Not Cleared,2017-02-03 00:00:00,13A,Aggravated Assault,30.29058845,-97.74818253,2017.0,1.0,4.0,28.0,16.0
2017-01-28 19:50:00,ARMED ROBBERY,False,2017-01-28 19:50:00,PARKING LOTS / GARAGE,4501 E RIVERSIDE DR,78741.0,3.0,HE,4,458,,Not Cleared,2017-03-01 00:00:00,120,Robbery,30.23258831,-97.72209348,2017.0,1.0,4.0,28.0,19.0
2017-01-29 00:37:00,RAPE,False,2017-01-29 00:37:00,RESIDENCE / HOME,1600 BLOCK COLONY CREEK DR,78758.0,4.0,ED,2,235.0,18.2,Cleared,2017-02-23 00:00:00,11A,Rape,,,2017.0,1.0,4.0,29.0,0.0
2017-01-29 02:13:00,RAPE,False,2017-01-29 02:13:00,RESIDENCE / HOME,900 BLOCK E 32ND ST,78705.0,9.0,BA,1,348.0,4.0,Cleared,2017-09-26 00:00:00,11A,Rape,,,2017.0,1.0,4.0,29.0,2.0
2017-01-29 11:53:00,RAPE,False,2017-01-29 11:53:00,RESIDENCE / HOME,4000 BLOCK VICTORY DR,78704.0,5.0,DA,4,467,20.04,Not Cleared,2017-01-31 00:00:00,11A,Rape,,,2017.0,1.0,4.0,29.0,11.0
2017-01-29 15:22:00,AGGRAVATED ASSAULT,False,2017-01-29 23:37:00,RESIDENCE / HOME,3706 GOODWIN AVE,78721.0,1.0,CH,4,425.0,,Not Cleared,2017-04-07 00:00:00,13A,Aggravated Assault,30.26846273,-97.69545466,2017.0,1.0,4.0,29.0,15.0
2017-01-29 19:37:00,AGGRAVATED ASSAULT,False,2017-01-29 21:14:00,FIELD / WOODS,7114 N IH 35 SVRD SB,78752.0,4.0,ID,8,279.0,15.0,Cleared,2017-01-30 00:00:00,13A,Aggravated Assault,30.33277823,-97.70500594,2017.0,1.0,4.0,29.0,19.0
2017-01-29 22:49:00,RAPE,True,2017-01-29 22:49:00,PARKING LOTS / GARAGE,3400 BLOCK W WILLIAM CANNON DR,78745.0,5.0,FR,1,98.0,17.29,Cleared,2017-02-28 00:00:00,11A,Rape,,,2017.0,1.0,4.0,29.0,22.0
2017-01-29 23:35:00,ARMED ROBBERY,False,2017-01-29 23:59:00,PARKING LOTS / GARAGE,1622 RUTLAND DR,78758.0,4.0,ED,2,219.0,18.21,Not Cleared,2017-05-24 00:00:00,120,Robbery,30.3726965,-97.7116957,2017.0,1.0,4.0,29.0,23.0
2017-01-30 15:35:00,ARMED ROBBERY,False,2017-01-30 17:08:00,RESIDENCE / HOME,4501 E RIVERSIDE DR,78741.0,3.0,HE,4,458.0,23.14,Not Cleared,2017-05-25 00:00:00,120,Robbery,30.23258831,-97.72209348,2017.0,1.0,5.0,30.0,15.0
2017-01-30 17:04:00,AGGRAVATED ASSAULT,False,2017-01-30 19:59:00,INDUSTRIAL SITE,12201 DORSETT RD,78727.0,7.0,AD,3,192.0,,Cleared,2017-01-30 00:00:00,13A,Aggravated Assault,30.42099047,-97.7281827,2017.0,1.0,5.0,30.0,17.0
2017-01-30 20:24:00,AGGRAVATED ASSAULT,False,2017-01-30 20:24:00,RESIDENCE / HOME,5900 TRACY LYNN LN,78721.0,3.0,CH,5,428.0,21.11,Cleared,2018-02-05 00:00:00,13A,Aggravated Assault,30.25579562,-97.68697108,2017.0,1.0,5.0,30.0,20.0
2017-01-31 02:57:00,AGGRAVATED ASSAULT,False,2017-01-31 02:57:00,HOTEL / MOTEL / ETC.,2700 GRACY FARMS LN,78758.0,7.0,AD,2,202.0,18.49,Cleared,2017-01-31 00:00:00,13A,Aggravated Assault,30.4067171,-97.71296949,2017.0,1.0,5.0,31.0,2.0
2017-01-31 04:45:00,AGGRAVATED ASSAULT,False,2017-01-31 06:20:00,RESIDENCE / HOME,9121 NORTH PLZ,78753.0,4.0,ED,3,251.0,18.13,Cleared,2017-01-31 00:00:00,13A,Aggravated Assault,30.35393862,-97.68583874,2017.0,1.0,5.0,31.0,4.0
2017-01-31 22:00:00,AGGRAVATED ASSAULT,False,2017-01-31 22:00:00,STREETS / HWY / ROAD / ALLEY,8200 BLOCK S 1ST ST,78748.0,2.0,FR,3,536.0,,Not Cleared,2017-04-27 00:00:00,13A,Aggravated Assault,30.18027592,-97.79548097,2017.0,1.0,5.0,31.0,22.0
2017-02-01 00:01:00,ARMED ROBBERY,False,2017-02-01 23:00:00,PARKING LOTS / GARAGE,1124 RUTLAND DR,78758.0,4.0,ED,1,239.0,18.22,,,120,Robbery,30.36871033,-97.70372535,2017.0,2.0,5.0,1.0,0.0
2017-02-01 02:24:00,RAPE,True,2017-03-20 02:24:00,RESIDENCE / HOME,6900 BLOCK GRANGER DR,78744.0,2.0,FR,8,530,24.27,Cleared,2017-03-27 00:00:00,11A,Rape,,,2017.0,2.0,5.0,1.0,2.0
2017-02-02 00:54:00,ARMED ROBBERY,False,2017-02-02 03:41:00,RESTAURANTS,13450 N US 183 HWY SVRD SB,78750.0,6.0,AD,6,187.0,204.0,Not Cleared,2017-03-07 00:00:00,120,Robbery,30.44751497,-97.7908713,2017.0,2.0,5.0,2.0,0.0
2017-02-02 14:23:00,AGGRAVATED ASSAULT,False,2017-02-02 14:23:00,RESIDENCE / HOME,5007 LYNNWOOD ST,78756.0,7.0,BA,6,317.0,2.0,Cleared,2017-02-02 00:00:00,13A,Aggravated Assault,30.32216616,-97.74006382,2017.0,2.0,5.0,2.0,14.0
2017-02-02 16:18:00,AGGRAVATED ASSAULT,False,2017-02-02 17:04:00,RESIDENCE / HOME,5321 DOWNS DR,78721.0,1.0,CH,5,397.0,21.1,Not Cleared,2017-03-06 00:00:00,13A,Aggravated Assault,30.27893227,-97.67848738,2017.0,2.0,5.0,2.0,16.0
2017-02-02 18:40:00,ARMED ROBBERY,False,2017-02-02 20:09:00,PARKING LOTS / GARAGE,4320 S CONGRESS AVE,78745.0,3.0,DA,3,491.0,20.0,Cleared,2017-06-14 00:00:00,120,Robbery,30.21903307,-97.76718941,2017.0,2.0,5.0,2.0,18.0
2017-02-02 19:11:00,ARMED ROBBERY,False,2017-02-02 19:11:00,PARKING LOTS / GARAGE,2400 WICKERSHAM LN,78741.0,3.0,HE,4,458.0,23.14,Cleared,2017-03-09 00:00:00,120,Robbery,30.22764855,-97.72330072,2017.0,2.0,5.0,2.0,19.0
2017-02-02 19:34:00,ARMED ROBBERY,False,2017-02-02 19:34:00,PARKING LOTS / GARAGE,2425 E RIVERSIDE DR,78741.0,3.0,HE,2,457.0,23.16,,,120,Robbery,30.23532226,-97.72493362,2017.0,2.0,5.0,2.0,19.0
2017-02-02 19:35:00,AGGRAVATED ASSAULT,False,2017-02-02 19:50:00,PARKING LOTS / GARAGE,9715 N FM 620 RD,78726.0,6.0,AD,8,178.0,17.14,Not Cleared,2017-02-06 00:00:00,13A,Aggravated Assault,30.43679351,-97.83820902,2017.0,2.0,5.0,2.0,19.0
2017-02-02 22:47:00,ARMED ROBBERY,False,2017-02-03 00:04:00,PARKING LOTS / GARAGE,2425 E RIVERSIDE DR,78741.0,3.0,HE,2,457.0,23.16,Cleared,2017-05-22 00:00:00,120,Robbery,30.23532226,-97.72493362,2017.0,2.0,5.0,2.0,22.0
2017-02-03 02:09:00,AGGRAVATED ASSAULT,False,2017-02-03 05:09:00,PARKING LOTS / GARAGE,2237 E RIVERSIDE DR,78741.0,3.0,HE,2,457.0,23.16,Cleared,2017-02-09 00:00:00,13A,Aggravated Assault,30.23820652,-97.72624311,2017.0,2.0,5.0,3.0,2.0
2017-02-03 02:21:00,AGGRAVATED ASSAULT,False,2017-02-03 02:21:00,STREETS / HWY / ROAD / ALLEY,E 7TH ST / TRINITY ST,78701.0,9.0,GE,2,382.0,11.0,Cleared,2017-05-30 00:00:00,13A,Aggravated Assault,30.26800598,-97.73895531,2017.0,2.0,5.0,3.0,2.0
2017-02-03 09:22:00,ARMED ROBBERY,False,2017-02-03 09:22:00,STREETS / HWY / ROAD / ALLEY,5608 MEADOW CREST,78744.0,2.0,FR,6,519.0,,Cleared,2017-02-07 00:00:00,120,Robbery,30.19261625,-97.73418851,2017.0,2.0,5.0,3.0,9.0
2017-02-03 12:04:00,AGGRAVATED ASSAULT,False,2017-02-03 12:04:00,RESIDENCE / HOME,8404 GARCREEK CIR,78724.0,1.0,CH,7,302.0,22.02,Not Cleared,2017-03-16 00:00:00,13A,Aggravated Assault,30.29462672,-97.62919219,2017.0,2.0,5.0,3.0,12.0
2017-02-03 13:53:00,ARMED ROBBERY,False,2017-02-03 13:53:00,GAS / SERVICE STATIONS,13125 POND SPRINGS RD,78729.0,6.0,AD,4,165.0,204.1,Not Cleared,2017-03-14 00:00:00,120,Robbery,30.44384434,-97.7758332,2017.0,2.0,5.0,3.0,13.0
2017-02-03 23:52:00,AGGRAVATED ASSAULT,False,2017-02-03 23:52:00,STREETS / HWY / ROAD / ALLEY,500 E 6TH ST,78701.0,9.0,GE,2,382.0,11.0,Cleared,2017-03-07 00:00:00,13A,Aggravated Assault,30.26704868,-97.73799564,2017.0,2.0,5.0,3.0,23.0
2017-02-04 01:17:00,AGGRAVATED ASSAULT,False,2017-02-04 01:17:00,BAR / NIGHT CLUB,7522 N IH 35 SVRD SB,78752.0,4.0,ID,8,264.0,18.0,Cleared,2017-02-04 00:00:00,13A,Aggravated Assault,30.33847755,-97.70395965,2017.0,2.0,5.0,4.0,1.0
2017-02-04 02:33:00,AGGRAVATED ASSAULT,False,2017-02-04 04:02:00,RESIDENCE / HOME,8309 GRAYLEDGE DR,78753.0,4.0,ED,3,251.0,,Not Cleared,2017-05-09 00:00:00,13A,Aggravated Assault,30.34581602,-97.69274003,2017.0,2.0,5.0,4.0,2.0
2017-02-04 02:36:00,ARMED ROBBERY,False,2017-02-04 02:36:00,OTHER / UNKNOWN,1301 E 4TH ST,78702.0,3.0,CH,1,410.0,9.0,Not Cleared,2017-03-07 00:00:00,120,Robbery,30.26197719,-97.73027451,2017.0,2.0,5.0,4.0,2.0
2017-02-04 03:00:00,ARMED ROBBERY,False,2017-02-04 03:06:00,PARKING LOTS / GARAGE,6307 CAMERON RD,78723.0,1.0,ID,5,293.0,21.0,Not Cleared,2017-03-08 00:00:00,120,Robbery,30.32022465,-97.6951872,2017.0,2.0,5.0,4.0,3.0
2017-02-04 06:30:00,RAPE,False,2017-02-04 06:30:00,PARKING LOTS / GARAGE,700 BLOCK SAN JACINTO BLVD,78701.0,9.0,GE,2,381.0,11.0,Not Cleared,2017-02-08 00:00:00,11A,Rape,,,2017.0,2.0,5.0,4.0,6.0
2017-02-04 08:13:00,AGGRAVATED ASSAULT,False,2017-02-04 08:13:00,STREETS / HWY / ROAD / ALLEY,800 GUADALUPE ST,78701.0,9.0,GE,1,373.0,11.0,Cleared,2017-02-05 00:00:00,13A,Aggravated Assault,30.27124359,-97.74577908,2017.0,2.0,5.0,4.0,8.0
2017-02-05 02:57:00,MURDER,False,2017-02-05 02:57:00,STREETS / HWY / ROAD / ALLEY,9049 GALEWOOD DR,78758.0,4.0,ED,2,235.0,18.2,Cleared,2017-02-08 00:00:00,09A,Murder,30.36796982,-97.71444728,2017.0,2.0,5.0,5.0,2.0
2017-02-05 03:00:00,AGGRAVATED ASSAULT,False,2017-02-05 03:00:00,PARKING LOTS / GARAGE,501 E BEN WHITE BLVD EB,78745.0,3.0,DA,3,492.0,,Not Cleared,2017-02-21 00:00:00,13A,Aggravated Assault,30.21992497,-97.758596,2017.0,2.0,5.0,5.0,3.0
2017-02-05 19:49:00,ARMED ROBBERY,False,2017-02-05 19:50:00,STREETS / HWY / ROAD / ALLEY,1600 BLOCK ROYAL CREST DR,78741.0,3.0,HE,2,457.0,23.16,Not Cleared,2017-02-20 00:00:00,120,Robbery,30.23958468,-97.73098897,2017.0,2.0,5.0,5.0,19.0
2017-02-06 00:05:00,AGGRAVATED ASSAULT,False,2017-02-06 00:05:00,RESIDENCE / HOME,2400 WICKERSHAM LN,78741.0,3.0,HE,4,458.0,23.14,Not Cleared,2017-04-04 00:00:00,13A,Aggravated Assault,30.22764855,-97.72330072,2017.0,2.0,6.0,6.0,0.0
2017-02-06 01:38:00,AGGRAVATED ASSAULT,False,2017-02-06 01:38:00,RESIDENCE / HOME,3524 GREYSTONE DR,78731.0,10.0,BA,8,256.0,17.52,Not Cleared,2017-03-09 00:00:00,13A,Aggravated Assault,30.35851201,-97.75042152,2017.0,2.0,6.0,6.0,1.0
2017-02-06 02:00:00,AGGRAVATED ASSAULT,False,2017-02-06 16:15:00,STREETS / HWY / ROAD / ALLEY,W 6TH ST / RIO GRANDE ST,78701.0,9.0,GE,1,373.0,11.0,Not Cleared,2017-03-08 00:00:00,13A,Aggravated Assault,30.26994412,-97.74953066,2017.0,2.0,6.0,6.0,2.0
2017-02-06 15:24:00,ARMED ROBBERY,False,2017-02-06 15:24:00,RESIDENCE / HOME,1071 CLAYTON LN,78723.0,4.0,ID,5,292.0,21.0,Cleared,2017-04-04 00:00:00,120,Robbery,30.3185291,-97.7034222,2017.0,2.0,6.0,6.0,15.0
2017-02-07 01:54:00,ARMED ROBBERY,False,2017-02-07 01:54:00,STREETS / HWY / ROAD / ALLEY,BENNETT AVE / CAMINO LA COSTA,78752.0,4.0,ID,1,265.0,18.12,Not Cleared,2017-06-13 00:00:00,120,Robbery,30.32808553,-97.70229616,2017.0,2.0,6.0,7.0,1.0
2017-02-07 03:00:00,ARMED ROBBERY,False,2017-02-07 03:05:00,RESIDENCE / HOME,1112 BERGER ST,78721.0,3.0,CH,5,397.0,21.1,Not Cleared,2017-06-13 00:00:00,120,Robbery,30.26972657,-97.6880531,2017.0,2.0,6.0,7.0,3.0
2017-02-07 08:29:00,AGGRAVATED ASSAULT,False,2017-02-07 08:29:00,STREETS / HWY / ROAD / ALLEY,300 BLOCK E 6TH ST,78701.0,9.0,GE,2,381.0,11.0,Cleared,2017-02-07 00:00:00,13A,Aggravated Assault,30.2676012,-97.74015438,2017.0,2.0,6.0,7.0,8.0
2017-02-08 11:26:00,AGGRAVATED ASSAULT,False,2017-02-08 11:26:00,RESIDENCE / HOME,11700 METRIC BLVD,78758.0,7.0,AD,2,202.0,,Not Cleared,2017-06-06 00:00:00,13A,Aggravated Assault,30.39761338,-97.70517069,2017.0,2.0,6.0,8.0,11.0
2017-02-08 20:30:00,AGGRAVATED ASSAULT,False,2017-02-08 21:04:00,STREETS / HWY / ROAD / ALLEY,OVERBROOK DR / OVERDALE RD,78723.0,1.0,ID,4,298.0,,Cleared,2017-02-10 00:00:00,13A,Aggravated Assault,30.30238576,-97.68212444,2017.0,2.0,6.0,8.0,20.0
2017-02-09 01:42:00,AGGRAVATED ASSAULT,False,2017-02-09 01:42:00,OTHER / UNKNOWN,412 COMAL ST,78702.0,3.0,CH,1,410.0,9.0,Not Cleared,2017-03-10 00:00:00,13A,Aggravated Assault,30.26190753,-97.7272538,2017.0,2.0,6.0,9.0,1.0
2017-02-09 05:48:00,ARMED ROBBERY,False,2017-02-09 05:48:00,STREETS / HWY / ROAD / ALLEY,2901 S CAPITAL OF TEXAS HWY NB,78746.0,8.0,DA,5,462.0,19.1,Cleared,2017-02-15 00:00:00,120,Robbery,30.25788603,-97.80700704,2017.0,2.0,6.0,9.0,5.0
2017-02-09 15:30:00,AGGRAVATED ASSAULT,False,2017-02-09 19:41:00,FIELD / WOODS,2700 GRACY FARMS LN,78758.0,7.0,AD,2,202.0,18.49,Not Cleared,2017-03-15 00:00:00,13A,Aggravated Assault,30.4067171,-97.71296949,2017.0,2.0,6.0,9.0,15.0
2017-02-10 13:00:00,AGGRAVATED ASSAULT,False,2017-02-10 14:25:00,PARKING LOTS / GARAGE,1925 AIRPORT BLVD,78723.0,1.0,CH,4,351.0,21.0,Not Cleared,2017-02-24 00:00:00,13A,Aggravated Assault,30.28324167,-97.7039463,2017.0,2.0,6.0,10.0,13.0
2017-02-10 19:06:00,ARMED ROBBERY,False,2017-02-10 19:06:00,RESIDENCE / HOME,5137 MEADOW CREEK DR,78745.0,3.0,DA,3,490.0,20.03,Cleared,2017-06-08 00:00:00,120,Robbery,30.21376093,-97.78330874,2017.0,2.0,6.0,10.0,19.0
2017-02-11 04:00:00,AGGRAVATED ASSAULT,False,2017-02-11 05:51:00,BAR / NIGHT CLUB,1200 W HOWARD LN,78660.0,7.0,ED,6,174.0,18.4,Not Cleared,2017-04-02 00:00:00,13A,Aggravated Assault,30.42418877,-97.66974492,2017.0,2.0,6.0,11.0,4.0
2017-02-11 10:55:00,AGGRAVATED ASSAULT,False,2017-02-11 10:55:00,STREETS / HWY / ROAD / ALLEY,2700 S LAMAR BLVD,78704.0,5.0,DA,1,450.0,19.0,Not Cleared,2017-02-16 00:00:00,13A,Aggravated Assault,30.24539031,-97.78045246,2017.0,2.0,6.0,11.0,10.0
2017-02-11 13:56:00,AGGRAVATED ASSAULT,False,2017-02-11 15:09:00,RESIDENCE / HOME,1124 RUTLAND DR,78758.0,4.0,ED,1,239.0,18.22,Cleared,2017-02-11 00:00:00,13A,Aggravated Assault,30.36871033,-97.70372535,2017.0,2.0,6.0,11.0,13.0
2017-02-11 16:18:00,AGGRAVATED ASSAULT,False,2017-02-11 16:18:00,STREETS / HWY / ROAD / ALLEY,1500 E CESAR CHAVEZ ST,78702.0,3.0,CH,1,410.0,9.0,Cleared,2017-02-22 00:00:00,13A,Aggravated Assault,30.25895787,-97.72935475,2017.0,2.0,6.0,11.0,16.0
2017-02-12 16:50:00,AGGRAVATED ASSAULT,False,2017-02-12 20:01:00,RESIDENCE / HOME,306 W RUNDBERG LN,78753.0,4.0,ED,1,240.0,18.23,Cleared,2017-02-12 00:00:00,13A,Aggravated Assault,30.36239452,-97.6945729,2017.0,2.0,6.0,12.0,16.0
2017-02-12 16:55:00,ARMED ROBBERY,False,2017-02-12 16:55:00,STREETS / HWY / ROAD / ALLEY,MOONGLOW DR / ASTRO VIEW DR,78724.0,1.0,CH,6,303.0,22.0,,,120,Robbery,30.2969457,-97.64450584,2017.0,2.0,6.0,12.0,16.0
2017-02-12 20:00:00,AGGRAVATED ASSAULT,False,2017-02-16 22:23:00,STREETS / HWY / ROAD / ALLEY,W 29TH ST / HEMPHILL PARK,78705.0,9.0,BA,1,361.0,6.0,Not Cleared,2017-07-24 00:00:00,13A,Aggravated Assault,30.29448166,-97.74090276,2017.0,2.0,6.0,12.0,20.0
2017-02-12 21:51:00,AGGRAVATED ASSAULT,False,2017-02-13 00:35:00,OTHER / UNKNOWN,10701 RESEARCH BLVD SVRD NB,78759.0,7.0,AD,1,215.0,17.53,Cleared,2017-02-13 00:00:00,13A,Aggravated Assault,30.39849733,-97.74527325,2017.0,2.0,6.0,12.0,21.0
2017-02-13 00:00:00,AGGRAVATED ASSAULT,False,2017-02-14 16:54:00,STREETS / HWY / ROAD / ALLEY,E STASSNEY LN / S CONGRESS AVE,78745.0,3.0,DA,3,515.0,24.0,Not Cleared,2017-02-16 00:00:00,13A,Aggravated Assault,30.20493874,-97.7747991,2017.0,2.0,7.0,13.0,0.0
2017-02-13 17:29:00,AGGRAVATED ASSAULT,False,2017-02-13 17:29:00,RESIDENCE / HOME,9300 NORTH PLZ,78753.0,4.0,ED,3,251.0,18.13,Not Cleared,2017-03-09 00:00:00,13A,Aggravated Assault,30.35500615,-97.68519101,2017.0,2.0,7.0,13.0,17.0
2017-02-13 19:00:00,AGGRAVATED ASSAULT,False,2017-02-14 12:26:00,STREETS / HWY / ROAD / ALLEY,1030 NORWOOD PARK BLVD,78753.0,4.0,ID,2,252.0,18.13,Not Cleared,2017-03-07 00:00:00,13A,Aggravated Assault,30.3391525,-97.69116892,2017.0,2.0,7.0,13.0,19.0
2017-02-13 19:09:00,AGGRAVATED ASSAULT,False,2017-02-13 19:09:00,OTHER / UNKNOWN,2400 WICKERSHAM LN,78741.0,3.0,HE,4,458.0,23.14,Cleared,2017-02-14 00:00:00,13A,Aggravated Assault,30.22764855,-97.72330072,2017.0,2.0,7.0,13.0,19.0
2017-02-14 16:35:00,AGGRAVATED ASSAULT,False,2017-02-14 17:24:00,RESTAURANTS,5105 E STASSNEY LN,78744.0,2.0,FR,5,518.0,24.13,Not Cleared,2017-03-02 00:00:00,13A,Aggravated Assault,30.19303309,-97.73968942,2017.0,2.0,7.0,14.0,16.0
2017-02-14 22:00:00,RAPE,False,2017-02-16 18:33:00,RESIDENCE / HOME,2800 BLOCK RIO GRANDE ST,78705.0,9.0,BA,3,356.0,,Cleared,2017-02-22 00:00:00,11A,Rape,,,2017.0,2.0,7.0,14.0,22.0
2017-02-14 22:30:00,RAPE,True,2017-03-02 01:26:00,RESIDENCE / HOME,5700 BLOCK S MOPAC EXPY SVRD NB,78749.0,8.0,DA,4,79,17.5,Cleared,2017-03-09 00:00:00,11A,Rape,,,2017.0,2.0,7.0,14.0,22.0
2017-02-15 23:30:00,AGGRAVATED ASSAULT,False,2017-02-16 00:35:00,LIQUOR STORE,2915 E MARTIN LUTHER KING JR BLVD,78702.0,1.0,CH,3,394.0,8.0,Not Cleared,2017-02-16 00:00:00,13A,Aggravated Assault,30.28177567,-97.70783339,2017.0,2.0,7.0,15.0,23.0
2017-02-16 03:00:00,RAPE,False,2017-02-16 17:10:00,RESIDENCE / HOME,8200 BLOCK SAM RAYBURN DR,78753.0,4.0,ED,1,250.0,,Not Cleared,2017-03-10 00:00:00,11A,Rape,,,2017.0,2.0,7.0,16.0,3.0
2017-02-16 14:00:00,AGGRAVATED ASSAULT,False,2017-02-16 17:50:00,RESIDENCE / HOME,8926 N LAMAR BLVD,78758.0,4.0,ED,1,237.0,18.19,Cleared,2017-03-30 00:00:00,13A,Aggravated Assault,30.35875709,-97.69972149,2017.0,2.0,7.0,16.0,14.0
2017-02-17 00:49:00,AGGRAVATED ASSAULT,False,2017-02-17 00:49:00,GAS / SERVICE STATIONS,2600 GUADALUPE ST,78705.0,9.0,BA,1,360.0,6.0,Cleared,2017-02-17 00:00:00,13A,Aggravated Assault,30.29072945,-97.74181804,2017.0,2.0,7.0,17.0,0.0
2017-02-17 13:51:00,ARMED ROBBERY,False,2017-02-17 15:14:00,PARKING LOTS / GARAGE,9316 N LAMAR BLVD,78758.0,4.0,ED,1,237.0,18.19,Not Cleared,2017-02-27 00:00:00,120,Robbery,30.36276408,-97.69796598,2017.0,2.0,7.0,17.0,13.0
2017-02-17 15:08:00,ARMED ROBBERY,False,2017-02-17 16:02:00,OTHER / UNKNOWN,2439 E SH 71 SVRD WB,78617.0,2.0,HE,8,500.0,,Not Cleared,2017-02-23 00:00:00,120,Robbery,30.21397261,-97.65951439,2017.0,2.0,7.0,17.0,15.0
2017-02-18 17:24:00,ARMED ROBBERY,False,2017-02-18 17:24:00,DEPARTMENT / DISCOUNT STORE,10901 LAKELINE MALL DR,78717.0,6.0,AD,5,573.0,203.11,Cleared,2017-02-21 00:00:00,120,Robbery,30.47332237,-97.79565163,2017.0,2.0,7.0,18.0,17.0
2017-02-18 21:00:00,RAPE,False,2017-02-21 20:02:00,RESIDENCE / HOME,BRAK00 BLOCK LN,,,,,,,Not Cleared,2017-05-15 00:00:00,11A,Rape,,,2017.0,2.0,7.0,18.0,21.0
2017-02-18 21:25:00,AGGRAVATED ASSAULT,False,2017-02-18 22:14:00,PARKING LOTS / GARAGE,11701 METRIC BLVD,78758.0,7.0,ED,4,2211.0,18.44,Not Cleared,2017-03-31 00:00:00,13A,Aggravated Assault,30.39640062,-97.70517836,2017.0,2.0,7.0,18.0,21.0
2017-02-19 04:55:00,AGGRAVATED ASSAULT,False,2017-02-19 04:55:00,PARKING LOTS / GARAGE,6707 CAMERON RD,78752.0,1.0,ID,2,266.0,18.11,Cleared,2017-02-22 00:00:00,13A,Aggravated Assault,30.32233701,-97.69398812,2017.0,2.0,7.0,19.0,4.0
2017-02-19 08:48:00,RAPE,False,2017-02-19 08:48:00,RESIDENCE / HOME,13000 BLOCK HYMEADOW DR,78729.0,6.0,AD,5,153.0,204.08,Cleared,2017-03-27 00:00:00,11A,Rape,,,2017.0,2.0,7.0,19.0,8.0
2017-02-19 12:29:00,ARMED ROBBERY,False,2017-02-19 12:29:00,RESIDENCE / HOME,1508 SOUTHPORT DR,78704.0,5.0,DA,2,468.0,20.05,Cleared,2017-04-10 00:00:00,120,Robbery,30.2321832,-97.77975635,2017.0,2.0,7.0,19.0,12.0
2017-02-19 17:25:00,ARMED ROBBERY,False,2017-02-19 17:33:00,RESIDENCE / HOME,7308 MEADOR AVE,78752.0,4.0,ID,1,265.0,18.12,Cleared,2017-02-20 00:00:00,120,Robbery,30.33103537,-97.69527206,2017.0,2.0,7.0,19.0,17.0
2017-02-19 19:35:00,ARMED ROBBERY,False,2017-02-19 20:08:00,PARKING LOTS / GARAGE,4089 MOUNT BONNELL RD,78731.0,10.0,BA,7,314.0,1.02,Not Cleared,2017-03-21 00:00:00,120,Robbery,30.32302272,-97.77324037,2017.0,2.0,7.0,19.0,19.0
2017-02-19 19:55:00,ARMED ROBBERY,False,2017-02-19 22:33:00,GAS / SERVICE STATIONS,1135 AIRPORT BLVD,78721.0,1.0,CH,4,425.0,21.11,Cleared,2017-02-20 00:00:00,120,Robbery,30.269543,-97.69635988,2017.0,2.0,7.0,19.0,19.0
2017-02-19 20:45:00,ARMED ROBBERY,False,2017-02-19 21:04:00,PARKING LOTS / GARAGE,2011 IROQUOIS LN,78741.0,3.0,HE,2,482.0,,Cleared,2017-04-17 00:00:00,120,Robbery,30.22764669,-97.73619763,2017.0,2.0,7.0,19.0,20.0
2017-02-20 17:00:00,AGGRAVATED ASSAULT,False,2017-02-21 16:12:00,STREETS / HWY / ROAD / ALLEY,MILLRACE DR / LOYOLA LN,78724.0,1.0,CH,7,300.0,22.0,Cleared,2017-04-20 00:00:00,13A,Aggravated Assault,30.30303569,-97.65715139,2017.0,2.0,8.0,20.0,17.0
2017-02-20 17:49:00,AGGRAVATED ASSAULT,False,2017-02-20 17:49:00,PARKING LOTS / GARAGE,3603 SOUTHRIDGE DR,78704.0,3.0,DA,2,468.0,20.0,Not Cleared,2017-03-13 00:00:00,13A,Aggravated Assault,30.23405088,-97.77742329,2017.0,2.0,8.0,20.0,17.0
2017-02-21 00:40:00,ARMED ROBBERY,False,2017-02-21 00:40:00,STREETS / HWY / ROAD / ALLEY,TERI RD / NUCKOLS CROSSING RD,78744.0,2.0,FR,6,519.0,24.31,Cleared,2017-02-28 00:00:00,120,Robbery,30.19499404,-97.73778776,2017.0,2.0,8.0,21.0,0.0
2017-02-21 00:54:00,ARMED ROBBERY,False,2017-02-21 01:40:00,GAS / SERVICE STATIONS,2222 E OLTORF ST,78741.0,3.0,HE,2,457.0,23.15,Cleared,2017-02-23 00:00:00,120,Robbery,30.23017696,-97.73118228,2017.0,2.0,8.0,21.0,0.0
2017-02-21 01:02:00,AGGRAVATED ASSAULT,False,2017-02-21 01:02:00,RESIDENCE / HOME,1511 CAPE VERDE CV,,,,,,,,,13A,Aggravated Assault,,,2017.0,2.0,8.0,21.0,1.0
2017-02-21 03:38:00,ARMED ROBBERY,False,2017-02-21 03:38:00,GAS / SERVICE STATIONS,3112 E CESAR CHAVEZ ST,78702.0,3.0,CH,1,421.0,9.0,Not Cleared,2017-03-01 00:00:00,120,Robbery,30.25206413,-97.70906896,2017.0,2.0,8.0,21.0,3.0
2017-02-21 04:33:00,AGGRAVATED ASSAULT,False,2017-02-21 21:24:00,STREETS / HWY / ROAD / ALLEY,700 BLOCK E 7TH ST,78701.0,9.0,GE,2,382.0,11.0,Cleared,2017-02-21 00:00:00,13A,Aggravated Assault,30.26744445,-97.73553891,2017.0,2.0,8.0,21.0,4.0
2017-02-21 20:15:00,AGGRAVATED ASSAULT,False,2017-02-21 21:04:00,RESIDENCE / HOME,WENTWORTH DR / COLONY LOOP DR,78724.0,1.0,CH,7,302.0,22.0,Not Cleared,2017-03-31 00:00:00,13A,Aggravated Assault,30.29590927,-97.62792965,2017.0,2.0,8.0,21.0,20.0
2017-02-22 01:00:00,AGGRAVATED ASSAULT,False,2017-02-22 04:18:00,PARKING LOTS / GARAGE,515 S PLEASANT VALLEY RD,78741.0,3.0,HE,3,442.0,23.17,,,13A,Aggravated Assault,30.24642671,-97.71421468,2017.0,2.0,8.0,22.0,1.0
2017-02-22 22:06:00,ARMED ROBBERY,False,2017-02-22 22:06:00,STREETS / HWY / ROAD / ALLEY,OAK GROVE AVE / SOL WILSON AVE,78702.0,1.0,CH,2,415.0,8.0,Not Cleared,2017-02-23 00:00:00,120,Robbery,30.27534282,-97.70355304,2017.0,2.0,8.0,22.0,22.0
2017-02-23 17:10:00,MURDER,False,2018-05-03 09:26:00,STREETS / HWY / ROAD / ALLEY,5600 PURPLE SAGE DR,78724.0,1.0,CH,7,300.0,,Cleared,2018-05-08 00:00:00,09A,Murder,30.30968426,-97.65469098,2017.0,2.0,8.0,23.0,17.0
2017-02-23 18:00:00,RAPE,False,2017-02-27 22:01:00,FIELD / WOODS,4800 BLOCK MANOR RD,78723.0,9.0,BA,4,900.0,3.0,Cleared,2017-04-05 00:00:00,11A,Rape,,,2017.0,2.0,8.0,23.0,18.0
2017-02-23 20:53:00,ARMED ROBBERY,False,2017-02-23 20:53:00,SPECIALTY  STORE (TV  FUR ETC.),9607 RESEARCH BLVD NB,78759.0,7.0,AD,1,215.0,,Not Cleared,2017-03-14 00:00:00,120,Robbery,30.38772694,-97.74390948,2017.0,2.0,8.0,23.0,20.0
2017-02-23 21:41:00,AGGRAVATED ASSAULT,False,2017-02-23 22:25:00,PARKING LOTS / GARAGE,5506 ROSE HILL CIR,78745.0,5.0,DA,3,507.0,,Not Cleared,2017-03-10 00:00:00,13A,Aggravated Assault,30.21432975,-97.79421894,2017.0,2.0,8.0,23.0,21.0
2017-02-23 21:45:00,AGGRAVATED ASSAULT,False,2017-02-23 22:31:00,STREETS / HWY / ROAD / ALLEY,810 E SLAUGHTER LN,78744.0,2.0,FR,7,796.0,24.29,Not Cleared,2017-04-04 00:00:00,13A,Aggravated Assault,30.15957223,-97.77588295,2017.0,2.0,8.0,23.0,21.0
2017-02-23 22:25:00,AGGRAVATED ASSAULT,False,2017-02-23 22:25:00,RESIDENCE / HOME,1616 WEBBERVILLE RD,78721.0,1.0,CH,4,396.0,21.0,Not Cleared,2017-03-27 00:00:00,13A,Aggravated Assault,30.28098932,-97.67900756,2017.0,2.0,8.0,23.0,22.0
2017-02-24 02:52:00,AGGRAVATED ASSAULT,False,2017-02-24 02:52:00,STREETS / HWY / ROAD / ALLEY,2000 W STASSNEY LN,78745.0,5.0,DA,4,506.0,17.12,,,13A,Aggravated Assault,30.21557575,-97.79769496,2017.0,2.0,8.0,24.0,2.0
2017-02-24 17:44:00,AGGRAVATED ASSAULT,False,2017-02-24 17:44:00,RESIDENCE / HOME,4805 GRAY FOX DR,78759.0,6.0,AD,2,199.0,,Not Cleared,2017-03-02 00:00:00,13A,Aggravated Assault,30.41143529,-97.73875078,2017.0,2.0,8.0,24.0,17.0
2017-02-24 21:46:00,AGGRAVATED ASSAULT,False,2017-02-24 22:24:00,TRANSPORTATION (AIR / BUS / TRAIN - TERMINALS),301 W BEN WHITE BLVD SVRD EB,78745.0,3.0,DA,3,491.0,20.0,Not Cleared,2017-03-16 00:00:00,13A,Aggravated Assault,30.22410692,-97.76675373,2017.0,2.0,8.0,24.0,21.0
2017-02-25 00:01:00,AGGRAVATED ASSAULT,False,2017-02-25 00:01:00,STREETS / HWY / ROAD / ALLEY,300 E 6TH ST,78701.0,9.0,GE,2,381.0,11.0,Cleared,2017-02-25 00:00:00,13A,Aggravated Assault,30.2676012,-97.74015438,2017.0,2.0,8.0,25.0,0.0
2017-02-25 02:30:00,AGGRAVATED ASSAULT,False,2017-02-25 02:33:00,PARKING LOTS / GARAGE,13730 N FM 620 RD SB,78717.0,6.0,AD,5,573.0,203.11,Not Cleared,2017-03-03 00:00:00,13A,Aggravated Assault,30.47675373,-97.77494682,2017.0,2.0,8.0,25.0,2.0
2017-02-25 09:36:00,AGGRAVATED ASSAULT,False,2017-02-25 22:57:00,GAS / SERVICE STATIONS,6518 ED BLUESTEIN BLVD SB,78723.0,1.0,CH,4,299.0,21.0,Cleared,2017-02-26 00:00:00,13A,Aggravated Assault,30.30332175,-97.66163497,2017.0,2.0,8.0,25.0,9.0
2017-02-25 10:12:00,RAPE,False,2017-02-25 10:12:00,RESIDENCE / HOME,1100 BLOCK GUNTER ST,78721.0,1.0,CH,4,425,21.11,Cleared,2017-03-04 00:00:00,11A,Rape,,,2017.0,2.0,8.0,25.0,10.0
2017-02-25 14:45:00,AGGRAVATED ASSAULT,False,2017-02-25 15:31:00,RESIDENCE / HOME,2506 MANOR RD,78722.0,9.0,CH,3,350.0,4.02,Cleared,2017-02-28 00:00:00,13A,Aggravated Assault,30.28521907,-97.71549454,2017.0,2.0,8.0,25.0,14.0
2017-02-25 16:31:00,AGGRAVATED ASSAULT,False,2017-02-25 21:02:00,STREETS / HWY / ROAD / ALLEY,WALLINGWOOD DR / S MOPAC EXPY SVRD NB,78746.0,8.0,DA,1,449.0,19.11,Cleared,2017-02-25 00:00:00,13A,Aggravated Assault,30.26532309,-97.7823112,2017.0,2.0,8.0,25.0,16.0
2017-02-25 17:58:00,ARMED ROBBERY,False,2017-02-25 22:05:00,RESIDENCE / HOME,104 W LOLA DR,78753.0,4.0,ED,1,592.0,,Cleared,2017-07-13 00:00:00,120,Robbery,30.34726856,-97.7038659,2017.0,2.0,8.0,25.0,17.0
2017-02-25 18:00:00,AGGRAVATED ASSAULT,False,2017-02-25 19:54:00,RESIDENCE / HOME,3300 PARKER LN,78741.0,3.0,HE,2,482.0,23.07,Not Cleared,2017-03-08 00:00:00,13A,Aggravated Assault,30.22253274,-97.7423905,2017.0,2.0,8.0,25.0,18.0
2017-02-25 21:10:00,ARMED ROBBERY,False,2017-02-25 21:24:00,STREETS / HWY / ROAD / ALLEY,800 LYDIA ST,78702.0,1.0,CH,2,411.0,9.01,,,120,Robbery,30.26615964,-97.72874544,2017.0,2.0,8.0,25.0,21.0
2017-02-26 02:00:00,RAPE,False,2017-03-01 23:10:00,HOTEL / MOTEL / ETC.,300 BLOCK E 4TH ST,78701.0,9.0,GE,2,381.0,11.0,Not Cleared,2017-06-01 00:00:00,11A,Rape,,,2017.0,2.0,8.0,26.0,2.0
2017-02-26 02:30:00,AGGRAVATED ASSAULT,False,2017-02-26 18:56:00,STREETS / HWY / ROAD / ALLEY,6000 N IH 35 SVRD SB,78752.0,4.0,ID,8,279.0,,Not Cleared,2017-03-01 00:00:00,13A,Aggravated Assault,30.3222052,-97.70752586,2017.0,2.0,8.0,26.0,2.0
2017-02-26 04:30:00,ARMED ROBBERY,False,2017-02-26 05:47:00,STREETS / HWY / ROAD / ALLEY,521 THOMPSON LN,78742.0,3.0,HE,5,610.0,23.1,Cleared,2018-10-20 00:00:00,120,Robbery,30.23714472,-97.68507484,2017.0,2.0,8.0,26.0,4.0
2017-02-27 01:21:00,AGGRAVATED ASSAULT,False,2017-02-27 01:21:00,RESIDENCE / HOME,3309 CATALINA DR,78741.0,3.0,HE,2,482.0,23.0,Not Cleared,2017-03-07 00:00:00,13A,Aggravated Assault,30.21949922,-97.73818385,2017.0,2.0,9.0,27.0,1.0
2017-02-27 07:53:00,AGGRAVATED ASSAULT,False,2017-02-27 07:53:00,STREETS / HWY / ROAD / ALLEY,E 12TH ST / CHICON ST,78702.0,1.0,CH,3,392.0,8.0,Cleared,2017-04-25 00:00:00,13A,Aggravated Assault,30.27378531,-97.71991443,2017.0,2.0,9.0,27.0,7.0
2017-02-27 16:44:00,AGGRAVATED ASSAULT,False,2017-02-27 16:44:00,STREETS / HWY / ROAD / ALLEY,500 E 5TH ST,78701.0,9.0,GE,2,382.0,11.0,Cleared,2017-03-08 00:00:00,13A,Aggravated Assault,30.26587546,-97.73846126,2017.0,2.0,9.0,27.0,16.0
2017-02-27 17:35:00,AGGRAVATED ASSAULT,False,2017-02-27 17:35:00,PARKING LOTS / GARAGE,707 CARPENTER AVE,78753.0,4.0,ED,1,250.0,18.0,Not Cleared,2017-02-28 00:00:00,13A,Aggravated Assault,30.35776775,-97.69935841,2017.0,2.0,9.0,27.0,17.0
2017-02-27 21:07:00,AGGRAVATED ASSAULT,False,2017-02-27 22:27:00,RESTAURANTS,5119 BURNET RD,78756.0,7.0,BA,6,651.0,2.0,Not Cleared,2017-03-16 00:00:00,13A,Aggravated Assault,30.32334556,-97.73922369,2017.0,2.0,9.0,27.0,21.0
2017-02-28 01:16:00,AGGRAVATED ASSAULT,False,2017-02-28 01:16:00,STREETS / HWY / ROAD / ALLEY,500 BLOCK NECHES ST,78701.0,9.0,GE,2,382.0,,Cleared,2017-02-28 00:00:00,13A,Aggravated Assault,30.26633005,-97.73849973,2017.0,2.0,9.0,28.0,1.0
2017-02-28 08:07:00,AGGRAVATED ASSAULT,False,2017-02-28 08:07:00,PARKING LOTS / GARAGE,3600 S IH 35 SVRD SB,78704.0,3.0,DA,2,480.0,23.0,Not Cleared,2017-03-13 00:00:00,13A,Aggravated Assault,30.22235873,-97.74888756,2017.0,2.0,9.0,28.0,8.0
2017-02-28 12:38:00,AGGRAVATED ASSAULT,False,2017-02-28 12:38:00,RESIDENCE / HOME,5603 MANOR RD,78723.0,1.0,ID,4,298.0,21.0,Not Cleared,2017-03-08 00:00:00,13A,Aggravated Assault,30.30357658,-97.68198713,2017.0,2.0,9.0,28.0,12.0
2017-02-28 19:22:00,AGGRAVATED ASSAULT,False,2017-02-28 23:59:00,STREETS / HWY / ROAD / ALLEY,5201 CAMERON RD,78723.0,4.0,ID,5,48.0,21.0,Not Cleared,2017-03-14 00:00:00,13A,Aggravated Assault,30.30994366,-97.70844593,2017.0,2.0,9.0,28.0,19.0
2017-02-28 22:53:00,AGGRAVATED ASSAULT,False,2017-03-01 00:37:00,RESIDENCE / HOME,11639 RIVER OAKS TRL,78753.0,1.0,ED,7,759.0,18.32,Not Cleared,2017-03-31 00:00:00,13A,Aggravated Assault,30.37894172,-97.66536404,2017.0,2.0,9.0,28.0,22.0
2017-03-01 02:00:00,AGGRAVATED ASSAULT,False,2017-03-01 04:37:00,RESIDENCE / HOME,1521 REAGAN HILL DR,78752.0,4.0,ID,2,266.0,18.11,Not Cleared,2017-03-03 00:00:00,13A,Aggravated Assault,30.32573466,-97.68909512,2017.0,3.0,9.0,1.0,2.0
2017-03-01 02:15:00,ARMED ROBBERY,False,2017-03-01 02:33:00,STREETS / HWY / ROAD / ALLEY,600 E 7TH ST,78701.0,9.0,GE,2,382.0,11.0,Cleared,2017-05-17 00:00:00,120,Robbery,30.26752585,-97.73656966,2017.0,3.0,9.0,1.0,2.0
2017-03-01 12:00:00,RAPE,True,2017-10-10 17:19:00,RESIDENCE / HOME,2600 BLOCK WHELESS LN,78723.0,1.0,ID,4,297.0,21.12,Cleared,2018-01-02 00:00:00,11A,Rape,,,2017.0,3.0,9.0,1.0,12.0
2017-03-01 16:24:00,AGGRAVATED ASSAULT,False,2017-03-01 16:56:00,GAS / SERVICE STATIONS,1919 S PLEASANT VALLEY RD,78741.0,3.0,HE,3,442.0,23.18,Not Cleared,2017-05-09 00:00:00,13A,Aggravated Assault,30.23402135,-97.72209908,2017.0,3.0,9.0,1.0,16.0
2017-03-01 16:41:00,ARMED ROBBERY,False,2017-03-01 16:43:00,BANKS / SAVINGS & LOAN,2817 E CESAR CHAVEZ ST,78702.0,3.0,CH,1,420.0,10.0,Cleared,2017-06-27 00:00:00,120,Robbery,30.25246278,-97.71201707,2017.0,3.0,9.0,1.0,16.0
2017-03-01 18:29:00,ARMED ROBBERY,False,2017-03-01 18:29:00,RESIDENCE / HOME,7301 PROVIDENCE AVE,78752.0,4.0,ID,1,265.0,,Not Cleared,2017-04-10 00:00:00,120,Robbery,30.330854,-97.69621552,2017.0,3.0,9.0,1.0,18.0
2017-03-01 20:44:00,AGGRAVATED ASSAULT,False,2017-03-01 20:44:00,GAMBLING FACILITY / CASINO / RACE TRACK,111 RAMBLE LN,78745.0,3.0,DA,3,514.0,24.02,,,13A,Aggravated Assault,30.20892777,-97.77347749,2017.0,3.0,9.0,1.0,20.0
2017-03-01 22:12:00,ARMED ROBBERY,False,2017-03-01 22:12:00,RESTAURANTS,1923 E 7TH ST,78702.0,3.0,CH,1,419.0,9.0,Cleared,2017-03-24 00:00:00,120,Robbery,30.26203096,-97.72102469,2017.0,3.0,9.0,1.0,22.0
2017-03-02 00:01:00,AGGRAVATED ASSAULT,False,2017-03-02 13:28:00,HOTEL / MOTEL / ETC.,2707 S IH 35 SVRD NB,78741.0,3.0,HE,2,482.0,23.0,,,13A,Aggravated Assault,30.2290798,-97.74326956,2017.0,3.0,9.0,2.0,0.0
2017-03-02 01:29:00,AGGRAVATED ASSAULT,False,2017-03-02 01:29:00,STREETS / HWY / ROAD / ALLEY,3213 GONZALES ST,78702.0,3.0,CH,2,422.0,9.0,Not Cleared,2017-03-02 00:00:00,13A,Aggravated Assault,30.25847413,-97.70499148,2017.0,3.0,9.0,2.0,1.0
2017-03-02 10:40:00,AGGRAVATED ASSAULT,False,2017-03-02 10:40:00,GOVERNMENT / PUBLIC BUILDING,719 E 6TH ST,78701.0,9.0,GE,2,382.0,11.0,Not Cleared,2017-03-20 00:00:00,13A,Aggravated Assault,30.26576521,-97.7354637,2017.0,3.0,9.0,2.0,10.0
2017-03-02 17:23:00,AGGRAVATED ASSAULT,False,2017-03-02 17:23:00,PARKING LOTS / GARAGE,500 W WILLIAM CANNON DR,78745.0,2.0,FR,4,513.0,24.0,Not Cleared,2017-04-05 00:00:00,13A,Aggravated Assault,30.1965442,-97.78511194,2017.0,3.0,9.0,2.0,17.0
2017-03-03 05:33:00,AGGRAVATED ASSAULT,False,2017-03-03 05:33:00,RESIDENCE / HOME,7525 E US 290 HWY SVRD EB,78723.0,1.0,ID,3,296.0,21.13,Not Cleared,2017-04-27 00:00:00,13A,Aggravated Assault,30.32382985,-97.67518807,2017.0,3.0,9.0,3.0,5.0
2017-03-03 15:57:00,AGGRAVATED ASSAULT,False,2017-03-03 15:57:00,PARK / PLAYGROUND,E 10TH ST / RED RIVER ST,78701.0,1.0,GE,1,383.0,11.0,Not Cleared,2017-04-20 00:00:00,13A,Aggravated Assault,30.27022719,-97.73578089,2017.0,3.0,9.0,3.0,15.0
2017-03-03 19:46:00,ARMED ROBBERY,False,2017-03-03 19:46:00,PARKING LOTS / GARAGE,8208 RESEARCH BLVD SVRD SB,78757.0,7.0,ID,7,248.0,18.18,,,120,Robbery,30.35386342,-97.71620983,2017.0,3.0,9.0,3.0,19.0
2017-03-03 20:07:00,AGGRAVATED ASSAULT,False,2017-03-03 20:07:00,RESIDENCE / HOME,4702 CYPRESS BND,78744.0,2.0,FR,6,496.0,24.31,Not Cleared,2017-03-27 00:00:00,13A,Aggravated Assault,30.19871845,-97.73469242,2017.0,3.0,9.0,3.0,20.0
2017-03-03 21:00:00,ARMED ROBBERY,False,2017-03-04 14:21:00,STREETS / HWY / ROAD / ALLEY,2800 ROGGE LN,78723.0,1.0,ID,4,297.0,21.12,Not Cleared,2017-03-08 00:00:00,120,Robbery,30.30469036,-97.68144937,2017.0,3.0,9.0,3.0,21.0
2017-03-03 21:53:00,AGGRAVATED ASSAULT,False,2017-03-03 21:53:00,STREETS / HWY / ROAD / ALLEY,6200 BLOCK FM 969 RD,78724.0,1.0,CH,6,301.0,22.08,Cleared,2017-03-03 00:00:00,13A,Aggravated Assault,30.28531045,-97.66300185,2017.0,3.0,9.0,3.0,21.0
2017-03-04 01:13:00,RAPE,False,2017-03-04 03:16:00,RESIDENCE / HOME,2400 BLOCK TOWN LAKE CIR,78741.0,3.0,HE,2,441.0,23.0,Cleared,2017-04-07 00:00:00,11A,Rape,,,2017.0,3.0,9.0,4.0,1.0
2017-03-04 17:40:00,ARMED ROBBERY,False,2017-03-04 18:12:00,STREETS / HWY / ROAD / ALLEY,1621 E CESAR CHAVEZ ST,78702.0,3.0,CH,1,409.0,10.0,Not Cleared,2017-03-08 00:00:00,120,Robbery,30.25759373,-97.72705659,2017.0,3.0,9.0,4.0,17.0
2017-03-04 19:12:00,ARMED ROBBERY,False,2017-03-04 20:48:00,PARKING LOTS / GARAGE,1088 PARK PLZ,78753.0,4.0,ED,3,251.0,18.13,,,120,Robbery,30.34887091,-97.6852326,2017.0,3.0,9.0,4.0,19.0
2017-03-04 20:00:00,AGGRAVATED ASSAULT,False,2017-03-05 00:42:00,GAS / SERVICE STATIONS,6214 E RIVERSIDE DR,78741.0,3.0,HE,3,443.0,,,,13A,Aggravated Assault,30.22570611,-97.70390373,2017.0,3.0,9.0,4.0,20.0
2017-03-05 00:00:00,RAPE,False,2017-03-06 18:06:00,RESIDENCE / HOME,2400 BLOCK SAN GABRIEL ST,78705.0,9.0,BA,3,356.0,6.03,Not Cleared,2017-08-02 00:00:00,11A,Rape,,,2017.0,3.0,9.0,5.0,0.0
2017-03-05 01:29:00,RAPE,False,2017-03-05 01:29:00,OTHER / UNKNOWN,500 BLOCK BLOCK W 24TH ST,78705.0,9.0,BA,1,360.0,6.03,Not Cleared,2017-04-19 00:00:00,11A,Rape,,,2017.0,3.0,9.0,5.0,1.0
2017-03-05 11:49:00,AGGRAVATED ASSAULT,False,2017-03-05 11:49:00,PARKING LOTS / GARAGE,2400 S CONGRESS AVE,78704.0,3.0,DA,2,475.0,13.0,Cleared,2017-03-06 00:00:00,13A,Aggravated Assault,30.23829084,-97.75459354,2017.0,3.0,9.0,5.0,11.0
2017-03-06 00:39:00,ARMED ROBBERY,False,2017-03-06 00:39:00,STREETS / HWY / ROAD / ALLEY,5400 FREIDRICH LN,78744.0,2.0,FR,5,493.0,,Not Cleared,2017-03-08 00:00:00,120,Robbery,30.20006192,-97.75666834,2017.0,3.0,10.0,6.0,0.0
2017-03-06 18:38:00,AGGRAVATED ASSAULT,False,2017-03-06 18:38:00,HOTEL / MOTEL / ETC.,11901 PAVILION BLVD,78759.0,10.0,AD,7,190.0,25.0,Cleared,2017-04-26 00:00:00,13A,Aggravated Assault,30.42460539,-97.75437566,2017.0,3.0,10.0,6.0,18.0
2017-03-06 20:11:00,ARMED ROBBERY,False,2017-03-06 22:43:00,STREETS / HWY / ROAD / ALLEY,2504 DURWOOD ST,78704.0,3.0,DA,2,475.0,13.0,Cleared,2017-05-07 00:00:00,120,Robbery,30.23933421,-97.75915549,2017.0,3.0,10.0,6.0,20.0
2017-03-07 09:38:00,AGGRAVATED ASSAULT,False,2017-03-07 09:38:00,PARKING LOTS / GARAGE,2305 E 7TH ST,78702.0,3.0,CH,1,419.0,,Not Cleared,2017-06-13 00:00:00,13A,Aggravated Assault,30.26107328,-97.71668467,2017.0,3.0,10.0,7.0,9.0
2017-03-07 17:30:00,AGGRAVATED ASSAULT,False,2017-03-07 18:25:00,PARKING LOTS / GARAGE,1500 E PARMER LN,78753.0,7.0,ED,6,206.0,18.39,,,13A,Aggravated Assault,30.38978843,-97.65120925,2017.0,3.0,10.0,7.0,17.0
2017-03-07 17:42:00,AGGRAVATED ASSAULT,False,2017-03-07 17:42:00,GROCERY / SUPERMARKET,8752 RESEARCH BLVD SVRD SB,78757.0,7.0,ID,7,234.0,18.18,Not Cleared,2017-04-03 00:00:00,13A,Aggravated Assault,30.36504573,-97.71968391,2017.0,3.0,10.0,7.0,17.0
2017-03-08 02:00:00,RAPE,True,2017-03-08 16:22:00,RESIDENCE / HOME,2900 BLOCK E 12TH ST,78702.0,1.0,CH,3,394.0,8.0,Not Cleared,2017-04-18 00:00:00,11A,Rape,,,2017.0,3.0,10.0,8.0,2.0
2017-03-08 04:11:00,ARMED ROBBERY,False,2017-03-08 04:11:00,STREETS / HWY / ROAD / ALLEY,1400 BLOCK TINNIN FORD RD,78741.0,3.0,HE,2,441.0,,Cleared,2017-04-10 00:00:00,120,Robbery,,,2017.0,3.0,10.0,8.0,4.0
2017-03-08 08:00:00,RAPE,True,2017-03-08 20:47:00,RESIDENCE / HOME,700 BLOCK W WILLIAM CANNON DR,78745.0,2.0,FR,3,526.0,,Cleared,2017-03-09 00:00:00,11A,Rape,,,2017.0,3.0,10.0,8.0,8.0
2017-03-08 19:55:00,AGGRAVATED ASSAULT,False,2017-03-08 20:28:00,STREETS / HWY / ROAD / ALLEY,1700 E 38TH ST,78722.0,9.0,CH,3,350.0,,,,13A,Aggravated Assault,30.29110058,-97.71367113,2017.0,3.0,10.0,8.0,19.0
2017-03-08 20:11:00,ARMED ROBBERY,False,2017-03-08 22:05:00,TRANSPORTATION (AIR / BUS / TRAIN - TERMINALS),400 W WILLIAM CANNON DR,78745.0,2.0,FR,4,513.0,24.0,Not Cleared,2017-03-21 00:00:00,120,Robbery,30.19580856,-97.78504585,2017.0,3.0,10.0,8.0,20.0
2017-03-08 21:01:00,ARMED ROBBERY,False,2017-03-08 22:46:00,GAS / SERVICE STATIONS,11100 N LAMAR BLVD,78758.0,4.0,ED,4,2213.0,18.45,Not Cleared,2017-05-05 00:00:00,120,Robbery,30.38000532,-97.68790196,2017.0,3.0,10.0,8.0,21.0
2017-03-09 05:03:00,ARMED ROBBERY,False,2017-03-09 05:57:00,DRUG STORE / DR. OFFICE / HOSPITAL,1920 E RIVERSIDE DR,78741.0,3.0,HE,2,441.0,23.0,,,120,Robbery,30.24250177,-97.72809745,2017.0,3.0,10.0,9.0,5.0
2017-03-09 10:03:00,AGGRAVATED ASSAULT,False,2017-03-09 10:03:00,PARKING LOTS / GARAGE,2302 DURWOOD ST,78704.0,9.0,DA,1,476.0,13.0,Not Cleared,2017-04-10 00:00:00,13A,Aggravated Assault,30.24193769,-97.7577335,2017.0,3.0,10.0,9.0,10.0
2017-03-10 00:02:00,RAPE,True,2017-03-28 14:31:00,RESIDENCE / HOME,00 BLOCK TRINITY ST,78701.0,9.0,GE,3,406.0,,Not Cleared,2017-04-18 00:00:00,11A,Rape,,,2017.0,3.0,10.0,10.0,0.0
2017-03-10 09:02:00,AGGRAVATED ASSAULT,False,2017-03-10 09:02:00,GOVERNMENT / PUBLIC BUILDING,800 GUADALUPE ST,78701.0,9.0,GE,1,373.0,11.0,Not Cleared,2017-03-24 00:00:00,13A,Aggravated Assault,30.27124359,-97.74577908,2017.0,3.0,10.0,10.0,9.0
2017-03-10 10:00:00,AGGRAVATED ASSAULT,False,2017-03-10 12:05:00,CONVENIENCE STORE,5901 BURNET RD,78757.0,7.0,ID,7,276.0,15.0,Not Cleared,2017-04-27 00:00:00,13A,Aggravated Assault,30.33492618,-97.73930547,2017.0,3.0,10.0,10.0,10.0
2017-03-10 19:53:00,MURDER,False,2017-03-10 19:53:00,STREETS / HWY / ROAD / ALLEY,1603 E 7TH ST,78702.0,3.0,CH,1,410.0,,Cleared,2017-05-05 00:00:00,09A,Murder,30.26358801,-97.72590307,2017.0,3.0,10.0,10.0,19.0
2017-03-11 01:03:00,AGGRAVATED ASSAULT,False,2017-03-11 01:03:00,STREETS / HWY / ROAD / ALLEY,700 NECHES ST,78701.0,9.0,GE,2,382.0,11.0,Not Cleared,2017-04-28 00:00:00,13A,Aggravated Assault,30.26781266,-97.7379656,2017.0,3.0,10.0,11.0,1.0
2017-03-11 03:04:00,ARMED ROBBERY,False,2017-03-11 03:04:00,STREETS / HWY / ROAD / ALLEY,1125 LEONA ST,78702.0,1.0,CH,2,412.0,,Not Cleared,2017-06-28 00:00:00,120,Robbery,30.26809176,-97.72124725,2017.0,3.0,10.0,11.0,3.0
2017-03-11 06:20:00,AGGRAVATED ASSAULT,False,2017-03-11 06:20:00,STREETS / HWY / ROAD / ALLEY,700 RED RIVER ST,78701.0,9.0,GE,2,382.0,11.0,Cleared,2017-03-16 00:00:00,13A,Aggravated Assault,30.26751257,-97.73686469,2017.0,3.0,10.0,11.0,6.0
2017-03-11 19:45:00,AGGRAVATED ASSAULT,False,2017-03-11 19:53:00,PARKING LOTS / GARAGE,1601 ROYAL CREST DR,78741.0,3.0,HE,2,457.0,23.16,Not Cleared,2017-06-28 00:00:00,13A,Aggravated Assault,30.23883442,-97.72979918,2017.0,3.0,10.0,11.0,19.0
2017-03-11 20:38:00,ARMED ROBBERY,False,2017-03-11 20:38:00,STREETS / HWY / ROAD / ALLEY,7002 ONION CREEK DR,78744.0,2.0,FR,8,531,24.3,Not Cleared,2017-04-13 00:00:00,120,Robbery,30.171799,-97.74382035,2017.0,3.0,10.0,11.0,20.0
2017-03-11 20:42:00,AGGRAVATED ASSAULT,False,2017-03-11 20:43:00,RESIDENCE / HOME,5112 S 1ST ST,78745.0,3.0,DA,3,490.0,20.03,Not Cleared,2017-03-17 00:00:00,13A,Aggravated Assault,30.21389561,-97.77806109,2017.0,3.0,10.0,11.0,20.0
2017-03-11 21:50:00,ARMED ROBBERY,False,2017-03-12 00:17:00,PARKING LOTS / GARAGE,10300 GOLDEN MEADOW DR,78758.0,4.0,ED,2,219.0,18.21,Cleared,2017-03-16 00:00:00,120,Robbery,30.38041081,-97.71140349,2017.0,3.0,10.0,11.0,21.0
2017-03-11 22:59:00,AGGRAVATED ASSAULT,False,2017-03-12 01:35:00,STREETS / HWY / ROAD / ALLEY,9801 EASTWEND DR,78753.0,4.0,ED,1,240.0,18.23,Not Cleared,2017-10-26 00:00:00,13A,Aggravated Assault,30.36598192,-97.69167724,2017.0,3.0,10.0,11.0,22.0
2017-03-11 23:35:00,ARMED ROBBERY,False,2017-03-11 23:35:00,BAR / NIGHT CLUB,417 E 6TH ST,78701.0,9.0,GE,2,382.0,11.0,Not Cleared,2017-04-16 00:00:00,120,Robbery,30.26666823,-97.7387663,2017.0,3.0,10.0,11.0,23.0
2017-03-12 04:01:00,AGGRAVATED ASSAULT,False,2017-03-12 05:08:00,PARKING LOTS / GARAGE,3621 W SLAUGHTER LN,78749.0,8.0,DA,8,95.0,17.4,Not Cleared,2017-04-07 00:00:00,13A,Aggravated Assault,30.18444167,-97.85367793,2017.0,3.0,10.0,12.0,4.0
2017-03-12 05:53:00,ARMED ROBBERY,False,2017-03-12 05:53:00,STREETS / HWY / ROAD / ALLEY,8548 N LAMAR BLVD,78758.0,4.0,ED,2,249.0,,Not Cleared,2017-04-03 00:00:00,120,Robbery,30.354408,-97.70665872,2017.0,3.0,10.0,12.0,5.0
2017-03-12 15:45:00,AGGRAVATED ASSAULT,False,2017-03-12 15:45:00,PARKING LOTS / GARAGE,7309 CAMERON RD,78752.0,4.0,ID,2,266.0,18.11,Cleared,2017-03-12 00:00:00,13A,Aggravated Assault,30.32823802,-97.69018692,2017.0,3.0,10.0,12.0,15.0
2017-03-12 18:43:00,MURDER,True,2017-03-12 18:43:00,RESIDENCE / HOME,916 BIRD CREEK DR,78758.0,4.0,ED,1,239.0,18.22,Not Cleared,2017-03-13 00:00:00,09A,Murder,30.37159208,-97.69712841,2017.0,3.0,10.0,12.0,18.0
2017-03-12 22:50:00,AGGRAVATED ASSAULT,False,2017-03-12 22:50:00,RESIDENCE / HOME,6600 BLOCK ED BLUESTEIN BLVD SB,78723.0,1.0,CH,4,299.0,,Cleared,2017-10-31 00:00:00,13A,Aggravated Assault,30.30551917,-97.66162802,2017.0,3.0,10.0,12.0,22.0
2017-03-13 01:57:00,AGGRAVATED ASSAULT,False,2017-03-13 03:14:00,BAR / NIGHT CLUB,2237 E RIVERSIDE DR,78741.0,3.0,HE,2,457.0,23.16,Not Cleared,2017-03-13 00:00:00,13A,Aggravated Assault,30.23820652,-97.72624311,2017.0,3.0,11.0,13.0,1.0
2017-03-13 08:05:00,ARMED ROBBERY,False,2017-03-13 08:05:00,PARKING LOTS / GARAGE,1071 CLAYTON LN,78723.0,4.0,ID,5,292.0,,Cleared,2017-04-19 00:00:00,120,Robbery,30.3185291,-97.7034222,2017.0,3.0,11.0,13.0,8.0
2017-03-13 12:54:00,AGGRAVATED ASSAULT,False,2017-03-13 12:54:00,STREETS / HWY / ROAD / ALLEY,500 E 7TH ST,78701.0,9.0,GE,2,382.0,11.0,Cleared,2017-05-12 00:00:00,13A,Aggravated Assault,30.26797616,-97.737619,2017.0,3.0,11.0,13.0,12.0
2017-03-13 13:21:00,RAPE,False,2017-03-13 15:02:00,RESIDENCE / HOME,8700 BLOCK CLEARBROOK TRL,78729.0,6.0,AD,4,1641.0,204.09,Not Cleared,2017-05-22 00:00:00,11A,Rape,,,2017.0,3.0,11.0,13.0,13.0
2017-03-13 18:38:00,AGGRAVATED ASSAULT,False,2017-03-13 18:38:00,STREETS / HWY / ROAD / ALLEY,3200 TAMARRON BLVD,78746.0,8.0,DA,5,461.0,19.1,Not Cleared,2017-03-14 00:00:00,13A,Aggravated Assault,30.26156658,-97.80801646,2017.0,3.0,11.0,13.0,18.0
2017-03-13 23:00:00,AGGRAVATED ASSAULT,False,2017-03-14 12:05:00,STREETS / HWY / ROAD / ALLEY,5313 MANOR RD,78723.0,1.0,ID,4,298.0,21.0,Not Cleared,2017-04-12 00:00:00,13A,Aggravated Assault,30.30054553,-97.68517346,2017.0,3.0,11.0,13.0,23.0
2017-03-14 15:59:00,AGGRAVATED ASSAULT,False,2017-03-14 15:59:00,RESIDENCE / HOME,6118 FAIRWAY ST,78741.0,3.0,HE,3,443.0,23.18,Not Cleared,2017-05-01 00:00:00,13A,Aggravated Assault,30.22900387,-97.70310447,2017.0,3.0,11.0,14.0,15.0
2017-03-14 16:02:00,AGGRAVATED ASSAULT,False,2017-03-14 16:02:00,RESIDENCE / HOME,1406 COOL SHADOW DR,78617.0,2.0,HE,8,500.0,23.1,Cleared,2017-03-14 00:00:00,13A,Aggravated Assault,30.22328204,-97.66832727,2017.0,3.0,11.0,14.0,16.0
2017-03-14 16:49:00,RAPE,False,2017-03-14 16:49:00,RESIDENCE / HOME,12800 BLOCK HARRISGLENN DR,78753.0,7.0,ED,6,206,18.39,Cleared,2017-06-15 00:00:00,11A,Rape,,,2017.0,3.0,11.0,14.0,16.0
2017-03-14 17:30:00,AGGRAVATED ASSAULT,False,2017-03-14 18:26:00,STREETS / HWY / ROAD / ALLEY,9615 ABERDEEN WAY,78753.0,4.0,ED,7,241.0,18.33,Cleared,2017-05-04 00:00:00,13A,Aggravated Assault,30.35610347,-97.67627764,2017.0,3.0,11.0,14.0,17.0
2017-03-15 00:00:00,RAPE,True,2018-03-18 19:07:00,RESIDENCE / HOME,1900 BLOCK WILLOW CREEK DR,78741.0,3.0,HE,2,457.0,23.15,Not Cleared,2019-01-29 00:00:00,11A,Rape,,,2017.0,3.0,11.0,15.0,0.0
2017-03-15 01:50:00,AGGRAVATED ASSAULT,False,2017-03-15 01:50:00,STREETS / HWY / ROAD / ALLEY,5121 CAMERON RD,78723.0,4.0,ID,5,48.0,21.0,Not Cleared,2017-03-16 00:00:00,13A,Aggravated Assault,30.30923263,-97.70918167,2017.0,3.0,11.0,15.0,1.0
2017-03-15 03:11:00,ARMED ROBBERY,False,2017-03-15 03:11:00,STREETS / HWY / ROAD / ALLEY,DECKER LN / LOYOLA LN,78724.0,1.0,CH,6,303.0,22.0,Cleared,2017-03-15 00:00:00,120,Robbery,30.29122388,-97.62799126,2017.0,3.0,11.0,15.0,3.0
2017-03-15 04:00:00,AGGRAVATED ASSAULT,False,2017-03-20 12:02:00,RESIDENCE / HOME,4700 E RIVERSIDE DR,78741.0,3.0,HE,3,442.0,,Not Cleared,2017-08-10 00:00:00,13A,Aggravated Assault,30.23289806,-97.71880686,2017.0,3.0,11.0,15.0,4.0
2017-03-15 04:00:00,ARMED ROBBERY,False,2017-03-15 05:19:00,STREETS / HWY / ROAD / ALLEY,1900 EVA ST,78704.0,9.0,DA,1,476.0,13.0,Not Cleared,2017-04-13 00:00:00,120,Robbery,30.24541888,-97.75277812,2017.0,3.0,11.0,15.0,4.0
2017-03-15 09:10:00,AGGRAVATED ASSAULT,False,2017-03-15 10:00:00,RESIDENCE / HOME,1601 MONTOPOLIS DR,78741.0,3.0,HE,5,444.0,23.12,Not Cleared,2017-06-16 00:00:00,13A,Aggravated Assault,30.22771552,-97.70117271,2017.0,3.0,11.0,15.0,9.0
2017-03-15 16:46:00,AGGRAVATED ASSAULT,False,2017-03-15 16:46:00,STREETS / HWY / ROAD / ALLEY,1800 BLOCK COLONY CREEK DR,78758.0,4.0,ED,2,235.0,,Not Cleared,2017-05-02 00:00:00,13A,Aggravated Assault,30.36954996,-97.71546061,2017.0,3.0,11.0,15.0,16.0
2017-03-15 20:41:00,AGGRAVATED ASSAULT,False,2017-03-15 20:41:00,STREETS / HWY / ROAD / ALLEY,5205 E STASSNEY LN,78744.0,2.0,FR,6,519.0,24.31,Cleared,2017-04-11 00:00:00,13A,Aggravated Assault,30.19301187,-97.73877816,2017.0,3.0,11.0,15.0,20.0
2017-03-15 23:45:00,ARMED ROBBERY,False,2017-03-16 01:10:00,RESTAURANTS,719 W WILLIAM CANNON DR,78745.0,2.0,FR,3,526.0,,Not Cleared,2017-07-12 00:00:00,120,Robbery,30.19666541,-97.78857884,2017.0,3.0,11.0,15.0,23.0
2017-03-16 00:56:00,ARMED ROBBERY,False,2017-03-16 00:56:00,RESTAURANTS,720 BASTROP HWY SB,78741.0,3.0,HE,5,444.0,,Not Cleared,2017-07-12 00:00:00,120,Robbery,30.23358128,-97.68592323,2017.0,3.0,11.0,16.0,0.0
2017-03-16 02:00:00,RAPE,False,2017-05-26 13:00:00,RESIDENCE / HOME,11400 BLOCK RESEARCH BLVD NB,78759.0,6.0,AD,2,199,17.54,Cleared,2017-06-28 00:00:00,11A,Rape,,,2017.0,3.0,11.0,16.0,2.0
2017-03-16 03:50:00,ARMED ROBBERY,False,2017-03-16 04:29:00,STREETS / HWY / ROAD / ALLEY,600 BLOCK BRUSHY ST,78702.0,3.0,CH,1,410.0,9.0,Not Cleared,2017-05-17 00:00:00,120,Robbery,30.26591691,-97.73345081,2017.0,3.0,11.0,16.0,3.0
2017-03-16 04:23:00,AGGRAVATED ASSAULT,False,2017-03-16 04:23:00,STREETS / HWY / ROAD / ALLEY,4900 MUELLER BLVD,78723.0,9.0,BA,4,900.0,3.0,Not Cleared,2017-07-11 00:00:00,13A,Aggravated Assault,30.30349794,-97.70621861,2017.0,3.0,11.0,16.0,4.0
2017-03-16 04:40:00,AGGRAVATED ASSAULT,False,2017-03-16 06:01:00,STREETS / HWY / ROAD / ALLEY,601 N IH 35 SVRD NB,78702.0,3.0,CH,1,410.0,9.0,Cleared,2017-03-16 00:00:00,13A,Aggravated Assault,30.2657748,-97.73403764,2017.0,3.0,11.0,16.0,4.0
2017-03-16 18:28:00,AGGRAVATED ASSAULT,False,2017-03-16 18:28:00,RESIDENCE / HOME,1600 WICKERSHAM LN,78741.0,3.0,HE,3,442.0,23.18,Cleared,2017-04-27 00:00:00,13A,Aggravated Assault,30.23597684,-97.71859364,2017.0,3.0,11.0,16.0,18.0
2017-03-16 22:00:00,AGGRAVATED ASSAULT,False,2017-03-16 23:57:00,RESIDENCE / HOME,6600 ELM CREEK DR,78744.0,2.0,FR,8,530.0,24.27,Not Cleared,2017-03-27 00:00:00,13A,Aggravated Assault,30.18739944,-97.76364483,2017.0,3.0,11.0,16.0,22.0
2017-03-16 23:00:00,RAPE,False,2020-05-17 10:50:00,HOTEL / MOTEL / ETC.,1900 BLOCK SIMOND AVE,78723.0,9.0,BA,4,900.0,3.0,Not Cleared,2020-08-06 00:00:00,11A,Rape,,,2017.0,3.0,11.0,16.0,23.0
2017-03-16 23:55:00,ARMED ROBBERY,False,2017-03-17 00:23:00,STREETS / HWY / ROAD / ALLEY,715 E 8TH ST,78701.0,9.0,GE,2,382.0,11.0,Cleared,2017-03-17 00:00:00,120,Robbery,30.26755343,-97.73467415,2017.0,3.0,11.0,16.0,23.0
2017-03-17 02:49:00,AGGRAVATED ASSAULT,False,2017-03-17 02:49:00,PARKING LOTS / GARAGE,30 N IH 35 SVRD SB,78701.0,9.0,GE,3,408.0,11.0,Not Cleared,2017-04-03 00:00:00,13A,Aggravated Assault,30.25439593,-97.73712236,2017.0,3.0,11.0,17.0,2.0
2017-03-17 04:33:00,ARMED ROBBERY,False,2017-03-17 04:33:00,STREETS / HWY / ROAD / ALLEY,900 W 6TH ST,78703.0,9.0,GE,1,372.0,12.0,Not Cleared,2017-03-17 00:00:00,120,Robbery,30.27123551,-97.75301643,2017.0,3.0,11.0,17.0,4.0
2017-03-18 02:00:00,RAPE,False,2017-03-18 09:15:00,RESIDENCE / HOME,600 BLOCK E 15TH ST,78701.0,1.0,BA,1,384.0,7.0,Not Cleared,2017-04-26 00:00:00,11A,Rape,,,2017.0,3.0,11.0,18.0,2.0
2017-03-18 04:50:00,AGGRAVATED ASSAULT,False,2017-03-18 04:50:00,BAR / NIGHT CLUB,403 E 6TH ST,78701.0,9.0,GE,2,382.0,11.0,Not Cleared,2017-04-24 00:00:00,13A,Aggravated Assault,30.26678665,-97.73918136,2017.0,3.0,11.0,18.0,4.0
2017-03-18 09:00:00,ARMED ROBBERY,False,2017-03-18 11:29:00,STREETS / HWY / ROAD / ALLEY,4900 WEST GATE BLVD,78745.0,5.0,DA,4,502.0,17.5,Not Cleared,2017-03-21 00:00:00,120,Robbery,30.22744621,-97.80271047,2017.0,3.0,11.0,18.0,9.0
2017-03-18 19:53:00,AGGRAVATED ASSAULT,False,2017-03-18 23:46:00,STREETS / HWY / ROAD / ALLEY,1700 BLOCK N IH 35 SVRD SB,78701.0,1.0,BA,1,836.0,7.0,Not Cleared,2017-05-12 00:00:00,13A,Aggravated Assault,30.27737805,-97.73103486,2017.0,3.0,11.0,18.0,19.0
2017-03-18 21:30:00,ARMED ROBBERY,False,2017-03-18 21:46:00,STREETS / HWY / ROAD / ALLEY,E 3RD ST / NAVASOTA ST,78702.0,3.0,CH,1,410.0,9.0,Not Cleared,2017-04-03 00:00:00,120,Robbery,30.26100985,-97.72977149,2017.0,3.0,11.0,18.0,21.0
2017-03-18 21:40:00,ARMED ROBBERY,False,2017-03-18 21:49:00,PARK / PLAYGROUND,1101 MEARNS MEADOW BLVD,78758.0,4.0,ED,1,239.0,18.22,Not Cleared,2017-03-21 00:00:00,120,Robbery,30.36944251,-97.7006699,2017.0,3.0,11.0,18.0,21.0
2017-03-19 01:00:00,RAPE,False,2017-03-20 19:47:00,STREETS / HWY / ROAD / ALLEY,11400 BLOCK BLOCK N MOPAC EXPY NB,78758.0,7.0,AD,2,201.0,18.49,Not Cleared,2017-04-19 00:00:00,11A,Rape,,,2017.0,3.0,11.0,19.0,1.0
2017-03-19 04:02:00,AGGRAVATED ASSAULT,False,2017-03-19 04:02:00,STREETS / HWY / ROAD / ALLEY,500 E 7TH ST,78701.0,9.0,GE,2,382.0,11.0,Not Cleared,2017-04-03 00:00:00,13A,Aggravated Assault,30.26797616,-97.737619,2017.0,3.0,11.0,19.0,4.0
2017-03-19 04:30:00,ARMED ROBBERY,False,2017-03-19 04:30:00,STREETS / HWY / ROAD / ALLEY,W 3RD ST / LAVACA ST,78701.0,9.0,GE,4,405.0,11.0,Not Cleared,2017-03-19 00:00:00,120,Robbery,30.26592847,-97.74625106,2017.0,3.0,11.0,19.0,4.0
2017-03-19 04:35:00,ARMED ROBBERY,False,2017-03-19 11:43:00,HOTEL / MOTEL / ETC.,6911 N IH 35 SVRD NB,78752.0,4.0,ID,1,265.0,18.12,Not Cleared,2017-03-23 00:00:00,120,Robbery,30.32979046,-97.70496368,2017.0,3.0,11.0,19.0,4.0
2017-03-19 06:11:00,AGGRAVATED ASSAULT,False,2017-03-19 06:11:00,STREETS / HWY / ROAD / ALLEY,8909 MERIDIAN OAK LN,78744.0,5.0,FR,7,543.0,,Cleared,2017-03-21 00:00:00,13A,Aggravated Assault,30.16281132,-97.78190894,2017.0,3.0,11.0,19.0,6.0
2017-03-19 10:07:00,RAPE,False,2017-03-19 10:07:00,PARK / PLAYGROUND,2000 BLOCK E 51ST ST,78723.0,4.0,ID,4,295.0,21.0,Not Cleared,2017-03-27 00:00:00,11A,Rape,,,2017.0,3.0,11.0,19.0,10.0
2017-03-19 11:56:00,ARMED ROBBERY,False,2017-03-19 11:56:00,STREETS / HWY / ROAD / ALLEY,700 E 6TH ST,78701.0,9.0,GE,2,382.0,11.0,Not Cleared,2017-04-03 00:00:00,120,Robbery,30.26628759,-97.73586154,2017.0,3.0,11.0,19.0,11.0
2017-03-19 15:08:00,AGGRAVATED ASSAULT,False,2017-03-19 15:08:00,RESIDENCE / HOME,WYNNE LN / W DITTMAR RD,78748.0,2.0,FR,3,536.0,,Cleared,2017-03-23 00:00:00,13A,Aggravated Assault,30.18572491,-97.80287876,2017.0,3.0,11.0,19.0,15.0
2017-03-19 19:30:00,AGGRAVATED ASSAULT,False,2017-03-19 19:30:00,PARK / PLAYGROUND,2201 BARTON SPRINGS RD,78704.0,5.0,DA,1,450.0,19.0,Not Cleared,2017-05-14 00:00:00,13A,Aggravated Assault,30.26366649,-97.77110098,2017.0,3.0,11.0,19.0,19.0
2017-03-19 19:36:00,RAPE,False,2017-03-19 19:36:00,HOTEL / MOTEL / ETC.,1600 BLOCK N IH 35 SVRD NB,78702.0,1.0,CH,3,391.0,8.0,Not Cleared,2017-05-08 00:00:00,11A,Rape,,,2017.0,3.0,11.0,19.0,19.0
2017-03-19 23:39:00,AGGRAVATED ASSAULT,False,2017-03-20 02:48:00,STREETS / HWY / ROAD / ALLEY,200 BLOCK E 6TH ST,78701.0,9.0,GE,2,381.0,11.0,Cleared,2017-03-25 00:00:00,13A,Aggravated Assault,30.26780114,-97.74120096,2017.0,3.0,11.0,19.0,23.0
2017-03-19 23:39:00,AGGRAVATED ASSAULT,False,2017-03-20 21:06:00,STREETS / HWY / ROAD / ALLEY,209 E 6TH ST,78701.0,9.0,GE,2,381.0,11.0,Cleared,2017-03-25 00:00:00,13A,Aggravated Assault,30.26731856,-97.74113787,2017.0,3.0,11.0,19.0,23.0
2017-03-19 23:43:00,ARMED ROBBERY,False,2017-03-20 00:22:00,PARKING LOTS / GARAGE,701 W LONGSPUR BLVD,78753.0,4.0,ED,1,240.0,,Not Cleared,2017-03-26 00:00:00,120,Robbery,30.36652912,-97.69300709,2017.0,3.0,11.0,19.0,23.0
2017-03-20 01:10:00,ARMED ROBBERY,False,2017-03-20 03:43:00,OTHER / UNKNOWN,12435 METRIC BLVD,78758.0,7.0,ED,4,204.0,,Not Cleared,2017-04-17 00:00:00,120,Robbery,30.41182899,-97.69105552,2017.0,3.0,12.0,20.0,1.0
2017-03-20 03:33:00,AGGRAVATED ASSAULT,False,2017-03-20 03:33:00,PARKING LOTS / GARAGE,2301 DURWOOD ST,78704.0,9.0,DA,1,476.0,13.0,Not Cleared,2017-04-11 00:00:00,13A,Aggravated Assault,30.24184309,-97.7575428,2017.0,3.0,12.0,20.0,3.0
2017-03-20 03:44:00,ARMED ROBBERY,False,2017-03-20 03:44:00,RESTAURANTS,1101 S MOPAC EXPY SVRD NB,78746.0,8.0,DA,1,449.0,19.11,Not Cleared,2017-07-12 00:00:00,120,Robbery,30.26397851,-97.78606005,2017.0,3.0,12.0,20.0,3.0
2017-03-20 04:42:00,ARMED ROBBERY,False,2017-03-20 04:42:00,RESTAURANTS,901 E KOENIG LN EB,78751.0,4.0,ID,6,291,,Not Cleared,2017-07-12 00:00:00,120,Robbery,30.32061786,-97.70979141,2017.0,3.0,12.0,20.0,4.0
2017-03-20 12:10:00,AGGRAVATED ASSAULT,False,2017-03-20 13:30:00,PARKING LOTS / GARAGE,3300 MANOR RD,78723.0,1.0,BA,4,900.0,3.0,Not Cleared,2017-04-10 00:00:00,13A,Aggravated Assault,30.2872359,-97.70250644,2017.0,3.0,12.0,20.0,12.0
2017-03-20 22:21:00,ARMED ROBBERY,False,2017-03-20 22:21:00,RESIDENCE / HOME,1071 CLAYTON LN,78723.0,4.0,ID,5,292.0,,Cleared,2017-06-09 00:00:00,120,Robbery,30.3185291,-97.7034222,2017.0,3.0,12.0,20.0,22.0
2017-03-21 06:13:00,AGGRAVATED ASSAULT,False,2017-03-21 06:13:00,OTHER / UNKNOWN,4916 N IH 35 SVRD SB,78751.0,9.0,BA,5,321,3.0,Not Cleared,2017-04-20 00:00:00,13A,Aggravated Assault,30.30839995,-97.71176874,2017.0,3.0,12.0,21.0,6.0
2017-03-21 15:00:00,ARMED ROBBERY,False,2017-03-21 15:00:00,PARK / PLAYGROUND,1200 BARBARA JORDAN BLVD,78723.0,9.0,BA,4,900.0,3.0,Cleared,2018-01-10 00:00:00,120,Robbery,30.3073828,-97.70923831,2017.0,3.0,12.0,21.0,15.0
2017-03-21 16:38:00,ARMED ROBBERY,False,2017-03-21 16:38:00,RESIDENCE / HOME,1209 SOUTHPORT DR,78704.0,3.0,DA,2,468,20.05,,,120,Robbery,30.23183812,-97.77583168,2017.0,3.0,12.0,21.0,16.0
2017-03-22 10:30:00,ARMED ROBBERY,False,2017-03-22 12:18:00,PARKING LOTS / GARAGE,1101 CLAYTON LN,78723.0,4.0,ID,5,292.0,21.0,Not Cleared,2017-06-19 00:00:00,120,Robbery,30.31804101,-97.7022879,2017.0,3.0,12.0,22.0,10.0
2017-03-22 16:44:00,RAPE,False,2017-03-22 16:44:00,HOTEL / MOTEL / ETC.,7100 BLOCK E US 290 HWY SVRD WB,78752.0,1.0,ID,2,266.0,18.11,Not Cleared,2017-05-14 00:00:00,11A,Rape,,,2017.0,3.0,12.0,22.0,16.0
2017-03-22 22:24:00,AGGRAVATED ASSAULT,False,2017-03-22 22:24:00,STREETS / HWY / ROAD / ALLEY,1700 BLOCK E WILLIAM CANNON DR,78744.0,2.0,FR,8,516.0,,Cleared,2017-04-03 00:00:00,13A,Aggravated Assault,30.18894202,-97.76650695,2017.0,3.0,12.0,22.0,22.0
2017-03-22 23:28:00,ARMED ROBBERY,False,2017-03-22 23:28:00,OTHER / UNKNOWN,100 W FM 1626 RD,78748.0,5.0,FR,2,602.0,24.0,Cleared,2017-04-12 00:00:00,120,Robbery,30.14429616,-97.80615303,2017.0,3.0,12.0,22.0,23.0
2017-03-23 05:53:00,AGGRAVATED ASSAULT,False,2017-03-23 05:53:00,HOTEL / MOTEL / ETC.,6121 N IH 35 SVRD NB,78752.0,4.0,ID,1,280.0,18.12,,,13A,Aggravated Assault,30.32368743,-97.70496507,2017.0,3.0,12.0,23.0,5.0
2017-03-23 06:36:00,ARMED ROBBERY,False,2017-03-23 07:57:00,PARKING LOTS / GARAGE,1071 CLAYTON LN,78723.0,4.0,ID,5,292.0,,Cleared,2017-06-09 00:00:00,120,Robbery,30.3185291,-97.7034222,2017.0,3.0,12.0,23.0,6.0
2017-03-23 13:00:00,RAPE,True,2017-03-24 15:20:00,RESIDENCE / HOME,3700 BLOCK MANCHACA RD,78704.0,5.0,DA,4,467.0,,Not Cleared,2017-04-24 00:00:00,11A,Rape,,,2017.0,3.0,12.0,23.0,13.0
2017-03-23 13:46:00,AGGRAVATED ASSAULT,False,2017-03-23 13:46:00,FIELD / WOODS,1900 COUNTRY CLUB RD,78741.0,3.0,HE,3,443.0,,Cleared,2017-04-18 00:00:00,13A,Aggravated Assault,30.22838202,-97.70858808,2017.0,3.0,12.0,23.0,13.0
2017-03-23 15:35:00,AGGRAVATED ASSAULT,False,2017-03-23 15:35:00,STREETS / HWY / ROAD / ALLEY,901 NEAL ST,78702.0,1.0,CH,2,416.0,8.0,Not Cleared,2017-04-06 00:00:00,13A,Aggravated Assault,30.2688156,-97.70929168,2017.0,3.0,12.0,23.0,15.0
2017-03-23 20:00:00,AGGRAVATED ASSAULT,True,2017-03-23 22:48:00,RESIDENCE / HOME,909 HILL WOOD DR,78745.0,3.0,DA,3,490.0,,Not Cleared,2017-05-08 00:00:00,13A,Aggravated Assault,30.216643,-97.78260562,2017.0,3.0,12.0,23.0,20.0
2017-03-23 21:00:00,RAPE,False,2017-08-07 13:41:00,RESIDENCE / HOME,2800 BLOCK HEMPHILL DR,,,,,,,Cleared,2017-11-02 00:00:00,11A,Rape,,,2017.0,3.0,12.0,23.0,21.0
2017-03-23 21:29:00,AGGRAVATED ASSAULT,False,2017-03-23 21:29:00,PARKING LOTS / GARAGE,5833 WESTMINSTER DR,78723.0,1.0,ID,4,295.0,21.0,Not Cleared,2017-05-09 00:00:00,13A,Aggravated Assault,30.31127151,-97.69021419,2017.0,3.0,12.0,23.0,21.0
2017-03-24 04:30:00,AGGRAVATED ASSAULT,False,2017-03-24 04:30:00,PARKING LOTS / GARAGE,4501 E RIVERSIDE DR,78741.0,3.0,HE,4,458.0,23.14,Not Cleared,2017-06-27 00:00:00,13A,Aggravated Assault,30.23258831,-97.72209348,2017.0,3.0,12.0,24.0,4.0
2017-03-24 06:00:00,AGGRAVATED ASSAULT,False,2017-03-26 16:47:00,RESIDENCE / HOME,5605 WOODROW AVE,78756.0,7.0,ID,7,289.0,,Not Cleared,2017-05-18 00:00:00,13A,Aggravated Assault,30.32792589,-97.73275638,2017.0,3.0,12.0,24.0,6.0
2017-03-24 19:45:00,AGGRAVATED ASSAULT,True,2017-03-24 19:45:00,RESIDENCE / HOME,5107 REGENCY DR,78724.0,1.0,CH,6,301.0,22.0,Cleared,2017-04-06 00:00:00,13A,Aggravated Assault,30.28643419,-97.66083474,2017.0,3.0,12.0,24.0,19.0
2017-03-24 21:48:00,ARMED ROBBERY,False,2017-03-24 21:48:00,PARKING LOTS / GARAGE,6924 E BEN WHITE BLVD SVRD WB,78741.0,3.0,HE,5,459.0,23.12,Not Cleared,2017-05-03 00:00:00,120,Robbery,30.21494234,-97.70288567,2017.0,3.0,12.0,24.0,21.0
2017-03-24 23:03:00,AGGRAVATED ASSAULT,False,2017-03-24 23:03:00,RESIDENCE / HOME,6200 LOYOLA LN,78724.0,1.0,CH,7,302.0,22.0,Cleared,2017-03-25 00:00:00,13A,Aggravated Assault,30.30161114,-97.65044897,2017.0,3.0,12.0,24.0,23.0
2017-03-24 23:37:00,ARMED ROBBERY,False,2017-03-24 23:37:00,PARKING LOTS / GARAGE,8926 N LAMAR BLVD,78758.0,4.0,ED,1,237.0,18.19,Not Cleared,2017-05-03 00:00:00,120,Robbery,30.35875709,-97.69972149,2017.0,3.0,12.0,24.0,23.0
2017-03-25 01:08:00,AGGRAVATED ASSAULT,False,2017-03-25 01:08:00,STREETS / HWY / ROAD / ALLEY,2100 S IH 35 NB,78741.0,9.0,HE,1,456.0,14.0,Not Cleared,2017-04-01 00:00:00,13A,Aggravated Assault,30.23581093,-97.73992473,2017.0,3.0,12.0,25.0,1.0
2017-03-25 03:03:00,ARMED ROBBERY,False,2017-03-25 03:03:00,STREETS / HWY / ROAD / ALLEY,10000 N LAMAR BLVD,78758.0,4.0,ED,1,239,18.22,Not Cleared,2017-04-11 00:00:00,120,Robbery,30.36926216,-97.69510501,2017.0,3.0,12.0,25.0,3.0
2017-03-25 12:09:00,RAPE,True,2017-03-25 12:09:00,RESIDENCE / HOME,400 BLOCK E WILLIAM CANNON DR,78745.0,2.0,FR,4,515.0,24.0,Not Cleared,2017-04-27 00:00:00,11A,Rape,,,2017.0,3.0,12.0,25.0,12.0
2017-03-25 22:36:00,AGGRAVATED ASSAULT,False,2017-03-25 22:36:00,STREETS / HWY / ROAD / ALLEY,11607 SIERRA NEVADA,78759.0,10.0,AD,7,190.0,25.0,Not Cleared,2017-09-26 00:00:00,13A,Aggravated Assault,30.42085628,-97.75504086,2017.0,3.0,12.0,25.0,22.0
2017-03-26 00:57:00,ARMED ROBBERY,False,2017-03-26 03:00:00,RESTAURANTS,9604 MIDDLE FISKVILLE RD,78753.0,4.0,ED,7,241.0,18.33,Not Cleared,2017-03-28 00:00:00,120,Robbery,30.36006857,-97.68527403,2017.0,3.0,12.0,26.0,0.0
2017-03-26 02:21:00,AGGRAVATED ASSAULT,True,2017-03-26 02:21:00,RESIDENCE / HOME,1820 WOOTEN PARK DR,78757.0,7.0,ID,7,247,,Not Cleared,2017-03-31 00:00:00,13A,Aggravated Assault,30.35449565,-97.72496787,2017.0,3.0,12.0,26.0,2.0
2017-03-26 04:00:00,ARMED ROBBERY,False,2017-03-26 12:51:00,STREETS / HWY / ROAD / ALLEY,E 6TH ST / BRUSHY ST,78702.0,3.0,CH,1,410.0,9.0,Not Cleared,2017-03-27 00:00:00,120,Robbery,30.26542705,-97.73357173,2017.0,3.0,12.0,26.0,4.0
2017-03-26 04:03:00,AGGRAVATED ASSAULT,False,2017-03-29 04:17:00,STREETS / HWY / ROAD / ALLEY,00 BLOCK WALNUT DR / GEORGIAN DR,78753.0,4.0,ED,1,250.0,,Cleared,2017-08-10 00:00:00,13A,Aggravated Assault,,,2017.0,3.0,12.0,26.0,4.0
2017-03-26 04:10:00,AGGRAVATED ASSAULT,False,2017-03-26 05:06:00,PARKING LOTS / GARAGE,11410 CENTURY OAKS TER,78758.0,7.0,AD,2,201.0,18.49,Cleared,2017-03-30 00:00:00,13A,Aggravated Assault,30.40168388,-97.72674036,2017.0,3.0,12.0,26.0,4.0
2017-03-26 21:30:00,ARMED ROBBERY,False,2017-03-26 22:48:00,STREETS / HWY / ROAD / ALLEY,1113 FAIRFIELD DR,78758.0,4.0,ED,2,249.0,18.05,Cleared,2017-03-28 00:00:00,120,Robbery,30.35902566,-97.70906702,2017.0,3.0,12.0,26.0,21.0
2017-03-26 21:30:00,ARMED ROBBERY,False,2017-03-28 20:52:00,STREETS / HWY / ROAD / ALLEY,1225 DELANO ST,78721.0,1.0,CH,5,397.0,,Not Cleared,2017-08-14 00:00:00,120,Robbery,30.275119,-97.67842747,2017.0,3.0,12.0,26.0,21.0
2017-03-26 21:36:00,MURDER,False,2017-03-27 00:14:00,RESIDENCE / HOME,300 CARMEN CT,78752.0,4.0,ID,8,264.0,,Cleared,2017-04-11 00:00:00,09A,Murder,30.3356347,-97.70749961,2017.0,3.0,12.0,26.0,21.0
2017-03-26 22:20:00,ARMED ROBBERY,False,2017-03-26 22:20:00,PARKING LOTS / GARAGE,9717 N LAMAR BLVD,78753.0,4.0,ED,1,240.0,18.23,Cleared,2017-03-28 00:00:00,120,Robbery,30.36582905,-97.69453919,2017.0,3.0,12.0,26.0,22.0
2017-03-27 03:10:00,ARMED ROBBERY,False,2017-03-27 05:15:00,PARKING LOTS / GARAGE,1633 ROYAL CREST DR,78741.0,3.0,HE,2,457.0,23.16,,,120,Robbery,30.23797717,-97.73038294,2017.0,3.0,13.0,27.0,3.0
2017-03-27 14:09:00,ARMED ROBBERY,False,2017-03-27 14:09:00,OTHER / UNKNOWN,2817 LYLE RD,78617.0,2.0,HE,8,500.0,,Cleared,2017-03-28 00:00:00,120,Robbery,30.20942412,-97.65060265,2017.0,3.0,13.0,27.0,14.0
2017-03-27 21:44:00,AGGRAVATED ASSAULT,False,2017-03-27 21:44:00,PARK / PLAYGROUND,6620 BLUE BLUFF RD,78724.0,1.0,CH,7,304.0,22.12,Not Cleared,2017-05-01 00:00:00,13A,Aggravated Assault,30.28284493,-97.60872034,2017.0,3.0,13.0,27.0,21.0
2017-03-27 22:54:00,ARMED ROBBERY,False,2017-03-27 22:54:00,RESTAURANTS,7112 ED BLUESTEIN BLVD SVRD SB,78723.0,1.0,CH,4,299.0,21.0,Not Cleared,2017-05-31 00:00:00,120,Robbery,30.31255869,-97.66380113,2017.0,3.0,13.0,27.0,22.0
2017-03-27 23:04:00,AGGRAVATED ASSAULT,False,2017-03-27 23:04:00,STREETS / HWY / ROAD / ALLEY,7101 EASY WIND DR,78757.0,7.0,ID,7,263.0,15.0,Cleared,2017-03-28 00:00:00,13A,Aggravated Assault,30.33876979,-97.71919404,2017.0,3.0,13.0,27.0,23.0
2017-03-28 00:12:00,ARMED ROBBERY,False,2017-03-28 01:51:00,RESTAURANTS,9616 N LAMAR BLVD,78758.0,4.0,ED,1,239.0,18.22,Not Cleared,2017-04-14 00:00:00,120,Robbery,30.36679433,-97.69560388,2017.0,3.0,13.0,28.0,0.0
2017-03-28 01:00:00,ARMED ROBBERY,False,2017-03-29 12:01:00,STREETS / HWY / ROAD / ALLEY,E 7TH ST / RED RIVER ST,78701.0,9.0,GE,2,382.0,11.0,,,120,Robbery,30.26740172,-97.73682331,2017.0,3.0,13.0,28.0,1.0
2017-03-28 14:13:00,RAPE,False,2017-03-28 14:13:00,STREETS / HWY / ROAD / ALLEY,5000 BLOCK GREGORY PL,78746.0,,88,88,434,19.19,Cleared,2017-12-17 00:00:00,11A,Rape,,,2017.0,3.0,13.0,28.0,14.0
2017-03-28 23:49:00,ARMED ROBBERY,False,2017-03-28 23:49:00,STREETS / HWY / ROAD / ALLEY,1054 SPRINGDALE RD,78721.0,1.0,CH,4,425.0,21.11,Not Cleared,2017-04-03 00:00:00,120,Robbery,30.27185395,-97.69305203,2017.0,3.0,13.0,28.0,23.0
2017-03-29 01:25:00,AGGRAVATED ASSAULT,False,2017-03-29 01:25:00,STREETS / HWY / ROAD / ALLEY,5121 CAMERON RD,78723.0,4.0,ID,5,48.0,21.0,Not Cleared,2017-04-06 00:00:00,13A,Aggravated Assault,30.30923263,-97.70918167,2017.0,3.0,13.0,29.0,1.0
2017-03-29 07:40:00,ARMED ROBBERY,False,2017-03-29 08:37:00,PARKING LOTS / GARAGE,5901 N IH 35 SVRD NB,78723.0,4.0,ID,5,292.0,21.0,Cleared,2017-06-22 00:00:00,120,Robbery,30.31950763,-97.70594123,2017.0,3.0,13.0,29.0,7.0
2017-03-29 11:28:00,RAPE,False,2017-03-29 11:28:00,SHELTER-MISSION / HOMELESS,500 BLOCK E 7TH ST,78701.0,9.0,GE,2,382.0,11.0,Not Cleared,2017-05-18 00:00:00,11A,Rape,,,2017.0,3.0,13.0,29.0,11.0
2017-03-29 11:47:00,ARMED ROBBERY,False,2017-03-29 12:49:00,BANKS / SAVINGS & LOAN,2201 W BEN WHITE BLVD SVRD EB,78745.0,5.0,DA,4,488.0,17.12,Cleared,2017-06-27 00:00:00,120,Robbery,30.23120466,-97.79250838,2017.0,3.0,13.0,29.0,11.0
2017-03-29 13:29:00,AGGRAVATED ASSAULT,False,2017-03-29 13:29:00,STREETS / HWY / ROAD / ALLEY,8609 FATHOM CIR,78750.0,6.0,AD,8,181.0,,Not Cleared,2017-04-19 00:00:00,13A,Aggravated Assault,30.43818568,-97.78060802,2017.0,3.0,13.0,29.0,13.0
2017-03-29 16:21:00,ARMED ROBBERY,False,2017-03-29 16:21:00,PARKING LOTS / GARAGE,7020 GRAND CANYON DR,78752.0,4.0,ID,1,265.0,18.12,Not Cleared,2017-04-10 00:00:00,120,Robbery,30.32619351,-97.69534738,2017.0,3.0,13.0,29.0,16.0
2017-03-29 19:38:00,AGGRAVATED ASSAULT,False,2017-03-29 19:38:00,PARKING LOTS / GARAGE,6855 E US 290 HWY SVRD EB,78723.0,1.0,ID,3,294.0,21.12,Not Cleared,2017-04-18 00:00:00,13A,Aggravated Assault,30.32066659,-97.68767105,2017.0,3.0,13.0,29.0,19.0
2017-03-29 21:56:00,ARMED ROBBERY,False,2017-03-29 21:56:00,STREETS / HWY / ROAD / ALLEY,8307 JAMESTOWN DR,78758.0,4.0,ED,2,249.0,18.0,Not Cleared,2017-06-05 00:00:00,120,Robbery,30.35552383,-97.71428413,2017.0,3.0,13.0,29.0,21.0
2017-03-29 23:39:00,AGGRAVATED ASSAULT,False,2017-03-29 23:39:00,STREETS / HWY / ROAD / ALLEY,200 BLOCK E 6TH ST,78701.0,9.0,GE,2,381.0,11.0,Cleared,2017-04-14 00:00:00,13A,Aggravated Assault,30.26780114,-97.74120096,2017.0,3.0,13.0,29.0,23.0
2017-03-30 06:40:00,ARMED ROBBERY,False,2017-03-30 06:40:00,CONSTRUCTION SITE,30 N IH 35 SVRD SB,78701.0,9.0,GE,3,408.0,11.0,Not Cleared,2017-07-12 00:00:00,120,Robbery,30.25439593,-97.73712236,2017.0,3.0,13.0,30.0,6.0
2017-03-30 08:30:00,ARMED ROBBERY,False,2017-03-30 08:30:00,RESIDENCE / HOME,2423 TOWN LAKE CIR,78741.0,3.0,HE,2,441.0,23.0,Cleared,2017-03-30 00:00:00,120,Robbery,30.23857151,-97.72242267,2017.0,3.0,13.0,30.0,8.0
2017-03-30 19:30:00,AGGRAVATED ASSAULT,False,2017-03-31 15:47:00,STREETS / HWY / ROAD / ALLEY,10100 S IH 35 SVRD NB,78747.0,5.0,FR,7,601.0,,Not Cleared,2017-04-04 00:00:00,13A,Aggravated Assault,30.15470115,-97.79077553,2017.0,3.0,13.0,30.0,19.0
2017-03-31 05:48:00,AGGRAVATED ASSAULT,False,2017-03-31 06:00:00,STREETS / HWY / ROAD / ALLEY,HUME PL / W 26TH ST,78705.0,9.0,BA,1,360.0,,Not Cleared,2017-04-19 00:00:00,13A,Aggravated Assault,30.29048672,-97.74191964,2017.0,3.0,13.0,31.0,5.0
2017-03-31 06:46:00,AGGRAVATED ASSAULT,False,2017-03-31 06:46:00,PARKING LOTS / GARAGE,800 BLOCK W SLAUGHTER LN,78748.0,5.0,FR,2,542.0,24.21,Cleared,2017-04-13 00:00:00,13A,Aggravated Assault,,,2017.0,3.0,13.0,31.0,6.0
2017-03-31 21:30:00,RAPE,False,2017-03-31 23:21:00,RESIDENCE / HOME,600 BLOCK KEMP ST,78741.0,3.0,HE,3,443.0,,Cleared,2017-10-17 00:00:00,11A,Rape,,,2017.0,3.0,13.0,31.0,21.0
2017-04-01 02:12:00,AGGRAVATED ASSAULT,False,2017-04-01 02:12:00,OTHER / UNKNOWN,744 W WILLIAM CANNON DR,78745.0,2.0,FR,4,512.0,24.1,Not Cleared,2017-04-21 00:00:00,13A,Aggravated Assault,30.19835668,-97.78926252,2017.0,4.0,13.0,1.0,2.0
2017-04-01 03:10:00,ARMED ROBBERY,False,2017-04-01 03:10:00,PARKING LOTS / GARAGE,2430 CROMWELL CIR,78741.0,3.0,HE,4,458.0,23.14,Not Cleared,2017-05-01 00:00:00,120,Robbery,30.22664019,-97.7210571,2017.0,4.0,13.0,1.0,3.0
2017-04-01 06:50:00,AGGRAVATED ASSAULT,False,2017-04-02 18:12:00,PARKING LOTS / GARAGE,7301 N FM 620 RD,78726.0,6.0,AD,8,15.0,17.14,Not Cleared,2017-04-18 00:00:00,13A,Aggravated Assault,30.40458415,-97.8516519,2017.0,4.0,13.0,1.0,6.0
2017-04-01 18:03:00,AGGRAVATED ASSAULT,False,2017-04-01 19:09:00,STREETS / HWY / ROAD / ALLEY,5600 VALIANT CV,78749.0,8.0,DA,6,78.0,17.49,Cleared,2017-10-25 00:00:00,13A,Aggravated Assault,30.23419741,-97.85272349,2017.0,4.0,13.0,1.0,18.0
2017-04-02 01:40:00,AGGRAVATED ASSAULT,False,2017-04-02 15:24:00,BAR / NIGHT CLUB,505 NECHES ST,78701.0,9.0,GE,2,382.0,11.0,Not Cleared,2017-06-12 00:00:00,13A,Aggravated Assault,30.26618172,-97.73823757,2017.0,4.0,13.0,2.0,1.0
2017-04-02 02:00:00,AGGRAVATED ASSAULT,False,2017-04-02 18:08:00,OTHER / UNKNOWN,1135 SALINA ST,78702.0,1.0,CH,2,412.0,8.04,Not Cleared,2017-05-22 00:00:00,13A,Aggravated Assault,30.26850341,-97.72012396,2017.0,4.0,13.0,2.0,2.0
2017-04-02 19:02:00,RAPE,False,2017-04-02 19:02:00,RESIDENCE / HOME,7500 BLOCK JANES RANCH RD,78744.0,2.0,FR,7,532,24.31,Not Cleared,2017-05-10 00:00:00,11A,Rape,,,2017.0,4.0,13.0,2.0,19.0
2017-04-03 11:37:00,RAPE,False,2017-04-03 11:37:00,RESIDENCE / HOME,700 BLOCK W 21ST ST,78705.0,9.0,BA,2,358.0,6.04,Cleared,2017-05-10 00:00:00,11A,Rape,,,2017.0,4.0,14.0,3.0,11.0
2017-04-03 14:00:00,AGGRAVATED ASSAULT,False,2017-04-03 14:00:00,STREETS / HWY / ROAD / ALLEY,700 NECHES ST,78701.0,9.0,GE,2,382.0,11.0,Cleared,2017-04-03 00:00:00,13A,Aggravated Assault,30.26781266,-97.7379656,2017.0,4.0,14.0,3.0,14.0
2017-04-03 16:00:00,AGGRAVATED ASSAULT,False,2017-04-04 08:41:00,PARKING LOTS / GARAGE,8401 HATHAWAY DR,78757.0,7.0,ID,7,234.0,18.18,Cleared,2017-04-27 00:00:00,13A,Aggravated Assault,30.3638181,-97.72598759,2017.0,4.0,14.0,3.0,16.0
2017-04-03 22:39:00,AGGRAVATED ASSAULT,False,2017-04-03 22:39:00,STREETS / HWY / ROAD / ALLEY,407 E STASSNEY LN,78745.0,3.0,FR,4,515.0,,Cleared,2017-04-04 00:00:00,13A,Aggravated Assault,30.20297704,-97.77201082,2017.0,4.0,14.0,3.0,22.0
2017-04-05 04:37:00,AGGRAVATED ASSAULT,False,2017-04-05 04:37:00,RESIDENCE / HOME,8912 N LAMAR BLVD,78758.0,4.0,ED,1,237.0,,Cleared,2017-05-23 00:00:00,13A,Aggravated Assault,30.35850639,-97.69996937,2017.0,4.0,14.0,5.0,4.0
2017-04-05 06:48:00,AGGRAVATED ASSAULT,False,2017-04-05 06:48:00,STREETS / HWY / ROAD / ALLEY,9000 N IH 35 SB,78753.0,4.0,ED,1,250.0,18.0,Not Cleared,2017-04-06 00:00:00,13A,Aggravated Assault,30.35437394,-97.69067585,2017.0,4.0,14.0,5.0,6.0
2017-04-05 14:56:00,AGGRAVATED ASSAULT,False,2017-04-05 14:56:00,FIELD / WOODS,3700 PAYLOAD PASS,78704.0,3.0,DA,2,480.0,23.0,Not Cleared,2017-04-28 00:00:00,13A,Aggravated Assault,30.22304606,-97.75528876,2017.0,4.0,14.0,5.0,14.0
2017-04-05 19:25:00,AGGRAVATED ASSAULT,False,2017-04-05 20:04:00,STREETS / HWY / ROAD / ALLEY,2902 SWEENEY LN,78723.0,1.0,ID,4,298.0,21.0,Cleared,2017-04-05 00:00:00,13A,Aggravated Assault,30.30650282,-97.67971955,2017.0,4.0,14.0,5.0,19.0
2017-04-05 20:00:00,RAPE,False,2017-04-06 14:59:00,RESIDENCE / HOME,4300 BLOCK BULL CREEK RD,78731.0,10.0,BA,6,326,1.01,Cleared,2017-05-16 00:00:00,11A,Rape,,,2017.0,4.0,14.0,5.0,20.0
2017-04-06 04:38:00,MURDER,False,2017-04-06 05:58:00,PARKING LOTS / GARAGE,1881 GROVE BLVD,78741.0,3.0,HE,3,443.0,,Cleared,2017-04-07 00:00:00,09A,Murder,30.22863192,-97.70615517,2017.0,4.0,14.0,6.0,4.0
2017-04-06 22:30:00,AGGRAVATED ASSAULT,False,2017-04-06 22:30:00,STREETS / HWY / ROAD / ALLEY,800 WAGON TRL,78758.0,4.0,ED,1,239.0,18.22,,,13A,Aggravated Assault,30.37762133,-97.68926477,2017.0,4.0,14.0,6.0,22.0
2017-04-07 17:30:00,AGGRAVATED ASSAULT,False,2017-04-07 19:59:00,PARKING LOTS / GARAGE,814 E RUNDBERG LN,78753.0,4.0,ED,7,241.0,18.33,Not Cleared,2017-04-17 00:00:00,13A,Aggravated Assault,30.35785478,-97.68661927,2017.0,4.0,14.0,7.0,17.0
2017-04-08 01:25:00,ARMED ROBBERY,False,2017-04-08 03:04:00,STREETS / HWY / ROAD / ALLEY,44 GUADALUPE ST,78701.0,9.0,GE,4,404,11.0,Not Cleared,2017-07-02 00:00:00,120,Robbery,30.26395569,-97.74784692,2017.0,4.0,14.0,8.0,1.0
2017-04-09 01:20:00,AGGRAVATED ASSAULT,False,2017-04-09 01:20:00,STREETS / HWY / ROAD / ALLEY,5500 N MOPAC EXPY NB,78731.0,10.0,BA,8,273.0,17.18,Cleared,2017-04-09 00:00:00,13A,Aggravated Assault,30.33705495,-97.75526069,2017.0,4.0,14.0,9.0,1.0
2017-04-09 02:22:00,AGGRAVATED ASSAULT,False,2017-04-09 02:22:00,BAR / NIGHT CLUB,9515 N LAMAR BLVD,78753.0,4.0,ED,1,240.0,18.23,Cleared,2017-05-20 00:00:00,13A,Aggravated Assault,30.36442773,-97.69460608,2017.0,4.0,14.0,9.0,2.0
2017-04-09 06:10:00,RAPE,False,2017-04-09 08:46:00,HOTEL / MOTEL / ETC.,7900 BLOCK GESSNER DR,78753.0,4.0,ED,1,592,18.0,Not Cleared,2017-04-17 00:00:00,11A,Rape,,,2017.0,4.0,14.0,9.0,6.0
2017-04-09 12:54:00,RAPE,False,2017-04-09 12:54:00,HOTEL / MOTEL / ETC.,4100 BLOCK GOVERNORS ROW,78744.0,2.0,FR,6,494.0,24.11,Cleared,2017-08-08 00:00:00,11A,Rape,,,2017.0,4.0,14.0,9.0,12.0
2017-04-09 22:36:00,AGGRAVATED ASSAULT,False,2017-04-09 22:36:00,FIELD / WOODS,700 NORTH BLUFF DR,78745.0,2.0,FR,4,515.0,24.0,Not Cleared,2017-04-20 00:00:00,13A,Aggravated Assault,30.19502788,-97.77155984,2017.0,4.0,14.0,9.0,22.0
2017-04-10 02:33:00,ARMED ROBBERY,False,2017-04-10 02:33:00,STREETS / HWY / ROAD / ALLEY,2100 PARKER LN,78741.0,9.0,HE,1,456.0,14.0,Not Cleared,2017-04-11 00:00:00,120,Robbery,30.2338638,-97.73626482,2017.0,4.0,15.0,10.0,2.0
2017-04-10 17:36:00,AGGRAVATED ASSAULT,False,2017-04-10 19:21:00,STREETS / HWY / ROAD / ALLEY,VARGAS RD / BASTROP HWY SB,78741.0,3.0,HE,5,444.0,23.12,,,13A,Aggravated Assault,30.2397978,-97.6882204,2017.0,4.0,15.0,10.0,17.0
2017-04-10 20:58:00,AGGRAVATED ASSAULT,False,2017-04-10 20:58:00,RESIDENCE / HOME,1054 SPRINGDALE RD,78721.0,1.0,CH,4,425.0,21.11,Cleared,2017-04-14 00:00:00,13A,Aggravated Assault,30.27185395,-97.69305203,2017.0,4.0,15.0,10.0,20.0
2017-04-11 18:48:00,ARMED ROBBERY,False,2017-04-11 21:58:00,CONVENIENCE STORE,7700 FM 969 RD,78724.0,1.0,CH,6,303.0,22.0,Cleared,2017-04-16 00:00:00,120,Robbery,30.2803628,-97.64591212,2017.0,4.0,15.0,11.0,18.0
2017-04-12 04:00:00,RAPE,False,2017-04-13 00:15:00,OTHER / UNKNOWN,1300 BLOCK LAMAR SQUARE DR,78704.0,5.0,DA,1,451.0,,Not Cleared,2018-01-14 00:00:00,11A,Rape,,,2017.0,4.0,15.0,12.0,4.0
2017-04-12 06:25:00,AGGRAVATED ASSAULT,False,2017-04-12 06:25:00,RESIDENCE / HOME,200 W MOCKINGBIRD LN,78745.0,3.0,DA,3,514.0,,Cleared,2017-04-12 00:00:00,13A,Aggravated Assault,30.20836412,-97.77472421,2017.0,4.0,15.0,12.0,6.0
2017-04-12 18:39:00,AGGRAVATED ASSAULT,False,2017-04-12 18:39:00,AUTO DEALERSHIP NEW / USED,6825 E US 290 HWY EB,78723.0,1.0,ID,3,294.0,21.12,Cleared,2017-04-12 00:00:00,13A,Aggravated Assault,30.32122759,-97.68860042,2017.0,4.0,15.0,12.0,18.0
2017-04-12 22:27:00,ARMED ROBBERY,False,2017-04-12 22:27:00,STREETS / HWY / ROAD / ALLEY,2209 LANIER DR,78757.0,7.0,ID,7,247.0,18.18,Cleared,2017-06-06 00:00:00,120,Robbery,30.36110576,-97.72731686,2017.0,4.0,15.0,12.0,22.0
