occurred_date_time,highest_offense_description,family_violence,report_date_time,location_type,address,zip_code,council_district,apd_sector,apd_district,pra,census_tract,clearance_status,clearance_date,category_description,latitude,longitude,year,month,week,day,hour
2017-01-01 00:00:00,AGG ASSAULT FAM/DATE VIOLENCE,True,2017-08-10 08:30:00,RESIDENCE / HOME,800 HUNTINGDON PL,78745.0,2.0,FR,3,526.0,,True,2017-08-17 00:00:00,Aggravated Assault,30.1960291,-97.79102086,2017.0,1.0,52.0,1.0,0.0
2017-01-01 00:00:00,RAPE,True,2020-10-26 20:00:00,RESIDENCE / HOME,7900 BLOCK GAULT ST,78757.0,7.0,ID,7,248.0,,False,2021-01-26 00:00:00,Rape,,,2017.0,1.0,52.0,1.0,0.0
2017-01-01 00:00:00,SEXUAL ASSAULT OF CHILD/OBJECT,True,2018-09-06 08:18:00,RESIDENCE / HOME,5900 BLOCK BOYCE LN,78653.0,1.0,CH,8,226.0,,True,2019-09-03 00:00:00,Rape,,,2017.0,1.0,52.0,1.0,0.0
2017-01-01 00:00:00,SEXUAL ASSAULT W/ OBJECT,False,2017-07-12 17:57:00,HOTEL / MOTEL / ETC.,700 BLOCK E 8TH ST,78701.0,9.0,GE,2,382.0,11.0,True,2017-09-05 00:00:00,Rape,,,2017.0,1.0,52.0,1.0,0.0
2017-01-01 00:01:00,RAPE,True,2018-07-28 02:38:00,,1500 BLOCK REAGAN HILL DR,78752.0,4.0,ID,2,266,18.11,False,2018-11-09 00:00:00,Rape,,,2017.0,1.0,52.0,1.0,0.0
2017-01-01 00:01:00,RAPE,False,2018-09-11 13:41:00,PARKING LOTS / GARAGE,2900 BLOCK N QUINLAN PARK RD,78732.0,,88,88,737.0,,False,2019-01-10 00:00:00,Rape,,,2017.0,1.0,52.0,1.0,0.0
2017-01-01 00:07:00,AGGRAVATED ASSAULT,False,2017-01-01 00:07:00,STREETS / HWY / ROAD / ALLEY,600 BLOCK BRAZOS ST,78701.0,9.0,GE,2,381.0,11.0,,,Aggravated Assault,30.26816195,-97.74136237,2017.0,1.0,52.0,1.0,0.0
2017-01-01 00:12:00,DEADLY CONDUCT,False,2017-01-01 00:12:00,RESIDENCE / HOME,7600 BARKDALE CT,78744.0,2.0,FR,8,530.0,24.3,False,2017-01-17 00:00:00,Aggravated Assault,30.17366372,-97.76278823,2017.0,1.0,52.0,1.0,0.0
2017-01-01 00:24:00,DEADLY CONDUCT,False,2017-01-01 00:24:00,RESIDENCE / HOME,4405 DOVE DR,78744.0,2.0,FR,5,517.0,24.12,False,2017-02-14 00:00:00,Aggravated Assault,30.19026385,-97.75154433,2017.0,1.0,52.0,1.0,0.0
2017-01-01 02:16:00,AGGRAVATED ASSAULT,False,2017-01-01 02:16:00,STREETS / HWY / ROAD / ALLEY,700 BRAZOS ST,78701.0,9.0,GE,2,381.0,11.0,False,2017-01-13 00:00:00,Aggravated Assault,30.26884954,-97.74122668,2017.0,1.0,52.0,1.0,2.0
2017-01-01 02:30:00,AGG ASLT STRANGLE/SUFFOCATE,True,2017-01-01 02:59:00,RESIDENCE / HOME,12800 TURTLE ROCK RD,78729.0,6.0,AD,4,165.0,204.06,True,2017-01-01 00:00:00,Aggravated Assault,30.45157753,-97.7741391,2017.0,1.0,52.0,1.0,2.0
2017-01-01 03:16:00,ROBBERY BY ASSAULT,False,2017-01-01 03:16:00,STREETS / HWY / ROAD / ALLEY,E 7TH ST / SAN MARCOS ST,78702.0,3.0,CH,1,410.0,,False,2017-01-13 00:00:00,Robbery,30.26589307,-97.73173415,2017.0,1.0,52.0,1.0,3.0
2017-01-01 04:11:00,AGG ASLT STRANGLE/SUFFOCATE,True,2017-01-01 04:11:00,RESIDENCE / HOME,9211 E HUNTERS TRCE,78758.0,4.0,ED,2,235.0,,True,2017-03-27 00:00:00,Aggravated Assault,30.3668104,-97.70979721,2017.0,1.0,52.0,1.0,4.0
2017-01-01 04:20:00,AGGRAVATED ASSAULT,False,2017-01-01 04:20:00,PARKING LOTS / GARAGE,1800 PATTON LN,78723.0,1.0,ID,3,294.0,21.12,False,2017-03-08 00:00:00,Aggravated Assault,30.3186038,-97.68793685,2017.0,1.0,52.0,1.0,4.0
2017-01-01 05:25:00,TAKE WEAPON FRM POLICE OFFICER,False,2017-01-01 05:25:00,STREETS / HWY / ROAD / ALLEY,FM 969 RD / ROGERS LN,78724.0,1.0,CH,6,303.0,22.0,True,2017-01-01 00:00:00,Aggravated Assault,30.27925691,-97.64380386,2017.0,1.0,52.0,1.0,5.0
2017-01-01 06:41:00,AGG ASLT STRANGLE/SUFFOCATE,True,2017-01-01 06:41:00,STREETS / HWY / ROAD / ALLEY,PEACEFUL HILL LN / RALPH ABLANEDO DR,78748.0,2.0,FR,3,537.0,24.22,True,2017-01-18 00:00:00,Aggravated Assault,30.17427779,-97.79105814,2017.0,1.0,52.0,1.0,6.0
2017-01-01 08:07:00,DEADLY CONDUCT,False,2017-01-01 08:07:00,RESIDENCE / HOME,12300 FURROW CV,78753.0,7.0,ED,6,206.0,18.39,False,2017-02-06 00:00:00,Aggravated Assault,30.39395902,-97.66048131,2017.0,1.0,52.0,1.0,8.0
2017-01-01 08:45:00,RAPE,False,2017-01-01 09:01:00,STREETS / HWY / ROAD / ALLEY,200 BLOCK E 10TH ST,78701.0,1.0,GE,1,379.0,,False,2017-02-06 00:00:00,Rape,,,2017.0,1.0,52.0,1.0,8.0
2017-01-01 10:24:00,AGG SEXUAL ASSAULT CHILD/OBJEC,True,2017-01-06 10:24:00,RESIDENCE / HOME,4000 BLOCK DUVAL RD,78759.0,7.0,AD,2,201.0,,False,2017-05-10 00:00:00,Rape,,,2017.0,1.0,52.0,1.0,10.0
2017-01-01 10:30:00,AGG ASLT STRANGLE/SUFFOCATE,True,2017-01-01 11:58:00,HOTEL / MOTEL / ETC.,9420 N IH 35 SVRD SB,78753.0,4.0,ED,1,240,,True,2017-01-10 00:00:00,Aggravated Assault,30.35979391,-97.688358,2017.0,1.0,52.0,1.0,10.0
2017-01-01 14:30:00,RAPE,False,2017-01-01 19:31:00,RESIDENCE / HOME,2100 BLOCK E WILLIAM CANNON DR,78744.0,2.0,FR,8,516.0,24.19,True,2017-09-21 00:00:00,Rape,,,2017.0,1.0,52.0,1.0,14.0
2017-01-01 17:30:00,AGGRAVATED ASSAULT,False,2017-01-01 17:30:00,PARKING LOTS / GARAGE,9329 NORTHGATE BLVD,78758.0,4.0,ED,2,236.0,18.2,False,2017-02-14 00:00:00,Aggravated Assault,30.37310385,-97.71440302,2017.0,1.0,52.0,1.0,17.0
2017-01-01 18:20:00,ROBBERY BY ASSAULT,False,2017-01-01 18:20:00,RESIDENCE / HOME,3300 MANOR RD,78723.0,1.0,BA,4,900.0,,True,2017-01-17 00:00:00,Robbery,30.2872359,-97.70250644,2017.0,1.0,52.0,1.0,18.0
2017-01-01 18:25:00,ARMED ROBBERY,False,2017-01-01 18:35:00,PARKING LOTS / GARAGE,1070 MEARNS MEADOW BLVD,78758.0,4.0,ED,1,239.0,18.22,True,2017-01-01 00:00:00,Robbery,30.36948655,-97.69959977,2017.0,1.0,52.0,1.0,18.0
2017-01-01 21:29:00,AGG FORCED SODOMY,False,2019-08-27 21:29:00,RESIDENCE / HOME,9600 BLOCK MIDDLE FISKVILLE RD,78753.0,4.0,ED,7,241.0,18.33,True,2019-10-29 00:00:00,Rape,,,2017.0,1.0,52.0,1.0,21.0
2017-01-01 21:48:00,AGG ASLT STRANGLE/SUFFOCATE,True,2017-01-01 21:48:00,RESIDENCE / HOME,3404 BACH DR,78660.0,1.0,ED,8,766.0,18.42,True,2017-01-02 00:00:00,Aggravated Assault,30.38937639,-97.61919351,2017.0,1.0,52.0,1.0,21.0
2017-01-01 21:52:00,AGG ASLT STRANGLE/SUFFOCATE,True,2017-01-01 21:52:00,PARKING LOTS / GARAGE,2601 S PLEASANT VALLEY RD,78741.0,3.0,HE,4,484.0,23.13,True,2017-01-05 00:00:00,Aggravated Assault,30.22642499,-97.72791034,2017.0,1.0,52.0,1.0,21.0
2017-01-02 01:00:00,DEADLY CONDUCT,False,2017-01-02 01:00:00,STREETS / HWY / ROAD / ALLEY,6100 TINER TRL,78724.0,1.0,CH,6,303.0,,False,2017-01-27 00:00:00,Aggravated Assault,30.28981743,-97.63982686,2017.0,1.0,1.0,2.0,1.0
2017-01-02 06:30:00,ARMED ROBBERY,False,2017-01-02 06:30:00,PARKING LOTS / GARAGE,1912 E WILLIAM CANNON DR,78744.0,2.0,FR,8,516.0,24.19,False,2018-09-15 00:00:00,Robbery,30.18854877,-97.76458936,2017.0,1.0,1.0,2.0,6.0
2017-01-02 10:01:00,RAPE OF A CHILD,False,2017-01-02 10:01:00,OTHER / UNKNOWN,7000 BLOCK CROMARTY CV,78754.0,1.0,CH,8,226.0,,False,2017-01-04 00:00:00,Rape,,,2017.0,1.0,1.0,2.0,10.0
2017-01-02 11:51:00,AGGRAVATED ASSAULT,False,2017-01-02 11:51:00,PARKING LOTS / GARAGE,519 E 7TH ST,78701.0,9.0,GE,2,382.0,11.0,True,2017-01-02 00:00:00,Aggravated Assault,30.26725491,-97.73717896,2017.0,1.0,1.0,2.0,11.0
2017-01-02 19:07:00,AGG ASLT STRANGLE/SUFFOCATE,True,2017-01-02 19:07:00,ABANDONED/CONDEMNED STRUCTURE,6855 E US 290 HWY EB,78723.0,1.0,ID,3,294.0,21.12,True,2017-01-06 00:00:00,Aggravated Assault,30.32127898,-97.68802519,2017.0,1.0,1.0,2.0,19.0
2017-01-02 19:50:00,ROBBERY BY ASSAULT,False,2017-01-02 19:50:00,PARKING LOTS / GARAGE,1401 E 12TH ST,78702.0,1.0,CH,2,413.0,8.0,False,2017-01-09 00:00:00,Robbery,30.27270295,-97.72483619,2017.0,1.0,1.0,2.0,19.0
2017-01-02 23:00:00,AGG RAPE,False,2017-01-03 01:32:00,RESIDENCE / HOME,2600 BLOCK REEVES CIR,78741.0,3.0,HE,2,482.0,,False,2017-02-10 00:00:00,Rape,,,2017.0,1.0,1.0,2.0,23.0
2017-01-02 23:00:00,AGGRAVATED ASSAULT,False,2017-01-05 11:19:00,PARK / PLAYGROUND,300 COMAL ST,78702.0,3.0,CH,1,410.0,9.0,False,2017-01-19 00:00:00,Aggravated Assault,30.26053691,-97.72788327,2017.0,1.0,1.0,2.0,23.0
2017-01-03 00:49:00,ARMED ROBBERY,False,2017-01-03 00:49:00,GAS / SERVICE STATIONS,408 E RUNDBERG LN,78753.0,4.0,ED,1,240.0,18.23,True,2017-01-09 00:00:00,Robbery,30.35987625,-97.69035066,2017.0,1.0,1.0,3.0,0.0
2017-01-03 10:46:00,SEXUAL ASSAULT W/ OBJECT,False,2017-01-03 10:46:00,RESIDENCE / HOME,4800 BLOCK SANTA ANNA ST,78721.0,1.0,CH,5,397,21.1,True,2017-01-25 00:00:00,Rape,,,2017.0,1.0,1.0,3.0,10.0
2017-01-03 12:00:00,RAPE,False,2017-01-25 10:29:00,RESIDENCE / HOME,2400 BLOCK WESTERN TRAILS BLVD,78745.0,5.0,DA,4,488.0,17.12,False,2017-03-27 00:00:00,Rape,,,2017.0,1.0,1.0,3.0,12.0
2017-01-03 18:15:00,RAPE OF A CHILD,False,2017-01-03 18:15:00,RESIDENCE / HOME,11600 BLOCK APRIL DR,78753.0,1.0,ED,7,759.0,18.32,False,2018-02-01 00:00:00,Rape,,,2017.0,1.0,1.0,3.0,18.0
2017-01-04 00:00:00,RAPE,True,2017-01-25 14:53:00,RESIDENCE / HOME,2600 BLOCK SOL WILSON AVE,78702.0,1.0,CH,2,415.0,8.02,True,2017-02-13 00:00:00,Rape,,,2017.0,1.0,1.0,4.0,0.0
2017-01-04 00:09:00,ROBBERY BY THREAT,False,2017-01-04 00:09:00,PARKING LOTS / GARAGE,2507 E RIVERSIDE DR,78741.0,3.0,HE,2,457.0,23.16,True,2017-01-04 00:00:00,Robbery,30.23375473,-97.72426646,2017.0,1.0,1.0,4.0,0.0
2017-01-04 00:09:00,AGG ASLT STRANGLE/SUFFOCATE,True,2017-01-04 04:36:00,RESIDENCE / HOME,2936 BARTON SKWY,78746.0,8.0,DA,1,449.0,19.11,,,Aggravated Assault,30.26053307,-97.78844793,2017.0,1.0,1.0,4.0,0.0
2017-01-04 00:31:00,RAPE OF A CHILD,False,2017-01-04 00:31:00,RESIDENCE / HOME,5600 BLOCK N LAMAR BLVD,78756.0,7.0,ID,7,289.0,,True,2017-01-04 00:00:00,Rape,,,2017.0,1.0,1.0,4.0,0.0
2017-01-04 08:27:00,DEADLY CONDUCT,False,2017-01-04 08:27:00,RESIDENCE / HOME,304 DELMAR AVE,78752.0,4.0,ID,8,264.0,18.04,False,2017-08-21 00:00:00,Aggravated Assault,30.33851635,-97.70652382,2017.0,1.0,1.0,4.0,8.0
2017-01-04 10:25:00,AGG ASSAULT FAM/DATE VIOLENCE,True,2017-01-04 12:19:00,RESIDENCE / HOME,2347 DOUGLAS ST,78741.0,3.0,HE,2,483.0,23.13,True,2017-04-04 00:00:00,Aggravated Assault,30.22813323,-97.73117084,2017.0,1.0,1.0,4.0,10.0
2017-01-04 14:53:00,RAPE,False,2017-01-04 14:53:00,COMMERCIAL / OFFICE BUILDING,2100 BLOCK BOCA RATON DR,78747.0,5.0,FR,7,797.0,24.28,True,2017-04-04 00:00:00,Rape,,,2017.0,1.0,1.0,4.0,14.0
2017-01-04 16:36:00,AGGRAVATED ASSAULT,False,2017-01-04 17:36:00,RESIDENCE / HOME,9801 W PARMER LN,78717.0,6.0,AD,5,574.0,205.08,True,2017-01-09 00:00:00,Aggravated Assault,30.48543801,-97.77170883,2017.0,1.0,1.0,4.0,16.0
2017-01-04 17:06:00,AGGRAVATED ASSAULT,False,2017-01-04 17:24:00,STREETS / HWY / ROAD / ALLEY,900 E 11TH ST,78702.0,1.0,CH,2,413.0,8.0,False,2017-01-17 00:00:00,Aggravated Assault,30.27009178,-97.73127562,2017.0,1.0,1.0,4.0,17.0
2017-01-04 19:30:00,ARMED ROBBERY,False,2017-01-04 19:30:00,RESIDENCE / HOME,1881 GROVE BLVD,78741.0,3.0,HE,3,443.0,23.18,False,2017-04-05 00:00:00,Robbery,30.22863192,-97.70615517,2017.0,1.0,1.0,4.0,19.0
2017-01-04 21:43:00,AGG ASLT STRANGLE/SUFFOCATE,True,2017-01-04 22:54:00,RESIDENCE / HOME,6116 TINER TRL,78724.0,1.0,CH,6,303.0,22.0,False,2017-01-11 00:00:00,Aggravated Assault,30.29016765,-97.63947796,2017.0,1.0,1.0,4.0,21.0
2017-01-04 23:16:00,ARMED ROBBERY,False,2017-01-05 00:15:00,RESIDENCE / HOME,10610 MORADO CIR,78759.0,10.0,AD,7,198.0,17.22,False,2017-02-03 00:00:00,Robbery,30.40390628,-97.75232436,2017.0,1.0,1.0,4.0,23.0
2017-01-05 01:00:00,ARMED ROBBERY,False,2017-01-05 01:00:00,GAS / SERVICE STATIONS,3008 W SLAUGHTER LN,78748.0,5.0,FR,1,535.0,,,,Robbery,30.17932364,-97.8402354,2017.0,1.0,1.0,5.0,1.0
2017-01-05 01:05:00,AGG ASLT STRANGLE/SUFFOCATE,True,2017-01-05 01:05:00,RESIDENCE / HOME,8401 GARCREEK CIR,78724.0,1.0,CH,7,302.0,22.0,True,2017-01-05 00:00:00,Aggravated Assault,30.29392142,-97.62926583,2017.0,1.0,1.0,5.0,1.0
2017-01-05 03:59:00,AGG ASLT STRANGLE/SUFFOCATE,True,2017-01-05 03:59:00,RESIDENCE / HOME,8515 S IH 35 SVRD NB,78744.0,2.0,FR,7,543.0,24.29,True,2017-01-05 00:00:00,Aggravated Assault,30.17057316,-97.78193509,2017.0,1.0,1.0,5.0,3.0
2017-01-05 06:30:00,ROBBERY BY ASSAULT,False,2017-01-05 08:39:00,PARKING LOTS / GARAGE,1109 S PLEASANT VALLEY RD,78741.0,3.0,HE,3,442.0,23.17,False,2017-03-15 00:00:00,Robbery,30.24136087,-97.71692105,2017.0,1.0,1.0,5.0,6.0
2017-01-05 09:46:00,RAPE OF A CHILD,False,2017-10-05 09:46:00,RESIDENCE / HOME,9000 BLOCK NORTHGATE BLVD,78758.0,4.0,ED,2,235.0,,False,2018-02-19 00:00:00,Rape,,,2017.0,1.0,1.0,5.0,9.0
2017-01-05 14:30:00,ROBBERY BY ASSAULT,False,2017-01-05 15:22:00,STREETS / HWY / ROAD / ALLEY,8300 N LAMAR BLVD,78758.0,4.0,ED,2,249.0,18.0,False,2017-01-21 00:00:00,Robbery,30.35224678,-97.708836,2017.0,1.0,1.0,5.0,14.0
2017-01-05 17:30:00,AGG ASSAULT FAM/DATE VIOLENCE,True,2017-01-05 17:30:00,STREETS / HWY / ROAD / ALLEY,N LAMAR BLVD / W BRAKER LN,78753.0,4.0,ED,4,2213.0,18.23,True,2017-01-06 00:00:00,Aggravated Assault,30.38193221,-97.68638032,2017.0,1.0,1.0,5.0,17.0
2017-01-05 19:20:00,ROBBERY BY ASSAULT,False,2017-01-05 22:41:00,PARKING LOTS / GARAGE,710 E BEN WHITE BLVD SVRD WB,78704.0,3.0,DA,2,480.0,23.0,True,2017-01-21 00:00:00,Robbery,30.2200027,-97.75439457,2017.0,1.0,1.0,5.0,19.0
2017-01-05 20:29:00,AGGRAVATED ASSAULT,True,2017-01-05 20:29:00,RESIDENCE / HOME,2302 DURWOOD ST,78704.0,9.0,DA,1,476.0,13.0,True,2017-01-06 00:00:00,Aggravated Assault,30.24193769,-97.7577335,2017.0,1.0,1.0,5.0,20.0
2017-01-05 20:55:00,AGG ASLT STRANGLE/SUFFOCATE,True,2017-01-05 20:55:00,RESIDENCE / HOME,1701 MATTHEWS LN,78745.0,5.0,FR,1,525.0,17.28,True,2017-01-05 00:00:00,Aggravated Assault,30.19832122,-97.80454987,2017.0,1.0,1.0,5.0,20.0
2017-01-05 23:04:00,AGGRAVATED ASSAULT,False,2017-01-05 23:04:00,RESTAURANTS,4619 BORAGE DR,78744.0,2.0,FR,8,530.0,24.3,False,2017-01-18 00:00:00,Aggravated Assault,30.17426952,-97.75762512,2017.0,1.0,1.0,5.0,23.0
2017-01-05 23:20:00,DEADLY CONDUCT,False,2017-01-05 23:20:00,STREETS / HWY / ROAD / ALLEY,N IH 35 SVRD SB / W PARMER LN,78753.0,7.0,ED,4,193.0,18.26,True,2017-01-05 00:00:00,Aggravated Assault,30.40802586,-97.67524001,2017.0,1.0,1.0,5.0,23.0
2017-01-06 07:30:00,SEXUAL ASSAULT OF CHILD/OBJECT,False,2017-01-08 01:50:00,HOTEL / MOTEL / ETC.,6100 BLOCK FAIRWAY ST,78741.0,3.0,HE,3,443.0,23.18,False,2017-06-23 00:00:00,Rape,,,2017.0,1.0,1.0,6.0,7.0
2017-01-06 20:57:00,ARMED ROBBERY,False,2017-01-06 20:57:00,RESIDENCE / HOME,4320 S CONGRESS AVE,78745.0,3.0,DA,3,491.0,20.03,False,2017-05-03 00:00:00,Robbery,30.21903307,-97.76718941,2017.0,1.0,1.0,6.0,20.0
2017-01-06 22:00:00,RAPE,False,2017-01-07 08:21:00,BAR / NIGHT CLUB,6500 BLOCK N LAMAR BLVD,78757.0,7.0,ID,7,277.0,15.0,True,2017-02-21 00:00:00,Rape,,,2017.0,1.0,1.0,6.0,22.0
2017-01-06 23:28:00,AGG ASSAULT FAM/DATE VIOLENCE,True,2017-01-06 23:28:00,RESIDENCE / HOME,11201 N MOPAC EXPY SVRD NB,78758.0,7.0,AD,2,199.0,17.54,True,2017-01-07 00:00:00,Aggravated Assault,30.40083979,-97.72892075,2017.0,1.0,1.0,6.0,23.0
2017-01-07 03:00:00,AGGRAVATED ASSAULT,False,2017-01-07 04:41:00,RESIDENCE / HOME,9603 PARKFIELD DR,78758.0,4.0,ED,1,239.0,18.22,True,2017-01-09 00:00:00,Aggravated Assault,30.37045116,-97.70438839,2017.0,1.0,1.0,7.0,3.0
2017-01-07 04:02:00,AGG ASLT STRANGLE/SUFFOCATE,True,2017-01-07 04:02:00,RESIDENCE / HOME,2905 COLLINS CREEK DR,78741.0,3.0,HE,2,483,23.13,True,2017-01-10 00:00:00,Aggravated Assault,30.22376334,-97.73119039,2017.0,1.0,1.0,7.0,4.0
2017-01-07 11:00:00,RAPE OF A CHILD,False,2017-01-08 01:50:00,RESIDENCE / HOME,6100 BLOCK FAIRWAY ST,78741.0,3.0,HE,3,443.0,23.18,True,2017-01-19 00:00:00,Rape,,,2017.0,1.0,1.0,7.0,11.0
2017-01-07 11:24:00,AGG ASLT STRANGLE/SUFFOCATE,True,2017-01-07 11:24:00,RESIDENCE / HOME,2110 WIRTZ AVE,78704.0,9.0,DA,1,471.0,13.0,True,2017-01-11 00:00:00,Aggravated Assault,30.24682362,-97.76574763,2017.0,1.0,1.0,7.0,11.0
2017-01-07 12:09:00,AGG ASSAULT FAM/DATE VIOLENCE,True,2017-01-07 12:09:00,RESIDENCE / HOME,2510 EUCLID AVE,78704.0,3.0,DA,2,475.0,,True,2017-01-20 00:00:00,Aggravated Assault,30.23806629,-97.75778607,2017.0,1.0,1.0,7.0,12.0
2017-01-07 17:50:00,ARMED ROBBERY,False,2017-01-07 17:52:00,PARKING LOTS / GARAGE,1015 RUTLAND DR,78758.0,4.0,ED,1,238.0,,False,2017-07-03 00:00:00,Robbery,30.3671238,-97.70414923,2017.0,1.0,1.0,7.0,17.0
2017-01-07 20:53:00,ROBBERY BY THREAT,False,2017-01-07 20:53:00,LIQUOR STORE,1717 S PLEASANT VALLEY RD,78741.0,3.0,HE,3,442.0,23.18,True,2017-01-08 00:00:00,Robbery,30.23513149,-97.72016225,2017.0,1.0,1.0,7.0,20.0
2017-01-07 21:00:00,SEXUAL ASSAULT W/ OBJECT,True,2017-01-17 15:30:00,RESIDENCE / HOME,3300 BLOCK GALLOP CV,78745.0,5.0,DA,4,504.0,,True,2017-01-19 00:00:00,Rape,,,2017.0,1.0,1.0,7.0,21.0
2017-01-07 21:47:00,ARMED ROBBERY,False,2017-01-07 21:52:00,PARKING LOTS / GARAGE,8926 N LAMAR BLVD,78758.0,4.0,ED,1,237.0,18.19,False,2017-07-03 00:00:00,Robbery,30.35875709,-97.69972149,2017.0,1.0,1.0,7.0,21.0
2017-01-07 22:15:00,ARMED ROBBERY,False,2017-01-08 00:22:00,PARKING LOTS / GARAGE,12349 METRIC BLVD,78758.0,7.0,ED,4,204.0,18.26,False,2017-07-03 00:00:00,Robbery,30.40977797,-97.69537019,2017.0,1.0,1.0,7.0,22.0
2017-01-08 01:47:00,AGG ASLT STRANGLE/SUFFOCATE,True,2017-01-08 01:47:00,RESIDENCE / HOME,3200 S LAMAR BLVD,78704.0,5.0,DA,4,465.0,,True,2017-01-13 00:00:00,Aggravated Assault,30.24196938,-97.7853102,2017.0,1.0,1.0,8.0,1.0
2017-01-08 02:19:00,ARMED ROBBERY,False,2017-01-10 14:12:00,PARKING LOTS / GARAGE,2200 S PLEASANT VALLEY RD,78741.0,3.0,HE,2,457.0,23.16,False,2017-05-15 00:00:00,Robbery,30.23154682,-97.7260523,2017.0,1.0,1.0,8.0,2.0
2017-01-08 02:19:00,ARMED ROBBERY,False,2017-01-08 02:19:00,RESIDENCE / HOME,2200 S PLEASANT VALLEY RD,78741.0,3.0,HE,2,457.0,23.16,False,2017-05-15 00:00:00,Robbery,30.23154682,-97.7260523,2017.0,1.0,1.0,8.0,2.0
2017-01-08 03:12:00,AGG ASLT STRANGLE/SUFFOCATE,True,2017-01-08 03:12:00,PARKING LOTS / GARAGE,1700 TERI RD,78744.0,2.0,FR,5,493.0,24.11,True,2017-01-15 00:00:00,Aggravated Assault,30.20524259,-97.75566571,2017.0,1.0,1.0,8.0,3.0
2017-01-08 07:00:00,AGG ASSAULT FAM/DATE VIOLENCE,True,2017-01-09 11:10:00,RESIDENCE / HOME,6017 ATWOOD ST,78741.0,3.0,HE,3,443.0,23.17,True,2017-01-12 00:00:00,Aggravated Assault,30.23977511,-97.69832892,2017.0,1.0,1.0,8.0,7.0
2017-01-08 09:15:00,AGGRAVATED ASSAULT,False,2017-01-08 10:22:00,RESIDENCE / HOME,3105 S IH 35 SVRD NB,78741.0,3.0,HE,2,482.0,23.07,False,2017-01-17 00:00:00,Aggravated Assault,30.22525037,-97.74417353,2017.0,1.0,1.0,8.0,9.0
2017-01-08 09:45:00,AGG ASLT STRANGLE/SUFFOCATE,True,2017-01-08 10:05:00,RESIDENCE / HOME,1515 GROVE BLVD,78741.0,3.0,HE,3,443.0,23.18,True,2017-01-10 00:00:00,Aggravated Assault,30.2309895,-97.70564444,2017.0,1.0,1.0,8.0,9.0
2017-01-08 13:49:00,RAPE OF A CHILD,True,2017-01-08 13:49:00,RESIDENCE / HOME,GEORGI00 BLOCK DR / E POWELL LN,78753.0,4.0,ED,1,592.0,18.0,False,2017-01-18 00:00:00,Rape,,,2017.0,1.0,1.0,8.0,13.0
2017-01-08 19:07:00,AGGRAVATED ASSAULT,False,2017-01-08 20:35:00,RESIDENCE / HOME,11607 SIERRA NEVADA,78759.0,10.0,AD,7,190.0,25.0,False,2017-02-24 00:00:00,Aggravated Assault,30.42085628,-97.75504086,2017.0,1.0,1.0,8.0,19.0
2017-01-08 21:11:00,ROBBERY BY ASSAULT,False,2017-01-08 23:24:00,PARKING LOTS / GARAGE,412 E WILLIAM CANNON DR,78745.0,2.0,FR,4,515.0,24.0,True,2017-01-15 00:00:00,Robbery,30.19259606,-97.77497082,2017.0,1.0,1.0,8.0,21.0
2017-01-08 23:06:00,AGGRAVATED ASSAULT,False,2017-01-08 23:06:00,DEPARTMENT / DISCOUNT STORE,1030 NORWOOD PARK BLVD,78753.0,4.0,ID,2,252.0,18.13,False,2017-02-06 00:00:00,Aggravated Assault,30.3391525,-97.69116892,2017.0,1.0,1.0,8.0,23.0
2017-01-08 23:42:00,AGG ASLT STRANGLE/SUFFOCATE,True,2017-01-08 23:42:00,RESIDENCE / HOME,4646 MUELLER BLVD,78723.0,9.0,BA,4,900.0,,True,2017-01-09 00:00:00,Aggravated Assault,30.29986863,-97.70708128,2017.0,1.0,1.0,8.0,23.0
2017-01-09 00:00:00,AGG ASLT STRANGLE/SUFFOCATE,True,2017-01-11 03:42:00,RESIDENCE / HOME,2300 BLOCK DURWOOD ST,78704.0,9.0,DA,1,476.0,13.0,False,2017-01-18 00:00:00,Aggravated Assault,,,2017.0,1.0,2.0,9.0,0.0
2017-01-09 00:12:00,SEXUAL ASSAULT OF CHILD/OBJECT,True,2017-01-12 22:13:00,RESIDENCE / HOME,1100 BLOCK W RUNDBERG LN,78758.0,4.0,ED,1,237.0,18.19,False,2017-07-11 00:00:00,Rape,,,2017.0,1.0,2.0,9.0,0.0
2017-01-09 01:30:00,RAPE OF A CHILD,False,2017-01-09 01:30:00,RESIDENCE / HOME,9800 BLOCK QUAIL BLVD,78758.0,4.0,ED,1,239.0,18.22,True,2017-03-30 00:00:00,Rape,,,2017.0,1.0,2.0,9.0,1.0
2017-01-09 01:52:00,AGGRAVATED ASSAULT,False,2017-01-09 03:18:00,STREETS / HWY / ROAD / ALLEY,9034 N IH 35 SVRD SB,78753.0,4.0,ED,1,250.0,18.0,False,2017-01-17 00:00:00,Aggravated Assault,30.35587055,-97.69042871,2017.0,1.0,2.0,9.0,1.0
2017-01-09 12:32:00,ROBBERY BY ASSAULT,False,2017-01-09 12:32:00,CONVENIENCE STORE,3807 N IH 35 SVRD NB,78722.0,9.0,CH,3,333.0,3.0,False,2017-08-29 00:00:00,Robbery,30.29481739,-97.71897728,2017.0,1.0,2.0,9.0,12.0
2017-01-09 21:36:00,ARMED ROBBERY,False,2017-01-09 22:53:00,PARKING LOTS / GARAGE,2201 MONTOPOLIS DR,78741.0,3.0,HE,5,459.0,23.12,False,2017-05-15 00:00:00,Robbery,30.22249725,-97.70447881,2017.0,1.0,2.0,9.0,21.0
2017-01-09 22:10:00,ARMED ROBBERY,False,2017-01-09 22:10:00,PARKING LOTS / GARAGE,8532 N LAMAR BLVD,78758.0,4.0,ED,2,249.0,18.0,False,2017-07-03 00:00:00,Robbery,30.35525522,-97.70666419,2017.0,1.0,2.0,9.0,22.0
2017-01-09 22:10:00,ARMED ROBBERY,False,2017-01-09 23:11:00,PARKING LOTS / GARAGE,8532 N LAMAR BLVD,78758.0,4.0,ED,2,249.0,18.05,False,2017-07-03 00:00:00,Robbery,30.35525522,-97.70666419,2017.0,1.0,2.0,9.0,22.0
2017-01-09 22:30:00,ARMED ROBBERY,False,2017-01-10 18:46:00,STREETS / HWY / ROAD / ALLEY,1212 WESTHEIMER DR,78752.0,4.0,ID,1,265.0,18.12,False,2017-07-03 00:00:00,Robbery,30.32578989,-97.69444533,2017.0,1.0,2.0,9.0,22.0
2017-01-09 22:30:00,ARMED ROBBERY,False,2017-01-10 12:34:00,PARKING LOTS / GARAGE,1212 WESTHEIMER DR,78752.0,4.0,ID,1,265.0,18.12,False,2017-07-03 00:00:00,Robbery,30.32578989,-97.69444533,2017.0,1.0,2.0,9.0,22.0
2017-01-09 23:50:00,ROBBERY BY THREAT,False,2017-01-09 23:54:00,PARKING LOTS / GARAGE,8900 N IH 35 SVRD SB,78753.0,4.0,ED,1,250.0,18.0,False,2017-01-26 00:00:00,Robbery,30.35353289,-97.69270637,2017.0,1.0,2.0,9.0,23.0
2017-01-10 00:10:00,RAPE,False,2017-01-10 00:10:00,HOTEL / MOTEL / ETC.,800 BLOCK E ANDERSON LN SVRD WB,78753.0,4.0,ID,2,252.0,18.13,True,2017-01-10 00:00:00,Rape,,,2017.0,1.0,2.0,10.0,0.0
2017-01-10 03:29:00,AGGRAVATED ASSAULT,False,2017-01-10 03:29:00,PARKING LOTS / GARAGE,739 W WILLIAM CANNON DR,78745.0,2.0,FR,3,526.0,24.24,False,2017-01-16 00:00:00,Aggravated Assault,30.1974094,-97.78989537,2017.0,1.0,2.0,10.0,3.0
2017-01-10 09:58:00,AGG ASLT STRANGLE/SUFFOCATE,True,2017-01-10 09:58:00,RESIDENCE / HOME,2804 E 2ND ST,78702.0,3.0,CH,1,421.0,9.0,True,2017-01-10 00:00:00,Aggravated Assault,30.25389036,-97.71188961,2017.0,1.0,2.0,10.0,9.0
2017-01-10 12:00:00,ARMED ROBBERY,False,2017-01-10 13:15:00,FIELD / WOODS,5200 N CAPITAL OF TEXAS HWY NB,78746.0,10.0,BA,7,307.0,19.12,False,2017-10-03 00:00:00,Robbery,30.3499399,-97.79689336,2017.0,1.0,2.0,10.0,12.0
2017-01-10 12:02:00,ARMED ROBBERY,False,2017-01-10 12:02:00,PARK / PLAYGROUND,5200 N CAPITAL OF TEXAS HWY SB,78746.0,10.0,BA,8,305.0,19.12,False,2018-02-08 00:00:00,Robbery,30.35004118,-97.79700803,2017.0,1.0,2.0,10.0,12.0
2017-01-10 15:31:00,AGGRAVATED ASSAULT,False,2017-01-10 15:31:00,STREETS / HWY / ROAD / ALLEY,4124 N IH 35 UPPER DECK SB,78705.0,9.0,BA,1,348.0,4.0,False,2017-05-11 00:00:00,Aggravated Assault,30.29822826,-97.71778505,2017.0,1.0,2.0,10.0,15.0
2017-01-10 16:25:00,AGG ASSAULT FAM/DATE VIOLENCE,True,2017-01-10 16:25:00,RESIDENCE / HOME,7033 E US 290 HWY SVRD EB,78723.0,1.0,ID,3,294.0,21.12,True,2017-01-11 00:00:00,Aggravated Assault,30.32048257,-97.68608462,2017.0,1.0,2.0,10.0,16.0
2017-01-10 18:36:00,AGG ASSAULT FAM/DATE VIOLENCE,False,2017-01-10 18:36:00,RESIDENCE / HOME,6909 WENTWORTH DR,78724.0,1.0,CH,7,302.0,22.0,True,2017-01-10 00:00:00,Aggravated Assault,30.29531461,-97.62881477,2017.0,1.0,2.0,10.0,18.0
2017-01-11 05:25:00,ARMED ROBBERY,False,2017-01-11 05:25:00,PARKING LOTS / GARAGE,2000 CEDAR BEND DR,78758.0,7.0,AD,3,203.0,18.5,False,2017-04-19 00:00:00,Robbery,30.40934374,-97.69873297,2017.0,1.0,2.0,11.0,5.0
2017-01-11 06:01:00,AGG ASLT STRANGLE/SUFFOCATE,True,2017-01-12 06:01:00,RESIDENCE / HOME,2810 HEMPHILL PARK,78705.0,9.0,BA,1,361.0,6.01,True,2017-01-31 00:00:00,Aggravated Assault,30.29404313,-97.74125049,2017.0,1.0,2.0,11.0,6.0
2017-01-11 13:30:00,AGGRAVATED ASSAULT,False,2017-01-12 05:56:00,PARKING LOTS / GARAGE,7208 CAMERON RD,78752.0,4.0,ID,1,265.0,18.12,False,2017-01-17 00:00:00,Aggravated Assault,30.32638003,-97.69251739,2017.0,1.0,2.0,11.0,13.0
2017-01-11 15:01:00,AGGRAVATED ASSAULT,False,2017-01-11 15:01:00,STREETS / HWY / ROAD / ALLEY,E 51ST ST / BERKMAN DR,78723.0,4.0,ID,4,295.0,21.0,False,2017-02-09 00:00:00,Aggravated Assault,30.30390569,-97.69888228,2017.0,1.0,2.0,11.0,15.0
2017-01-11 17:40:00,AGG SEXUAL ASSAULT W OBJECT,False,2017-01-11 21:53:00,RESIDENCE / HOME,4400 BLOCK E OLTORF ST,78741.0,3.0,HE,4,458.0,23.14,True,2017-01-30 00:00:00,Rape,,,2017.0,1.0,2.0,11.0,17.0
2017-01-11 20:32:00,AGGRAVATED ASSAULT,False,2017-01-11 20:32:00,PARKING LOTS / GARAGE,1705 S LAKESHORE BLVD,78741.0,3.0,HE,2,441.0,23.04,False,2017-03-27 00:00:00,Aggravated Assault,30.24450788,-97.72963988,2017.0,1.0,2.0,11.0,20.0
2017-01-11 20:39:00,AGG ASSAULT FAM/DATE VIOLENCE,True,2017-01-11 21:52:00,RESIDENCE / HOME,7302 DECKER LN,78724.0,1.0,CH,7,302.0,,True,2017-01-11 00:00:00,Aggravated Assault,30.30033237,-97.62326354,2017.0,1.0,2.0,11.0,20.0
2017-01-11 21:34:00,AGG ASLT ENHANC STRANGL/SUFFOC,True,2017-01-11 21:34:00,STREETS / HWY / ROAD / ALLEY,9616 N LAMAR BLVD,78758.0,4.0,ED,1,239.0,18.22,False,2017-01-16 00:00:00,Aggravated Assault,30.36679433,-97.69560388,2017.0,1.0,2.0,11.0,21.0
2017-01-12 03:51:00,ROBBERY BY ASSAULT,False,2017-01-12 03:51:00,RESIDENCE / HOME,6600 BLOCK ED BLUESTEIN BLVD SB,78723.0,1.0,CH,4,299.0,,False,2017-02-22 00:00:00,Robbery,,,2017.0,1.0,2.0,12.0,3.0
2017-01-12 05:50:00,ARMED ROBBERY,False,2017-01-12 05:50:00,PARKING LOTS / GARAGE,8630 RESEARCH BLVD SVRD SB,78757.0,7.0,ID,7,248.0,18.18,True,2017-02-27 00:00:00,Robbery,30.36273234,-97.71791339,2017.0,1.0,2.0,12.0,5.0
2017-01-12 09:20:00,AGG ASSAULT FAM/DATE VIOLENCE,True,2017-01-12 09:22:00,RESIDENCE / HOME,3310 PLANTATION RD,78745.0,5.0,FR,1,98,17.29,True,2017-01-18 00:00:00,Aggravated Assault,30.19980572,-97.83421345,2017.0,1.0,2.0,12.0,9.0
2017-01-12 09:59:00,AGG ASSAULT FAM/DATE VIOLENCE,True,2017-01-12 09:59:00,RESIDENCE / HOME,1071 CLAYTON LN,78723.0,4.0,ID,5,292.0,21.0,False,2017-02-03 00:00:00,Aggravated Assault,30.3185291,-97.7034222,2017.0,1.0,2.0,12.0,9.0
2017-01-12 11:39:00,SEXUAL ASSAULT W/ OBJECT,False,2017-01-12 11:39:00,HOTEL / MOTEL / ETC.,1300 BLOCK S CONGRESS AVE,78704.0,9.0,DA,1,453.0,13.0,False,2019-01-21 00:00:00,Rape,,,2017.0,1.0,2.0,12.0,11.0
2017-01-12 13:42:00,AGGRAVATED ASSAULT,False,2017-01-12 13:42:00,STREETS / HWY / ROAD / ALLEY,E RIVERSIDE DR / S PLEASANT VALLEY RD,78741.0,3.0,HE,3,442.0,23.18,True,2017-01-18 00:00:00,Aggravated Assault,30.2341129,-97.72281244,2017.0,1.0,2.0,12.0,13.0
2017-01-12 14:58:00,AGG ASLT STRANGLE/SUFFOCATE,True,2017-01-12 14:58:00,RESIDENCE / HOME,2347 DOUGLAS ST,78741.0,3.0,HE,2,483.0,,True,2017-01-12 00:00:00,Aggravated Assault,30.22813323,-97.73117084,2017.0,1.0,2.0,12.0,14.0
2017-01-12 15:58:00,DEADLY CONDUCT,False,2017-01-12 15:58:00,COMMERCIAL / OFFICE BUILDING,937 REINLI ST,78751.0,4.0,ID,6,291.0,21.0,False,2017-02-15 00:00:00,Aggravated Assault,30.31852382,-97.70960741,2017.0,1.0,2.0,12.0,15.0
2017-01-12 16:42:00,AGGRAVATED ASSAULT,False,2017-01-12 16:42:00,STREETS / HWY / ROAD / ALLEY,HUDSON ST / DARBY ST,78721.0,1.0,CH,5,397.0,,True,2017-01-16 00:00:00,Aggravated Assault,30.26943017,-97.67082082,2017.0,1.0,2.0,12.0,16.0
2017-01-12 16:44:00,ARMED ROBBERY,False,2017-01-12 20:08:00,FIELD / WOODS,600 BARWOOD PARK,78753.0,4.0,ED,1,250.0,18.0,False,2017-01-31 00:00:00,Robbery,30.34950001,-97.69667616,2017.0,1.0,2.0,12.0,16.0
2017-01-12 18:39:00,AGGRAVATED ASSAULT,False,2017-01-12 19:45:00,STREETS / HWY / ROAD / ALLEY,S LAMAR BLVD SVRD NB / W BEN WHITE BLVD SVRD EB,78745.0,5.0,DA,4,488.0,17.12,False,2017-01-24 00:00:00,Aggravated Assault,30.23367988,-97.79666852,2017.0,1.0,2.0,12.0,18.0
2017-01-12 23:14:00,DEADLY CONDUCT,False,2017-01-12 23:14:00,RESIDENCE / HOME,2802 BOBBY LN,78745.0,5.0,FR,1,535.0,,False,2017-02-21 00:00:00,Aggravated Assault,30.19035961,-97.82905989,2017.0,1.0,2.0,12.0,23.0
2017-01-13 01:45:00,ARMED ROBBERY,False,2017-01-17 11:50:00,STREETS / HWY / ROAD / ALLEY,600 SAN JACINTO BLVD,78701.0,9.0,GE,2,381.0,11.0,False,2017-01-17 00:00:00,Robbery,30.26750487,-97.74042313,2017.0,1.0,2.0,13.0,1.0
2017-01-13 03:53:00,AGG ASLT STRANGLE/SUFFOCATE,True,2017-01-13 03:53:00,RESIDENCE / HOME,12217 DUNDEE DR,78759.0,10.0,AD,6,187.0,,False,2017-01-17 00:00:00,Aggravated Assault,30.43239217,-97.76840229,2017.0,1.0,2.0,13.0,3.0
2017-01-13 04:44:00,ARMED ROBBERY,False,2017-01-13 04:44:00,PARKING LOTS / GARAGE,2201 WILLOW CREEK DR,78741.0,3.0,HE,2,457.0,23.16,False,2017-04-27 00:00:00,Robbery,30.23039867,-97.72977637,2017.0,1.0,2.0,13.0,4.0
2017-01-13 12:28:00,AGG RAPE OF A CHILD,False,2017-01-13 12:28:00,HOTEL / MOTEL / ETC.,2100 BLOCK S LAKELINE BLVD,78613.0,,88,88,16.0,203.18,False,2017-05-12 00:00:00,Rape,,,2017.0,1.0,2.0,13.0,12.0
2017-01-13 13:50:00,AGGRAVATED ASSAULT,False,2017-01-13 16:37:00,RESIDENCE / HOME,6409 SPRINGDALE RD,78723.0,1.0,CH,4,324.0,21.0,True,2017-02-03 00:00:00,Aggravated Assault,30.30714138,-97.66939998,2017.0,1.0,2.0,13.0,13.0
2017-01-13 14:21:00,RAPE OF A CHILD,True,2017-01-13 14:21:00,RESIDENCE / HOME,6600 BLOCK ED BLUESTEIN BLVD SB,78723.0,1.0,CH,4,299,21.08,False,2017-07-09 00:00:00,Rape,,,2017.0,1.0,2.0,13.0,14.0
2017-01-13 21:00:00,AGGRAVATED ASSAULT,False,2017-01-13 22:27:00,RESIDENCE / HOME,807 E 14TH ST,78702.0,1.0,CH,3,391.0,8.0,True,2017-01-13 00:00:00,Aggravated Assault,30.27383738,-97.73085146,2017.0,1.0,2.0,13.0,21.0
2017-01-13 22:00:00,AGG ASLT STRANGLE/SUFFOCATE,True,2017-01-13 23:54:00,HOTEL / MOTEL / ETC.,6201 E US 290 HWY SVRD EB,78723.0,1.0,ID,5,292.0,21.0,True,2017-01-17 00:00:00,Aggravated Assault,30.32143685,-97.70278181,2017.0,1.0,2.0,13.0,22.0
2017-01-14 01:08:00,AGGRAVATED ASSAULT,False,2017-01-14 01:08:00,BAR / NIGHT CLUB,10401 ANDERSON MILL RD,78750.0,6.0,AD,8,179.0,17.14,True,2017-03-28 00:00:00,Aggravated Assault,30.44650265,-97.80562383,2017.0,1.0,2.0,14.0,1.0
2017-01-14 03:38:00,AGGRAVATED ASSAULT,False,2017-01-14 03:38:00,STREETS / HWY / ROAD / ALLEY,710 W 6TH ST,78701.0,9.0,GE,1,373.0,11.0,False,2017-05-25 00:00:00,Aggravated Assault,30.27025454,-97.75005784,2017.0,1.0,2.0,14.0,3.0
2017-01-14 04:38:00,AGGRAVATED ASSAULT,False,2017-01-14 04:38:00,STREETS / HWY / ROAD / ALLEY,1625 E PARMER LN,78753.0,1.0,ED,7,223.0,18.35,False,2017-01-24 00:00:00,Aggravated Assault,30.38674135,-97.64925411,2017.0,1.0,2.0,14.0,4.0
2017-01-14 04:58:00,AGG ASSAULT FAM/DATE VIOLENCE,True,2017-01-14 04:58:00,RESIDENCE / HOME,1705 FRONTIER VALLEY DR,78741.0,3.0,HE,5,444.0,,True,2017-01-14 00:00:00,Aggravated Assault,30.22478271,-97.69497855,2017.0,1.0,2.0,14.0,4.0
2017-01-14 07:01:00,ROBBERY BY ASSAULT,False,2017-01-14 07:01:00,PARKING LOTS / GARAGE,2900 CENTURY PARK BLVD,78727.0,7.0,AD,3,828.0,18.47,False,2017-04-03 00:00:00,Robbery,30.43524519,-97.69503812,2017.0,1.0,2.0,14.0,7.0
2017-01-14 13:21:00,RAPE OF A CHILD,True,2017-01-14 13:21:00,RESIDENCE / HOME,8500 BLOCK JAMESTOWN DR,78758.0,4.0,ED,2,249.0,18.0,False,2017-01-20 00:00:00,Rape,,,2017.0,1.0,2.0,14.0,13.0
2017-01-14 14:56:00,RAPE,False,2017-01-14 14:56:00,RESIDENCE / HOME,2300 BLOCK RIO GRANDE ST,78705.0,9.0,BA,1,359.0,6.0,True,2017-08-01 00:00:00,Rape,,,2017.0,1.0,2.0,14.0,14.0
2017-01-14 15:10:00,AGG ASLT STRANGLE/SUFFOCATE,True,2017-01-14 15:10:00,RESIDENCE / HOME,6103 MANOR RD,78723.0,1.0,ID,4,298.0,21.07,True,2017-01-23 00:00:00,Aggravated Assault,30.30755468,-97.67805181,2017.0,1.0,2.0,14.0,15.0
2017-01-14 21:09:00,RAPE OF A CHILD,False,2017-04-20 21:09:00,PARK / PLAYGROUND,2800 BLOCK LOYOLA LN,78723.0,1.0,ID,3,296.0,21.13,True,2017-08-28 00:00:00,Rape,,,2017.0,1.0,2.0,14.0,21.0
2017-01-14 23:34:00,AGGRAVATED ASSAULT,False,2017-01-14 23:34:00,SPECIALTY  STORE (TV  FUR ETC.),1715 HILLCREST LN,78721.0,1.0,CH,5,397.0,21.1,,,Aggravated Assault,30.27877288,-97.67610557,2017.0,1.0,2.0,14.0,23.0
2017-01-15 00:00:00,RAPE,True,2017-01-15 16:01:00,RESIDENCE / HOME,2300 BLOCK DURWOOD ST,78704.0,9.0,DA,1,476.0,13.0,True,2017-01-31 00:00:00,Rape,,,2017.0,1.0,2.0,15.0,0.0
2017-01-15 00:34:00,RAPE,True,2017-01-17 21:34:00,RESIDENCE / HOME,6100 BLOCK FAIRWAY ST,78741.0,3.0,HE,3,443.0,23.18,True,2017-01-27 00:00:00,Rape,,,2017.0,1.0,2.0,15.0,0.0
2017-01-15 00:56:00,SEXUAL ASSAULT W/ OBJECT,False,2017-01-15 00:56:00,BAR / NIGHT CLUB,300 BLOCK E 6TH ST,78701.0,9.0,GE,2,381.0,11.0,False,2017-01-31 00:00:00,Rape,,,2017.0,1.0,2.0,15.0,0.0
2017-01-15 01:44:00,AGG ASSAULT FAM/DATE VIOLENCE,True,2017-01-15 01:44:00,RESIDENCE / HOME,8917 EDMUNDSBURY DR,78747.0,2.0,FR,7,600.0,24.26,False,2017-02-16 00:00:00,Aggravated Assault,30.1478294,-97.74025676,2017.0,1.0,2.0,15.0,1.0
2017-01-15 06:26:00,AGGRAVATED ASSAULT,False,2017-01-15 06:26:00,RESIDENCE / HOME,8613 CAPITOL VIEW DR,78747.0,2.0,FR,7,600.0,,False,2017-01-24 00:00:00,Aggravated Assault,30.15168704,-97.74482438,2017.0,1.0,2.0,15.0,6.0
2017-01-15 12:31:00,AGG ASLT STRANGLE/SUFFOCATE,True,2017-01-15 13:57:00,RESIDENCE / HOME,6605 JOHNNY MORRIS CV,78724.0,1.0,CH,7,302.0,,True,2017-01-17 00:00:00,Aggravated Assault,30.30537521,-97.64409029,2017.0,1.0,2.0,15.0,12.0
2017-01-15 14:00:00,AGG ASLT STRANGLE/SUFFOCATE,True,2017-01-17 13:20:00,RESIDENCE / HOME,1109 ESTES AVE,78721.0,3.0,CH,5,397.0,21.1,True,2017-01-24 00:00:00,Aggravated Assault,30.26819702,-97.68444166,2017.0,1.0,2.0,15.0,14.0
2017-01-15 15:32:00,RAPE OF A CHILD,False,2017-02-23 15:32:00,RESIDENCE / HOME,700 BLOCK E 8TH ST,78701.0,9.0,GE,2,382.0,11.0,True,2017-05-26 00:00:00,Rape,,,2017.0,1.0,2.0,15.0,15.0
2017-01-15 16:19:00,RAPE OF A CHILD,False,2017-03-20 16:19:00,RESIDENCE / HOME,900 BLOCK E 32ND ST,78705.0,9.0,BA,1,348.0,4.0,True,2017-06-20 00:00:00,Rape,,,2017.0,1.0,2.0,15.0,16.0
2017-01-15 19:30:00,AGGRAVATED ASSAULT,False,2017-01-16 21:30:00,PARKING LOTS / GARAGE,1301 SHOAL CREEK BLVD,78701.0,9.0,BA,2,374.0,7.0,False,2017-02-21 00:00:00,Aggravated Assault,30.27804051,-97.74922839,2017.0,1.0,2.0,15.0,19.0
2017-01-15 20:00:00,AGGRAVATED ASSAULT,False,2017-01-18 10:59:00,STREETS / HWY / ROAD / ALLEY,1200 BLOCK WEBBERVILLE RD,78721.0,1.0,CH,4,396.0,,False,2017-03-21 00:00:00,Aggravated Assault,30.27826788,-97.68505893,2017.0,1.0,2.0,15.0,20.0
2017-01-15 22:56:00,AGGRAVATED ASSAULT,False,2017-01-15 22:56:00,PARKING LOTS / GARAGE,2424 S CONGRESS AVE,78704.0,3.0,DA,2,475.0,13.0,True,2017-01-16 00:00:00,Aggravated Assault,30.23778057,-97.75479405,2017.0,1.0,2.0,15.0,22.0
2017-01-15 23:43:00,AGGRAVATED ASSAULT,False,2017-01-15 23:43:00,OTHER / UNKNOWN,4400 E RIVERSIDE DR,78741.0,3.0,HE,3,442.0,23.18,True,2017-02-01 00:00:00,Aggravated Assault,30.23376292,-97.72223909,2017.0,1.0,2.0,15.0,23.0
2017-01-16 00:01:00,RAPE,False,2017-01-20 10:24:00,RESIDENCE / HOME,2700 BLOCK RIO GRANDE ST,78705.0,9.0,BA,3,356.0,,True,2017-05-08 00:00:00,Rape,,,2017.0,1.0,3.0,16.0,0.0
2017-01-16 00:14:00,AGGRAVATED ASSAULT,False,2017-01-16 00:14:00,RESIDENCE / HOME,2503 E OLTORF ST,78741.0,3.0,HE,2,483.0,23.13,False,2017-02-01 00:00:00,Aggravated Assault,30.22745335,-97.72857305,2017.0,1.0,3.0,16.0,0.0
2017-01-16 05:30:00,AGG RAPE,False,2017-01-16 21:59:00,OTHER / UNKNOWN,12700 BLOCK S IH 35 SVRD SB,78652.0,5.0,FR,7,546.0,24.0,True,2017-02-14 00:00:00,Rape,,,2017.0,1.0,3.0,16.0,5.0
2017-01-16 10:39:00,ROBBERY BY ASSAULT,False,2017-01-16 10:39:00,DEPARTMENT / DISCOUNT STORE,1508 MONTOPOLIS DR,78741.0,3.0,HE,3,443.0,23.18,True,2017-01-16 00:00:00,Robbery,30.22849052,-97.70141131,2017.0,1.0,3.0,16.0,10.0
2017-01-16 16:29:00,AGG ASLT STRANGLE/SUFFOCATE,True,2017-01-16 16:29:00,RESIDENCE / HOME,7213 THANNAS WAY,78744.0,2.0,FR,8,530.0,,True,2017-02-15 00:00:00,Aggravated Assault,30.17791342,-97.75856946,2017.0,1.0,3.0,16.0,16.0
2017-01-16 17:30:00,ARMED ROBBERY,False,2017-01-16 17:49:00,GAS / SERVICE STATIONS,1801 E STASSNEY LN,78744.0,2.0,FR,8,516.0,24.19,True,2017-02-15 00:00:00,Robbery,30.1968042,-97.76111504,2017.0,1.0,3.0,16.0,17.0
2017-01-16 19:30:00,FORCED SODOMY,False,2017-01-17 09:39:00,FIELD / WOODS,900 BLOCK BLOCK E ST JOHNS AVE,78752.0,4.0,ID,1,265.0,,True,2017-01-19 00:00:00,Rape,,,2017.0,1.0,3.0,16.0,19.0
2017-01-16 21:50:00,AGGRAVATED ASSAULT,False,2017-01-16 22:08:00,PARK / PLAYGROUND,1616 E 3RD ST,78702.0,3.0,CH,1,410.0,,False,2017-02-06 00:00:00,Aggravated Assault,30.2602435,-97.72711496,2017.0,1.0,3.0,16.0,21.0
2017-01-16 22:34:00,DEADLY CONDUCT,False,2017-01-16 22:34:00,COMMERCIAL / OFFICE BUILDING,4300 MANCHACA RD,78704.0,5.0,DA,4,467.0,,True,2017-01-17 00:00:00,Aggravated Assault,30.23099496,-97.7880417,2017.0,1.0,3.0,16.0,22.0
2017-01-16 23:24:00,AGGRAVATED ASSAULT,False,2017-01-16 23:24:00,HOTEL / MOTEL / ETC.,5330 N IH 35 SVRD SB,78751.0,4.0,ID,6,291.0,,False,2017-03-28 00:00:00,Aggravated Assault,30.31255268,-97.70919917,2017.0,1.0,3.0,16.0,23.0
2017-01-17 01:22:00,AGGRAVATED ASSAULT,False,2017-01-17 01:22:00,STREETS / HWY / ROAD / ALLEY,COLORADO ST / W 6TH ST,78701.0,9.0,GE,1,380.0,11.0,False,2017-01-18 00:00:00,Aggravated Assault,30.26841602,-97.74413436,2017.0,1.0,3.0,17.0,1.0
2017-01-17 04:00:00,AGG RAPE,False,2017-01-17 05:21:00,RESIDENCE / HOME,2900 BLOCK S 1ST ST,78704.0,3.0,DA,2,472,13.0,False,2017-03-07 00:00:00,Rape,,,2017.0,1.0,3.0,17.0,4.0
2017-01-17 09:00:00,RAPE OF A CHILD,False,2017-01-17 21:51:00,RESIDENCE / HOME,12300 BLOCK COPPERFIELD DR,78753.0,7.0,ED,6,206.0,18.39,False,2018-03-08 00:00:00,Rape,,,2017.0,1.0,3.0,17.0,9.0
2017-01-17 11:00:00,DEADLY CONDUCT,False,2017-01-17 12:16:00,STREETS / HWY / ROAD / ALLEY,2301 DURWOOD ST,78704.0,9.0,DA,1,476.0,13.0,False,2017-01-24 00:00:00,Aggravated Assault,30.24184309,-97.7575428,2017.0,1.0,3.0,17.0,11.0
2017-01-17 16:30:00,RAPE OF A CHILD,False,2017-01-18 18:51:00,PARKING LOTS / GARAGE,00 BLOCK RUNDBERG LN / N IH 35 SVRD SB,78753.0,4.0,ED,1,240.0,18.23,False,2017-04-26 00:00:00,Rape,,,2017.0,1.0,3.0,17.0,16.0
2017-01-18 00:00:00,AGG ASLT STRANGLE/SUFFOCATE,True,2017-01-18 00:02:00,RESIDENCE / HOME,10320 BOULDER LN,78726.0,6.0,AD,8,178.0,17.14,True,2017-01-18 00:00:00,Aggravated Assault,30.42818784,-97.83863491,2017.0,1.0,3.0,18.0,0.0
2017-01-18 00:42:00,AGG ASSAULT FAM/DATE VIOLENCE,True,2017-01-18 01:57:00,PARKING LOTS / GARAGE,1054 SPRINGDALE RD,78721.0,1.0,CH,4,425.0,21.11,True,2017-01-18 00:00:00,Aggravated Assault,30.27185395,-97.69305203,2017.0,1.0,3.0,18.0,0.0
2017-01-18 04:44:00,AGGRAVATED ASSAULT,False,2017-01-18 04:44:00,DRUG STORE / DR. OFFICE / HOSPITAL,DECKER LN / LOYOLA LN,78724.0,1.0,CH,6,303.0,22.0,False,2017-02-10 00:00:00,Aggravated Assault,30.29122388,-97.62799126,2017.0,1.0,3.0,18.0,4.0
2017-01-18 07:00:00,AGGRAVATED ASSAULT,False,2017-01-18 15:27:00,COMMUNITY CENTER,1000 E 41ST ST,78751.0,9.0,BA,5,332.0,3.0,False,2017-02-23 00:00:00,Aggravated Assault,30.30046112,-97.71965166,2017.0,1.0,3.0,18.0,7.0
2017-01-18 12:15:00,TAKE WEAPON FRM POLICE OFFICER,False,2017-01-18 12:46:00,DEPARTMENT / DISCOUNT STORE,1000 E 41ST ST,78751.0,9.0,BA,5,332.0,3.0,True,2017-01-18 00:00:00,Aggravated Assault,30.30046112,-97.71965166,2017.0,1.0,3.0,18.0,12.0
2017-01-18 16:00:00,AGG ASLT STRANGLE/SUFFOCATE,True,2017-01-19 08:51:00,RESIDENCE / HOME,12312 LAGUARDIA LN,78617.0,2.0,HE,7,609.0,24.35,True,2017-01-20 00:00:00,Aggravated Assault,30.17187659,-97.62906277,2017.0,1.0,3.0,18.0,16.0
2017-01-18 17:04:00,AGGRAVATED ASSAULT,False,2017-01-19 06:52:00,STREETS / HWY / ROAD / ALLEY,12500 N IH 35 SVRD NB,78753.0,7.0,ED,6,206.0,18.39,True,2017-01-30 00:00:00,Aggravated Assault,30.4067542,-97.67439612,2017.0,1.0,3.0,18.0,17.0
2017-01-18 18:41:00,AGGRAVATED ASSAULT,False,2017-01-18 18:41:00,STREETS / HWY / ROAD / ALLEY,7900 THAXTON RD,78747.0,2.0,FR,7,600.0,,True,2017-01-18 00:00:00,Aggravated Assault,30.15825967,-97.74574658,2017.0,1.0,3.0,18.0,18.0
2017-01-18 19:45:00,SEXUAL ASSAULT OF CHILD/OBJECT,False,2017-01-18 22:57:00,RESIDENCE / HOME,1500 BLOCK CRESTWOOD RD,78722.0,9.0,CH,3,333.0,,False,2017-01-24 00:00:00,Rape,,,2017.0,1.0,3.0,18.0,19.0
2017-01-18 20:50:00,MURDER,False,2017-01-18 20:50:00,PARKING LOTS / GARAGE,1701 E RIVERSIDE DR,78741.0,9.0,HE,1,456.0,14.0,True,2017-01-23 00:00:00,Murder,30.24437848,-97.73058102,2017.0,1.0,3.0,18.0,20.0
2017-01-18 21:00:00,AGG ASLT STRANGLE/SUFFOCATE,True,2017-01-18 22:04:00,RESIDENCE / HOME,3111 PARKER LN,78741.0,3.0,HE,2,482.0,,True,2017-01-19 00:00:00,Aggravated Assault,30.22356137,-97.74198286,2017.0,1.0,3.0,18.0,21.0
2017-01-18 22:00:00,RAPE,False,2017-01-20 03:03:00,RESIDENCE / HOME,2300 BLOCK TOWN LAKE CIR,78741.0,3.0,HE,2,441.0,,True,2017-08-09 00:00:00,Rape,,,2017.0,1.0,3.0,18.0,22.0
2017-01-19 01:55:00,AGGRAVATED ASSAULT,False,2017-01-19 01:55:00,PARKING LOTS / GARAGE,863 AIRPORT BLVD,78721.0,3.0,CH,5,428.0,21.11,False,2017-01-30 00:00:00,Aggravated Assault,30.25926124,-97.69324431,2017.0,1.0,3.0,19.0,1.0
2017-01-19 14:51:00,AGG ASSAULT FAM/DATE VIOLENCE,True,2017-01-19 16:19:00,RESIDENCE / HOME,1300 GREENWOOD AVE,78721.0,1.0,CH,4,395.0,21.0,False,2017-01-27 00:00:00,Aggravated Assault,30.27838559,-97.69650176,2017.0,1.0,3.0,19.0,14.0
2017-01-19 18:55:00,ROBBERY BY ASSAULT,False,2017-01-19 21:07:00,STREETS / HWY / ROAD / ALLEY,BUNDYHILL DR / BUNDYHILL CIR,78723.0,1.0,CH,4,324.0,21.08,False,2017-01-31 00:00:00,Robbery,30.2873528,-97.67737157,2017.0,1.0,3.0,19.0,18.0
2017-01-19 20:56:00,AGG ASSAULT FAM/DATE VIOLENCE,True,2017-01-19 20:56:00,RESIDENCE / HOME,10000 ROCKING HORSE RD,78748.0,5.0,FR,1,100.0,17.48,True,2017-02-01 00:00:00,Aggravated Assault,30.18126025,-97.84605448,2017.0,1.0,3.0,19.0,20.0
2017-01-19 23:30:00,AGG ASSAULT FAM/DATE VIOLENCE,True,2017-01-21 01:50:00,RESIDENCE / HOME,701 W LONGSPUR BLVD,78753.0,4.0,ED,1,240.0,18.23,True,2017-01-31 00:00:00,Aggravated Assault,30.36652912,-97.69300709,2017.0,1.0,3.0,19.0,23.0
2017-01-20 01:06:00,DEADLY CONDUCT,False,2017-01-20 01:46:00,PARKING LOTS / GARAGE,8900 N IH 35 SVRD SB,78753.0,4.0,ED,1,250.0,18.0,,,Aggravated Assault,30.35353289,-97.69270637,2017.0,1.0,3.0,20.0,1.0
2017-01-20 01:49:00,AGG ASSAULT FAM/DATE VIOLENCE,True,2017-01-20 01:49:00,RESIDENCE / HOME,711 GREAT BRITAIN BLVD,78748.0,2.0,FR,3,536.0,24.23,True,2017-01-20 00:00:00,Aggravated Assault,30.17955126,-97.7990233,2017.0,1.0,3.0,20.0,1.0
2017-01-20 16:10:00,AGG ASLT STRANGLE/SUFFOCATE,True,2017-01-20 17:38:00,RESIDENCE / HOME,12500 LAMPLIGHT VILLAGE AVE,78727.0,7.0,AD,3,828.0,,True,2017-01-20 00:00:00,Aggravated Assault,30.41631418,-97.69596881,2017.0,1.0,3.0,20.0,16.0
2017-01-20 18:15:00,AGG ASSAULT FAM/DATE VIOLENCE,True,2017-01-20 18:15:00,RESIDENCE / HOME,6118 FAIRWAY ST,78741.0,3.0,HE,3,443.0,23.18,False,2017-01-31 00:00:00,Aggravated Assault,30.22900387,-97.70310447,2017.0,1.0,3.0,20.0,18.0
2017-01-20 18:18:00,RAPE,False,2017-01-20 21:07:00,RESIDENCE / HOME,1200 BLOCK MEARNS MEADOW BLVD,78758.0,4.0,ED,1,239.0,18.22,False,2017-03-29 00:00:00,Rape,,,2017.0,1.0,3.0,20.0,18.0
2017-01-20 18:19:00,AGG ASLT STRANGLE/SUFFOCATE,True,2017-01-20 18:19:00,OTHER / UNKNOWN,1906 S 1ST ST,78704.0,9.0,DA,1,471.0,,False,2017-01-25 00:00:00,Aggravated Assault,30.24602566,-97.7569624,2017.0,1.0,3.0,20.0,18.0
2017-01-20 19:12:00,AGGRAVATED ASSAULT,False,2017-01-20 19:12:00,RESIDENCE / HOME,5605 BERKMAN DR,78723.0,4.0,ID,4,295.0,21.0,False,2017-01-20 00:00:00,Aggravated Assault,30.31102666,-97.69408191,2017.0,1.0,3.0,20.0,19.0
2017-01-20 19:37:00,AGG ASLT STRANGLE/SUFFOCATE,True,2017-01-20 19:37:00,RESIDENCE / HOME,709 LAMAR PL,78752.0,4.0,ID,6,278.0,15.03,True,2017-01-24 00:00:00,Aggravated Assault,30.33096528,-97.72207832,2017.0,1.0,3.0,20.0,19.0
2017-01-20 20:00:00,AGG ASLT STRANGLE/SUFFOCATE,True,2017-01-21 00:48:00,RESIDENCE / HOME,9520 SPECTRUM DR,78717.0,6.0,AD,5,574.0,205.08,False,2017-01-31 00:00:00,Aggravated Assault,30.48156935,-97.76914426,2017.0,1.0,3.0,20.0,20.0
2017-01-20 21:00:00,AGGRAVATED ASSAULT,False,2017-01-20 22:16:00,STREETS / HWY / ROAD / ALLEY,753 MONTOPOLIS DR,78741.0,3.0,HE,5,444.0,23.12,False,2017-01-26 00:00:00,Aggravated Assault,30.23636375,-97.69574545,2017.0,1.0,3.0,20.0,21.0
2017-01-21 01:19:00,RAPE,False,2017-01-21 01:19:00,DRUG STORE / DR. OFFICE / HOSPITAL,4800 BLOCK MANOR RD,78723.0,9.0,BA,4,900.0,3.0,False,2017-02-03 00:00:00,Rape,,,2017.0,1.0,3.0,21.0,1.0
2017-01-21 01:41:00,ARMED ROBBERY,False,2017-01-21 02:54:00,RESIDENCE / HOME,2800 LYONS RD,78702.0,3.0,CH,2,423.0,8.0,,,Robbery,30.2640271,-97.7075398,2017.0,1.0,3.0,21.0,1.0
2017-01-21 02:40:00,AGG ASSAULT FAM/DATE VIOLENCE,True,2017-01-21 03:44:00,RESIDENCE / HOME,1173 HARVEY ST,78702.0,1.0,CH,2,415.0,8.02,True,2017-01-26 00:00:00,Aggravated Assault,30.27529193,-97.70241366,2017.0,1.0,3.0,21.0,2.0
2017-01-21 03:08:00,AGG ASLT STRANGLE/SUFFOCATE,True,2017-01-21 03:08:00,RESIDENCE / HOME,5910 ALSACE TRL,78724.0,1.0,CH,6,303.0,22.08,True,2017-01-27 00:00:00,Aggravated Assault,30.29024105,-97.64611881,2017.0,1.0,3.0,21.0,3.0
2017-01-21 15:30:00,ROBBERY BY ASSAULT,False,2017-01-21 17:23:00,STREETS / HWY / ROAD / ALLEY,1118 DESIRABLE DR,78721.0,3.0,CH,5,428.0,21.11,True,2017-05-24 00:00:00,Robbery,30.26392465,-97.68585476,2017.0,1.0,3.0,21.0,15.0
2017-01-21 16:00:00,AGG ASSAULT FAM/DATE VIOLENCE,True,2017-01-23 07:59:00,RESIDENCE / HOME,3201 NORWOOD HILL RD,78723.0,1.0,ID,4,298.0,,True,2017-02-06 00:00:00,Aggravated Assault,30.29798029,-97.67949747,2017.0,1.0,3.0,21.0,16.0
2017-01-21 16:30:00,AGGRAVATED ASSAULT,False,2017-01-21 16:43:00,STREETS / HWY / ROAD / ALLEY,1111 MONTOPOLIS DR,78741.0,3.0,HE,5,444.0,23.12,False,2017-04-04 00:00:00,Aggravated Assault,30.23232221,-97.69808883,2017.0,1.0,3.0,21.0,16.0
2017-01-21 17:17:00,AGG ASSAULT WITH MOTOR VEH,False,2017-01-21 17:17:00,PARKING LOTS / GARAGE,1319 MC KIE DR,78752.0,4.0,ID,1,265.0,18.12,False,2017-03-06 00:00:00,Aggravated Assault,30.32925333,-97.69127515,2017.0,1.0,3.0,21.0,17.0
2017-01-21 19:00:00,AGGRAVATED ASSAULT,False,2017-01-23 18:06:00,STREETS / HWY / ROAD / ALLEY,15000 N IH 35 SVRD SB,78728.0,7.0,ED,6,172.0,,False,2017-01-29 00:00:00,Aggravated Assault,30.44318467,-97.66849929,2017.0,1.0,3.0,21.0,19.0
2017-01-21 19:30:00,RAPE OF A CHILD,False,2017-01-26 15:45:00,RESIDENCE / HOME,2400 BLOCK E STASSNEY LN,78744.0,2.0,FR,5,493.0,,True,2017-04-21 00:00:00,Rape,,,2017.0,1.0,3.0,21.0,19.0
2017-01-21 21:00:00,RAPE,False,2017-01-27 16:11:00,RESIDENCE / HOME,1000 BLOCK E 40TH ST,78751.0,9.0,BA,5,332.0,3.0,False,2017-02-21 00:00:00,Rape,,,2017.0,1.0,3.0,21.0,21.0
2017-01-21 22:00:00,AGGRAVATED ASSAULT,False,2017-01-21 22:19:00,RESIDENCE / HOME,12440 ALAMEDA TRACE CIR,78727.0,6.0,AD,3,183.0,,False,2017-01-22 00:00:00,Aggravated Assault,30.42948175,-97.74372078,2017.0,1.0,3.0,21.0,22.0
2017-01-22 00:03:00,AGG ASLT STRANGLE/SUFFOCATE,True,2017-01-22 00:03:00,RESIDENCE / HOME,2620 GWENDOLYN LN,78748.0,5.0,FR,1,100.0,17.48,False,2017-01-24 00:00:00,Aggravated Assault,30.17504905,-97.83624964,2017.0,1.0,3.0,22.0,0.0
2017-01-22 00:29:00,AGG ASSAULT FAM/DATE VIOLENCE,True,2017-01-22 03:46:00,RESIDENCE / HOME,5603 MANOR RD,78723.0,1.0,ID,4,298.0,21.0,True,2017-02-01 00:00:00,Aggravated Assault,30.30357658,-97.68198713,2017.0,1.0,3.0,22.0,0.0
2017-01-22 00:36:00,AGG ASLT STRANGLE/SUFFOCATE,True,2017-01-22 04:33:00,RESIDENCE / HOME,11006 PRAIRIE DOVE CIR,78758.0,4.0,ED,4,2212.0,,True,2017-01-22 00:00:00,Aggravated Assault,30.38715121,-97.70639173,2017.0,1.0,3.0,22.0,0.0
2017-01-22 01:44:00,ARMED ROBBERY,False,2017-01-22 03:37:00,PARKING LOTS / GARAGE,12820 N LAMAR BLVD,78753.0,7.0,ED,4,193.0,18.48,False,2017-02-08 00:00:00,Robbery,30.41431827,-97.67840489,2017.0,1.0,3.0,22.0,1.0
2017-01-22 03:10:00,ARMED ROBBERY,False,2017-01-22 05:12:00,CONVENIENCE STORE,8900 N LAMAR BLVD,78758.0,4.0,ED,1,237.0,18.19,,,Robbery,30.35828676,-97.70039084,2017.0,1.0,3.0,22.0,3.0
2017-01-22 04:00:00,ROBBERY BY ASSAULT,False,2017-01-22 08:26:00,STREETS / HWY / ROAD / ALLEY,919 E 32ND ST,78705.0,9.0,BA,1,348.0,4.0,False,2017-01-24 00:00:00,Robbery,30.29067402,-97.72674331,2017.0,1.0,3.0,22.0,4.0
2017-01-22 07:57:00,AGGRAVATED ASSAULT,False,2017-01-22 08:04:00,HOTEL / MOTEL / ETC.,12401 N LAMAR BLVD,78753.0,7.0,ED,4,205.0,18.26,False,2017-06-06 00:00:00,Aggravated Assault,30.40652653,-97.67748032,2017.0,1.0,3.0,22.0,7.0
2017-01-22 09:30:00,SEXUAL ASSAULT OF CHILD/OBJECT,False,2017-09-01 09:30:00,RESIDENCE / HOME,11300 BLOCK ROCKWELL CT,78726.0,6.0,AD,8,178.0,17.14,True,2017-11-09 00:00:00,Rape,,,2017.0,1.0,3.0,22.0,9.0
2017-01-22 10:20:00,AGGRAVATED ASSAULT,False,2017-01-22 10:24:00,PARKING LOTS / GARAGE,8912 N LAMAR BLVD,78758.0,4.0,ED,1,237.0,,True,2017-03-15 00:00:00,Aggravated Assault,30.35850639,-97.69996937,2017.0,1.0,3.0,22.0,10.0
2017-01-22 20:06:00,AGG ASLT STRANGLE/SUFFOCATE,True,2017-01-22 21:53:00,HOTEL / MOTEL / ETC.,6603 N IH 35 SVRD NB,78752.0,4.0,ID,1,280.0,,True,2017-01-27 00:00:00,Aggravated Assault,30.3268287,-97.70297087,2017.0,1.0,3.0,22.0,20.0
2017-01-22 21:22:00,AGG ASLT STRANGLE/SUFFOCATE,True,2017-01-22 23:23:00,RESIDENCE / HOME,4501 E RIVERSIDE DR,78741.0,3.0,HE,4,458.0,,True,2017-01-25 00:00:00,Aggravated Assault,30.23258831,-97.72209348,2017.0,1.0,3.0,22.0,21.0
2017-01-23 07:14:00,ROBBERY BY THREAT,False,2017-01-23 07:14:00,DEPARTMENT / DISCOUNT STORE,9307 N LAMAR BLVD,78753.0,4.0,ED,1,250.0,18.0,True,2017-01-23 00:00:00,Robbery,30.36202642,-97.69713614,2017.0,1.0,4.0,23.0,7.0
2017-01-23 07:22:00,AGGRAVATED ASSAULT,False,2017-01-23 08:30:00,HOTEL / MOTEL / ETC.,2700 S IH 35 SVRD SB,78704.0,9.0,DA,2,479.0,23.0,False,2017-02-21 00:00:00,Aggravated Assault,30.22962946,-97.74447421,2017.0,1.0,4.0,23.0,7.0
2017-01-23 11:49:00,ROBBERY BY ASSAULT,False,2017-01-23 11:49:00,OTHER / UNKNOWN,2805 ROGGE LN,78723.0,1.0,ID,4,295.0,21.0,True,2017-01-25 00:00:00,Robbery,30.30462978,-97.68224347,2017.0,1.0,4.0,23.0,11.0
2017-01-23 16:14:00,ROBBERY BY ASSAULT,False,2017-01-23 16:47:00,RESTAURANTS,1605 E PARMER LN,78753.0,1.0,ED,7,223.0,18.35,False,2017-02-21 00:00:00,Robbery,30.38769452,-97.65064251,2017.0,1.0,4.0,23.0,16.0
2017-01-23 20:00:00,AGG ASSAULT FAM/DATE VIOLENCE,True,2017-01-23 20:00:00,RESIDENCE / HOME,6934 E BEN WHITE BLVD SVRD WB,78741.0,3.0,HE,5,459.0,,True,2017-02-08 00:00:00,Aggravated Assault,30.21566282,-97.70355009,2017.0,1.0,4.0,23.0,20.0
2017-01-23 20:45:00,RAPE OF A CHILD,False,2017-01-25 17:49:00,CONSTRUCTION SITE,800 BLOCK S CENTER ST,,,,,,,False,2017-03-07 00:00:00,Rape,,,2017.0,1.0,4.0,23.0,20.0
2017-01-23 23:30:00,AGGRAVATED ASSAULT,False,2017-04-14 16:12:00,RESIDENCE / HOME,4700 E RIVERSIDE DR,78741.0,3.0,HE,3,442.0,23.18,False,2017-08-10 00:00:00,Aggravated Assault,30.23289806,-97.71880686,2017.0,1.0,4.0,23.0,23.0
2017-01-24 01:00:00,ARMED ROBBERY,False,2017-01-24 04:49:00,RESIDENCE / HOME,1215 W SLAUGHTER LN,78748.0,5.0,FR,2,542.0,24.21,True,2017-03-16 00:00:00,Robbery,30.17309049,-97.81433268,2017.0,1.0,4.0,24.0,1.0
2017-01-24 03:44:00,AGG ASLT STRANGLE/SUFFOCATE,True,2017-01-24 03:44:00,RESIDENCE / HOME,212 W LOLA DR,78753.0,4.0,ED,1,592.0,18.04,True,2017-01-25 00:00:00,Aggravated Assault,30.34797024,-97.70508987,2017.0,1.0,4.0,24.0,3.0
2017-01-24 04:20:00,AGG ASLT STRANGLE/SUFFOCATE,True,2017-01-24 04:20:00,OTHER / UNKNOWN,6911 N IH 35 SVRD NB,78752.0,4.0,ID,1,265.0,18.12,True,2017-01-30 00:00:00,Aggravated Assault,30.32979046,-97.70496368,2017.0,1.0,4.0,24.0,4.0
2017-01-24 05:11:00,AGG ASLT ENHANC STRANGL/SUFFOC,True,2017-01-24 05:11:00,RESIDENCE / HOME,6307 BLUFF SPRINGS RD,78744.0,2.0,FR,8,516.0,24.19,True,2017-01-24 00:00:00,Aggravated Assault,30.19139271,-97.76555536,2017.0,1.0,4.0,24.0,5.0
2017-01-24 08:17:00,RAPE OF A CHILD,False,2017-01-24 08:17:00,OTHER / UNKNOWN,1000 BLOCK W STASSNEY LN,78745.0,2.0,FR,4,512.0,,True,2017-06-30 00:00:00,Rape,,,2017.0,1.0,4.0,24.0,8.0
2017-01-24 15:30:00,AGGRAVATED ASSAULT,False,2017-01-24 15:30:00,PARK / PLAYGROUND,2205 S CONGRESS AVE,78704.0,9.0,HE,1,478.0,,False,2017-02-01 00:00:00,Aggravated Assault,30.24139619,-97.75241998,2017.0,1.0,4.0,24.0,15.0
2017-01-24 17:07:00,AGGRAVATED ASSAULT,False,2017-01-24 17:07:00,PARKING LOTS / GARAGE,907 THOMPSON ST,78702.0,1.0,CH,2,416.0,8.0,False,2017-05-01 00:00:00,Aggravated Assault,30.27070373,-97.7088221,2017.0,1.0,4.0,24.0,17.0
2017-01-24 17:40:00,ROBBERY BY THREAT,False,2017-01-25 09:15:00,BANKS / SAVINGS & LOAN,13860 N US 183 HWY SVRD SB,78750.0,6.0,AD,6,152.0,204.0,True,2017-08-28 00:00:00,Robbery,30.466939,-97.79774701,2017.0,1.0,4.0,24.0,17.0
2017-01-24 18:23:00,AGG ASSAULT FAM/DATE VIOLENCE,True,2017-01-24 19:17:00,RESIDENCE / HOME,4411 AIRPORT BLVD,78722.0,9.0,BA,4,322.0,3.07,True,2017-01-24 00:00:00,Aggravated Assault,30.30116648,-97.71338205,2017.0,1.0,4.0,24.0,18.0
2017-01-24 19:03:00,ROBBERY BY THREAT,False,2017-01-24 19:03:00,BANKS / SAVINGS & LOAN,12858 N US 183 HWY SB,78750.0,6.0,AD,6,187.0,204.05,True,2017-01-30 00:00:00,Robbery,30.43511383,-97.77178634,2017.0,1.0,4.0,24.0,19.0
2017-01-25 01:04:00,AGGRAVATED ASSAULT,False,2017-01-25 01:04:00,OTHER / UNKNOWN,8500 SHOAL CREEK BLVD,78757.0,7.0,BA,6,232.0,18.17,True,2017-02-14 00:00:00,Aggravated Assault,30.37003781,-97.73811364,2017.0,1.0,4.0,25.0,1.0
2017-01-25 03:30:00,ARMED ROBBERY,False,2017-01-30 20:05:00,RESIDENCE / HOME,3309 BLUMIE ST,78745.0,5.0,FR,1,98,17.29,True,2017-03-02 00:00:00,Robbery,30.20304906,-97.83284402,2017.0,1.0,4.0,25.0,3.0
2017-01-25 13:24:00,AGGRAVATED ASSAULT,False,2017-01-25 13:24:00,STREETS / HWY / ROAD / ALLEY,700 RED RIVER ST,78701.0,9.0,GE,2,382.0,11.0,False,2017-02-23 00:00:00,Aggravated Assault,30.26751257,-97.73686469,2017.0,1.0,4.0,25.0,13.0
2017-01-25 15:53:00,ROBBERY BY ASSAULT,False,2017-01-25 18:07:00,CONVENIENCE STORE,512 NECHES ST,78701.0,9.0,GE,2,382.0,11.0,True,2017-01-25 00:00:00,Robbery,30.2665832,-97.7385056,2017.0,1.0,4.0,25.0,15.0
2017-01-25 17:22:00,AGG ASSAULT FAM/DATE VIOLENCE,True,2017-01-25 17:23:00,RESIDENCE / HOME,3307 CHINA GROVE,78745.0,5.0,FR,1,98.0,,True,2017-02-01 00:00:00,Aggravated Assault,30.19995502,-97.83369033,2017.0,1.0,4.0,25.0,17.0
2017-01-25 18:09:00,AGG ASLT STRANGLE/SUFFOCATE,True,2017-01-25 18:09:00,RESIDENCE / HOME,8604 FURNESS DR,78753.0,4.0,ED,3,251.0,18.13,True,2017-01-25 00:00:00,Aggravated Assault,30.34600164,-97.68706816,2017.0,1.0,4.0,25.0,18.0
2017-01-25 18:53:00,AGG ASSAULT FAM/DATE VIOLENCE,True,2017-01-25 18:53:00,RESIDENCE / HOME,1806 VICTORIA DR,78721.0,1.0,CH,4,395.0,,True,2017-02-16 00:00:00,Aggravated Assault,30.28435419,-97.68997518,2017.0,1.0,4.0,25.0,18.0
2017-01-25 21:00:00,ARMED ROBBERY,False,2017-01-25 22:30:00,STREETS / HWY / ROAD / ALLEY,900 W 9TH ST,78701.0,9.0,GE,1,373.0,11.0,False,2017-04-27 00:00:00,Robbery,30.27373748,-97.75133669,2017.0,1.0,4.0,25.0,21.0
2017-01-25 21:52:00,AGGRAVATED ASSAULT,False,2017-01-25 21:52:00,RESIDENCE / HOME,5935 CHERRY LOOP,78745.0,2.0,FR,4,512.0,24.1,False,2017-02-02 00:00:00,Aggravated Assault,30.20712465,-97.78898728,2017.0,1.0,4.0,25.0,21.0
2017-01-25 22:00:00,ARMED ROBBERY,False,2017-01-25 22:15:00,RESIDENCE / HOME,2207 WICKERSHAM LN,78741.0,3.0,HE,4,458.0,23.14,False,2017-02-07 00:00:00,Robbery,30.22899132,-97.72063244,2017.0,1.0,4.0,25.0,22.0
2017-01-25 22:11:00,AGG ASLT STRANGLE/SUFFOCATE,True,2017-01-25 22:11:00,RESIDENCE / HOME,115 SANDRA MURAIDA WAY,78703.0,9.0,GE,1,403.0,12.0,True,2017-01-26 00:00:00,Aggravated Assault,30.26785073,-97.7551094,2017.0,1.0,4.0,25.0,22.0
2017-01-25 23:36:00,RAPE OF A CHILD,True,2017-01-25 23:36:00,RESIDENCE / HOME,1200 BLOCK WESTHEIMER DR,78752.0,4.0,ID,1,265.0,18.12,False,2017-05-25 00:00:00,Rape,,,2017.0,1.0,4.0,25.0,23.0
2017-01-26 00:08:00,AGG ASLT STRANGLE/SUFFOCATE,True,2017-01-26 00:08:00,RESIDENCE / HOME,12707 POND WOODS RD,78729.0,6.0,AD,5,163,204.08,True,2017-01-30 00:00:00,Aggravated Assault,30.45803818,-97.78964438,2017.0,1.0,4.0,26.0,0.0
2017-01-26 01:30:00,AGG ASLT STRANGLE/SUFFOCATE,True,2017-01-26 01:30:00,STREETS / HWY / ROAD / ALLEY,6121 N IH 35 SVRD NB,78752.0,4.0,ID,1,280.0,18.12,True,2017-01-30 00:00:00,Aggravated Assault,30.32368743,-97.70496507,2017.0,1.0,4.0,26.0,1.0
2017-01-26 01:43:00,AGG ASLT STRANGLE/SUFFOCATE,True,2017-01-26 01:43:00,RESIDENCE / HOME,11511 METRIC BLVD,78758.0,7.0,ED,4,2211.0,,True,2017-01-26 00:00:00,Aggravated Assault,30.39472708,-97.70618849,2017.0,1.0,4.0,26.0,1.0
2017-01-26 02:15:00,AGGRAVATED ASSAULT,False,2017-01-26 02:20:00,STREETS / HWY / ROAD / ALLEY,10200 RESEARCH BLVD NB,78759.0,10.0,AD,1,215.0,17.53,False,2017-01-27 00:00:00,Aggravated Assault,30.39443803,-97.74637525,2017.0,1.0,4.0,26.0,2.0
2017-01-26 07:33:00,ARMED ROBBERY,False,2017-01-26 07:33:00,STREETS / HWY / ROAD / ALLEY,9111 S 1ST ST,78748.0,5.0,FR,2,542.0,24.21,True,2017-03-16 00:00:00,Robbery,30.17145549,-97.80018837,2017.0,1.0,4.0,26.0,7.0
2017-01-26 11:50:00,ROBBERY BY THREAT,False,2017-01-26 11:50:00,BANKS / SAVINGS & LOAN,6600 S MOPAC EXPY SVRD SB,78749.0,8.0,DA,6,80.0,17.49,True,2017-04-19 00:00:00,Robbery,30.22175097,-97.83622987,2017.0,1.0,4.0,26.0,11.0
2017-01-26 11:58:00,ROBBERY BY ASSAULT,False,2017-01-26 11:58:00,RESIDENCE / HOME,6201 SNEED CV,78744.0,2.0,FR,8,516.0,24.19,True,2017-03-09 00:00:00,Robbery,30.19394123,-97.76344868,2017.0,1.0,4.0,26.0,11.0
2017-01-26 21:35:00,ARMED ROBBERY,False,2017-01-26 21:40:00,PARKING LOTS / GARAGE,8312 N IH 35 SVRD SB,78753.0,4.0,ED,1,250.0,18.0,False,2017-01-31 00:00:00,Robbery,30.34664576,-97.69657342,2017.0,1.0,4.0,26.0,21.0
2017-01-26 22:58:00,AGGRAVATED ASSAULT,True,2017-01-26 22:58:00,RESIDENCE / HOME,5213 PARK AT WOODLANDS DR,78724.0,1.0,CH,6,303.0,,True,2017-02-10 00:00:00,Aggravated Assault,30.27456309,-97.63234948,2017.0,1.0,4.0,26.0,22.0
2017-01-27 04:52:00,RAPE,True,2017-01-27 04:52:00,RESIDENCE / HOME,4600 BLOCK SARA DR,78721.0,3.0,CH,5,397.0,,True,2017-03-15 00:00:00,Rape,,,2017.0,1.0,4.0,27.0,4.0
2017-01-27 08:34:00,DEADLY CONDUCT,True,2017-01-27 08:34:00,STREETS / HWY / ROAD / ALLEY,8900 S IH 35 SVRD SB,78745.0,2.0,FR,3,538.0,24.22,True,2017-01-27 00:00:00,Aggravated Assault,30.16849817,-97.7857375,2017.0,1.0,4.0,27.0,8.0
2017-01-27 14:42:00,ROBBERY BY ASSAULT,False,2017-01-27 14:42:00,TRANSPORTATION (AIR / BUS / TRAIN - TERMINALS),5707 MANOR RD,78723.0,1.0,ID,4,298.0,21.0,False,2017-07-03 00:00:00,Robbery,30.30512792,-97.68053078,2017.0,1.0,4.0,27.0,14.0
2017-01-27 19:12:00,ROBBERY BY ASSAULT,False,2017-01-27 19:12:00,BAR / NIGHT CLUB,9601 N IH 35 SVRD NB,78753.0,4.0,ED,7,241.0,18.33,False,2017-01-31 00:00:00,Robbery,30.3603907,-97.68595659,2017.0,1.0,4.0,27.0,19.0
2017-01-27 19:32:00,AGGRAVATED ASSAULT,False,2017-01-27 19:32:00,CAMP / CAMPGROUND,6607 S IH 35 SVRD NB,78744.0,2.0,FR,8,529.0,24.27,False,2017-02-07 00:00:00,Aggravated Assault,30.18875113,-97.76892127,2017.0,1.0,4.0,27.0,19.0
2017-01-27 21:00:00,DEADLY CONDUCT,False,2017-01-28 13:11:00,RESIDENCE / HOME,2959 COHOBA DR,78748.0,5.0,FR,1,535.0,,False,2017-02-15 00:00:00,Aggravated Assault,30.18680498,-97.83603447,2017.0,1.0,4.0,27.0,21.0
2017-01-27 22:50:00,AGG ASSAULT FAM/DATE VIOLENCE,True,2017-01-27 22:50:00,RESIDENCE / HOME,1700 TERI RD,78744.0,2.0,FR,5,493.0,24.11,True,2017-02-07 00:00:00,Aggravated Assault,30.20524259,-97.75566571,2017.0,1.0,4.0,27.0,22.0
2017-01-28 01:34:00,DEADLY CONDUCT,False,2017-01-28 01:34:00,STREETS / HWY / ROAD / ALLEY,7007 STONLEIGH PL,78744.0,2.0,FR,8,530.0,24.27,False,2017-01-31 00:00:00,Aggravated Assault,30.18076626,-97.7621656,2017.0,1.0,4.0,28.0,1.0
2017-01-28 05:23:00,DEADLY CONDUCT,False,2017-01-28 05:23:00,RESIDENCE / HOME,2102 PONCIANA LOOP,78744.0,2.0,FR,5,493.0,24.11,True,2017-02-23 00:00:00,Aggravated Assault,30.1997727,-97.75295884,2017.0,1.0,4.0,28.0,5.0
2017-01-28 16:15:00,ARMED ROBBERY,False,2017-01-28 18:55:00,PARKING LOTS / GARAGE,1845 BURTON DR,78741.0,3.0,HE,2,457.0,23.15,False,2017-03-06 00:00:00,Robbery,30.2344291,-97.72969939,2017.0,1.0,4.0,28.0,16.0
2017-01-28 16:40:00,AGGRAVATED ASSAULT,False,2017-01-28 16:54:00,RESIDENCE / HOME,1009 W 26TH ST,78705.0,9.0,BA,3,356.0,6.03,False,2017-02-03 00:00:00,Aggravated Assault,30.29058845,-97.74818253,2017.0,1.0,4.0,28.0,16.0
2017-01-28 18:55:00,ROBBERY BY ASSAULT,False,2017-01-28 20:54:00,DEPARTMENT / DISCOUNT STORE,1608 OHLEN RD,78758.0,4.0,ED,2,249.0,18.05,True,2017-01-31 00:00:00,Robbery,30.36410938,-97.71517376,2017.0,1.0,4.0,28.0,18.0
2017-01-28 19:50:00,ARMED ROBBERY,False,2017-01-28 19:50:00,PARKING LOTS / GARAGE,4501 E RIVERSIDE DR,78741.0,3.0,HE,4,458,,False,2017-03-01 00:00:00,Robbery,30.23258831,-97.72209348,2017.0,1.0,4.0,28.0,19.0
2017-01-28 20:00:00,DEADLY CONDUCT,False,2017-02-05 14:52:00,RESIDENCE / HOME,6507 MOONGLOW DR,78724.0,1.0,CH,6,303.0,22.0,False,2017-04-06 00:00:00,Aggravated Assault,30.29719841,-97.64435933,2017.0,1.0,4.0,28.0,20.0
2017-01-28 20:46:00,FORCED SODOMY,False,2017-01-28 20:46:00,RESIDENCE / HOME,8800 BLOCK S 1ST ST,78748.0,2.0,FR,3,536,24.23,True,2017-05-12 00:00:00,Rape,,,2017.0,1.0,4.0,28.0,20.0
2017-01-28 22:30:00,AGG ASSAULT FAM/DATE VIOLENCE,True,2017-01-28 22:58:00,RESIDENCE / HOME,434 BASTROP HWY SB,78741.0,3.0,HE,5,444.0,23.12,True,2017-02-01 00:00:00,Aggravated Assault,30.23569493,-97.68891876,2017.0,1.0,4.0,28.0,22.0
2017-01-29 00:37:00,RAPE,False,2017-01-29 00:37:00,RESIDENCE / HOME,1600 BLOCK COLONY CREEK DR,78758.0,4.0,ED,2,235.0,18.2,True,2017-02-23 00:00:00,Rape,,,2017.0,1.0,4.0,29.0,0.0
2017-01-29 01:31:00,AGG ASSAULT FAM/DATE VIOLENCE,True,2017-01-29 03:35:00,RESIDENCE / HOME,2800 S LAKELINE BLVD,78613.0,6.0,AD,6,118.0,203.16,True,2017-01-29 00:00:00,Aggravated Assault,30.47571756,-97.81084908,2017.0,1.0,4.0,29.0,1.0
2017-01-29 02:11:00,ROBBERY BY ASSAULT,False,2017-01-29 02:11:00,RESIDENCE / HOME,306 W RUNDBERG LN,78753.0,4.0,ED,1,240.0,18.23,False,2017-03-13 00:00:00,Robbery,30.36239452,-97.6945729,2017.0,1.0,4.0,29.0,2.0
2017-01-29 02:13:00,RAPE,False,2017-01-29 02:13:00,RESIDENCE / HOME,900 BLOCK E 32ND ST,78705.0,9.0,BA,1,348.0,4.0,True,2017-09-26 00:00:00,Rape,,,2017.0,1.0,4.0,29.0,2.0
2017-01-29 11:53:00,RAPE,False,2017-01-29 11:53:00,RESIDENCE / HOME,4000 BLOCK VICTORY DR,78704.0,5.0,DA,4,467,20.04,False,2017-01-31 00:00:00,Rape,,,2017.0,1.0,4.0,29.0,11.0
2017-01-29 12:05:00,AGG ASLT STRANGLE/SUFFOCATE,True,2017-01-29 12:05:00,RESIDENCE / HOME,5623 WOODROW AVE,78756.0,7.0,ID,7,289.0,2.05,True,2017-02-07 00:00:00,Aggravated Assault,30.32841261,-97.73261644,2017.0,1.0,4.0,29.0,12.0
2017-01-29 14:04:00,AGG ASLT STRANGLE/SUFFOCATE,True,2017-01-29 14:04:00,STREETS / HWY / ROAD / ALLEY,1100 EDGEWOOD AVE,78722.0,9.0,CH,3,349.0,4.01,True,2017-02-07 00:00:00,Aggravated Assault,30.29084288,-97.72179784,2017.0,1.0,4.0,29.0,14.0
2017-01-29 15:22:00,AGGRAVATED ASSAULT,False,2017-01-29 23:37:00,RESIDENCE / HOME,3706 GOODWIN AVE,78721.0,1.0,CH,4,425.0,,False,2017-04-07 00:00:00,Aggravated Assault,30.26846273,-97.69545466,2017.0,1.0,4.0,29.0,15.0
2017-01-29 15:48:00,AGG ASSAULT FAM/DATE VIOLENCE,True,2017-01-29 17:45:00,STREETS / HWY / ROAD / ALLEY,707 BEDFORD ST,78702.0,1.0,CH,2,416.0,8.0,True,2017-02-01 00:00:00,Aggravated Assault,30.27039387,-97.70712264,2017.0,1.0,4.0,29.0,15.0
2017-01-29 17:07:00,ROBBERY BY ASSAULT,False,2017-01-29 18:18:00,PARKING LOTS / GARAGE,102 W POWELL LN,78753.0,4.0,ED,1,250.0,18.0,False,2017-02-24 00:00:00,Robbery,30.34801409,-97.70333819,2017.0,1.0,4.0,29.0,17.0
2017-01-29 17:30:00,AGG ASSAULT FAM/DATE VIOLENCE,True,2017-01-29 17:50:00,STREETS / HWY / ROAD / ALLEY,1300 RADCLIFF DR,78752.0,4.0,ID,1,265.0,18.12,False,2017-03-02 00:00:00,Aggravated Assault,30.32795059,-97.69252196,2017.0,1.0,4.0,29.0,17.0
2017-01-29 19:16:00,AGG ASSAULT FAM/DATE VIOLENCE,True,2017-01-29 19:16:00,PARKING LOTS / GARAGE,500 E ST JOHNS AVE,78752.0,4.0,ID,8,264.0,18.0,False,2017-02-01 00:00:00,Aggravated Assault,30.33449602,-97.70642402,2017.0,1.0,4.0,29.0,19.0
2017-01-29 19:37:00,AGGRAVATED ASSAULT,False,2017-01-29 21:14:00,FIELD / WOODS,7114 N IH 35 SVRD SB,78752.0,4.0,ID,8,279.0,15.0,True,2017-01-30 00:00:00,Aggravated Assault,30.33277823,-97.70500594,2017.0,1.0,4.0,29.0,19.0
2017-01-29 20:46:00,AGG ASLT STRANGLE/SUFFOCATE,True,2017-01-29 23:52:00,RESIDENCE / HOME,3603 WILSON ST,78704.0,3.0,DA,2,474.0,13.08,True,2017-01-30 00:00:00,Aggravated Assault,30.22881721,-97.76368621,2017.0,1.0,4.0,29.0,20.0
2017-01-29 22:30:00,AGG ASLT STRANGLE/SUFFOCATE,True,2017-01-29 22:30:00,RESIDENCE / HOME,1137 GUNTER ST,78721.0,1.0,CH,4,425.0,,True,2017-02-21 00:00:00,Aggravated Assault,30.26922352,-97.69513602,2017.0,1.0,4.0,29.0,22.0
2017-01-29 22:49:00,RAPE,True,2017-01-29 22:49:00,PARKING LOTS / GARAGE,3400 BLOCK W WILLIAM CANNON DR,78745.0,5.0,FR,1,98.0,17.29,True,2017-02-28 00:00:00,Rape,,,2017.0,1.0,4.0,29.0,22.0
2017-01-29 23:35:00,ARMED ROBBERY,False,2017-01-29 23:59:00,PARKING LOTS / GARAGE,1622 RUTLAND DR,78758.0,4.0,ED,2,219.0,18.21,False,2017-05-24 00:00:00,Robbery,30.3726965,-97.7116957,2017.0,1.0,4.0,29.0,23.0
2017-01-30 05:45:00,AGG ASSAULT FAM/DATE VIOLENCE,True,2017-01-30 06:33:00,RESIDENCE / HOME,2124 BURTON DR,78741.0,3.0,HE,2,457.0,23.15,True,2017-01-30 00:00:00,Aggravated Assault,30.23178517,-97.73358414,2017.0,1.0,5.0,30.0,5.0
2017-01-30 15:23:00,ROBBERY BY ASSAULT,False,2017-01-30 16:18:00,RESIDENCE / HOME,5400 VILLAGE LN,78744.0,2.0,FR,5,517.0,,False,2017-03-21 00:00:00,Robbery,30.19334178,-97.74488615,2017.0,1.0,5.0,30.0,15.0
2017-01-30 15:35:00,ARMED ROBBERY,False,2017-01-30 17:08:00,RESIDENCE / HOME,4501 E RIVERSIDE DR,78741.0,3.0,HE,4,458.0,23.14,False,2017-05-25 00:00:00,Robbery,30.23258831,-97.72209348,2017.0,1.0,5.0,30.0,15.0
2017-01-30 17:04:00,AGGRAVATED ASSAULT,False,2017-01-30 19:59:00,INDUSTRIAL SITE,12201 DORSETT RD,78727.0,7.0,AD,3,192.0,,True,2017-01-30 00:00:00,Aggravated Assault,30.42099047,-97.7281827,2017.0,1.0,5.0,30.0,17.0
2017-01-30 19:19:00,AGG ASLT STRANGLE/SUFFOCATE,True,2017-01-30 19:19:00,RESIDENCE / HOME,2302 E WILLIAM CANNON DR,78744.0,2.0,FR,8,516.0,24.19,True,2017-01-30 00:00:00,Aggravated Assault,30.18669219,-97.75814874,2017.0,1.0,5.0,30.0,19.0
2017-01-30 20:24:00,AGGRAVATED ASSAULT,False,2017-01-30 20:24:00,RESIDENCE / HOME,5900 TRACY LYNN LN,78721.0,3.0,CH,5,428.0,21.11,True,2018-02-05 00:00:00,Aggravated Assault,30.25579562,-97.68697108,2017.0,1.0,5.0,30.0,20.0
2017-01-30 23:31:00,FORCED SODOMY,False,2017-01-30 23:31:00,RESIDENCE / HOME,700 BLOCK W MARTIN LUTHER KING JR BLVD,78705.0,9.0,BA,2,358.0,6.0,True,2017-05-08 00:00:00,Rape,,,2017.0,1.0,5.0,30.0,23.0
2017-01-31 00:00:00,SEXUAL ASSAULT W/ OBJECT,False,2017-02-15 12:46:00,SCHOOL - ELEMENTARY / SECONDARY,1100 BLOCK S CONGRESS AVE,78704.0,9.0,DA,1,453.0,13.0,,,Rape,,,2017.0,1.0,5.0,31.0,0.0
2017-01-31 02:57:00,AGGRAVATED ASSAULT,False,2017-01-31 02:57:00,HOTEL / MOTEL / ETC.,2700 GRACY FARMS LN,78758.0,7.0,AD,2,202.0,18.49,True,2017-01-31 00:00:00,Aggravated Assault,30.4067171,-97.71296949,2017.0,1.0,5.0,31.0,2.0
2017-01-31 04:45:00,AGGRAVATED ASSAULT,False,2017-01-31 06:20:00,RESIDENCE / HOME,9121 NORTH PLZ,78753.0,4.0,ED,3,251.0,18.13,True,2017-01-31 00:00:00,Aggravated Assault,30.35393862,-97.68583874,2017.0,1.0,5.0,31.0,4.0
2017-01-31 15:10:00,AGG ASSAULT FAM/DATE VIOLENCE,True,2017-01-31 15:15:00,RESIDENCE / HOME,114 METEOR DR,78745.0,2.0,FR,3,527.0,24.22,True,2017-02-02 00:00:00,Aggravated Assault,30.19083532,-97.78155832,2017.0,1.0,5.0,31.0,15.0
2017-01-31 22:00:00,AGGRAVATED ASSAULT,False,2017-01-31 22:00:00,STREETS / HWY / ROAD / ALLEY,8200 BLOCK S 1ST ST,78748.0,2.0,FR,3,536.0,,False,2017-04-27 00:00:00,Aggravated Assault,30.18027592,-97.79548097,2017.0,1.0,5.0,31.0,22.0
2017-01-31 22:51:00,AGG ASLT W/MOTOR VEH FAM/DAT V,True,2017-01-31 22:51:00,RESTAURANTS,1500 FARO DR,78741.0,3.0,HE,3,442.0,23.18,True,2017-02-02 00:00:00,Aggravated Assault,30.23433705,-97.71398825,2017.0,1.0,5.0,31.0,22.0
2017-01-31 22:54:00,AGG ASLT STRANGLE/SUFFOCATE,True,2017-02-07 22:54:00,STREETS / HWY / ROAD / ALLEY,1919 S PLEASANT VALLEY RD,78741.0,3.0,HE,3,442.0,23.18,False,2017-02-08 00:00:00,Aggravated Assault,30.23402135,-97.72209908,2017.0,1.0,5.0,31.0,22.0
2017-01-31 23:13:00,AGG ASLT STRANGLE/SUFFOCATE,True,2017-01-31 23:13:00,RESIDENCE / HOME,1300 CROSSING PL,78741.0,3.0,HE,3,442.0,23.17,True,2017-02-03 00:00:00,Aggravated Assault,30.23783535,-97.71317433,2017.0,1.0,5.0,31.0,23.0
2017-01-31 23:30:00,AGG ASLT STRANGLE/SUFFOCATE,True,2017-02-01 00:53:00,PARKING LOTS / GARAGE,2400 WICKERSHAM LN,78741.0,3.0,HE,4,458.0,,True,2017-02-01 00:00:00,Aggravated Assault,30.22764855,-97.72330072,2017.0,1.0,5.0,31.0,23.0
2017-02-01 00:00:00,SEXUAL ASSAULT OF CHILD/OBJECT,False,2017-10-01 17:46:00,RESIDENCE / HOME,4500 BLOCK E RIVERSIDE DR,78741.0,3.0,HE,4,458.0,23.14,True,2017-11-30 00:00:00,Rape,,,2017.0,2.0,5.0,1.0,0.0
2017-02-01 00:00:00,SEXUAL ASSAULT OF CHILD/OBJECT,True,2017-03-21 16:32:00,RESIDENCE / HOME,5600 BLOCK MEADOW CREST,78744.0,2.0,FR,6,519.0,,True,2017-08-03 00:00:00,Rape,,,2017.0,2.0,5.0,1.0,0.0
2017-02-01 00:01:00,ARMED ROBBERY,False,2017-02-01 23:00:00,PARKING LOTS / GARAGE,1124 RUTLAND DR,78758.0,4.0,ED,1,239.0,18.22,,,Robbery,30.36871033,-97.70372535,2017.0,2.0,5.0,1.0,0.0
2017-02-01 02:24:00,RAPE,True,2017-03-20 02:24:00,RESIDENCE / HOME,6900 BLOCK GRANGER DR,78744.0,2.0,FR,8,530,24.27,True,2017-03-27 00:00:00,Rape,,,2017.0,2.0,5.0,1.0,2.0
2017-02-01 13:16:00,SEXUAL ASSAULT W/ OBJECT,False,2017-03-24 13:16:00,RESIDENCE / HOME,800 BLOCK N PLEASANT VALLEY RD,78702.0,3.0,CH,2,423.0,8.0,False,2017-03-31 00:00:00,Rape,,,2017.0,2.0,5.0,1.0,13.0
2017-02-01 13:31:00,AGG ASSAULT WITH MOTOR VEH,False,2017-02-01 14:18:00,RESIDENCE / HOME,1006 BANISTER LN,78704.0,3.0,DA,2,473.0,13.07,True,2017-02-01 00:00:00,Aggravated Assault,30.22957415,-97.77443153,2017.0,2.0,5.0,1.0,13.0
2017-02-01 15:18:00,AGG ASSAULT FAM/DATE VIOLENCE,True,2017-02-01 16:23:00,RESIDENCE / HOME,10204 DOC HOLLIDAY TRL,78753.0,4.0,ED,1,240.0,18.23,True,2017-02-01 00:00:00,Aggravated Assault,30.36794991,-97.68614557,2017.0,2.0,5.0,1.0,15.0
2017-02-01 17:12:00,SEXUAL ASSAULT W/ OBJECT,False,2019-10-04 17:12:00,RESIDENCE / HOME,2500 BLOCK EAST SIDE DR,78704.0,9.0,DA,2,479.0,23.0,False,2019-12-06 00:00:00,Rape,,,2017.0,2.0,5.0,1.0,17.0
2017-02-02 00:54:00,ARMED ROBBERY,False,2017-02-02 03:41:00,RESTAURANTS,13450 N US 183 HWY SVRD SB,78750.0,6.0,AD,6,187.0,204.0,False,2017-03-07 00:00:00,Robbery,30.44751497,-97.7908713,2017.0,2.0,5.0,2.0,0.0
2017-02-02 01:22:00,AGG ASLT STRANGLE/SUFFOCATE,True,2017-02-02 01:22:00,RESIDENCE / HOME,5413 MANCHACA RD,78745.0,5.0,DA,3,507.0,17.12,True,2017-02-02 00:00:00,Aggravated Assault,30.21674422,-97.79600805,2017.0,2.0,5.0,2.0,1.0
2017-02-02 12:48:00,AGG ASSAULT FAM/DATE VIOLENCE,True,2017-02-02 12:48:00,RESIDENCE / HOME,4801 CARSONHILL DR,78723.0,1.0,CH,4,324,,False,2017-02-14 00:00:00,Aggravated Assault,30.28890177,-97.67567143,2017.0,2.0,5.0,2.0,12.0
2017-02-02 14:23:00,AGGRAVATED ASSAULT,False,2017-02-02 14:23:00,RESIDENCE / HOME,5007 LYNNWOOD ST,78756.0,7.0,BA,6,317.0,2.0,True,2017-02-02 00:00:00,Aggravated Assault,30.32216616,-97.74006382,2017.0,2.0,5.0,2.0,14.0
2017-02-02 16:18:00,AGGRAVATED ASSAULT,False,2017-02-02 17:04:00,RESIDENCE / HOME,5321 DOWNS DR,78721.0,1.0,CH,5,397.0,21.1,False,2017-03-06 00:00:00,Aggravated Assault,30.27893227,-97.67848738,2017.0,2.0,5.0,2.0,16.0
2017-02-02 18:40:00,ARMED ROBBERY,False,2017-02-02 20:09:00,PARKING LOTS / GARAGE,4320 S CONGRESS AVE,78745.0,3.0,DA,3,491.0,20.0,True,2017-06-14 00:00:00,Robbery,30.21903307,-97.76718941,2017.0,2.0,5.0,2.0,18.0
2017-02-02 19:11:00,ARMED ROBBERY,False,2017-02-02 19:11:00,PARKING LOTS / GARAGE,2400 WICKERSHAM LN,78741.0,3.0,HE,4,458.0,23.14,True,2017-03-09 00:00:00,Robbery,30.22764855,-97.72330072,2017.0,2.0,5.0,2.0,19.0
2017-02-02 19:34:00,ARMED ROBBERY,False,2017-02-02 19:34:00,PARKING LOTS / GARAGE,2425 E RIVERSIDE DR,78741.0,3.0,HE,2,457.0,23.16,,,Robbery,30.23532226,-97.72493362,2017.0,2.0,5.0,2.0,19.0
2017-02-02 19:35:00,AGGRAVATED ASSAULT,False,2017-02-02 19:50:00,PARKING LOTS / GARAGE,9715 N FM 620 RD,78726.0,6.0,AD,8,178.0,17.14,False,2017-02-06 00:00:00,Aggravated Assault,30.43679351,-97.83820902,2017.0,2.0,5.0,2.0,19.0
2017-02-02 22:30:00,DEADLY CONDUCT FAM/DATE VIOL,True,2017-02-02 22:30:00,STREETS / HWY / ROAD / ALLEY,5618 MANOR RD,78723.0,1.0,ID,4,295.0,21.0,False,2017-02-07 00:00:00,Aggravated Assault,30.30446137,-97.68181384,2017.0,2.0,5.0,2.0,22.0
2017-02-02 22:47:00,ARMED ROBBERY,False,2017-02-03 00:04:00,PARKING LOTS / GARAGE,2425 E RIVERSIDE DR,78741.0,3.0,HE,2,457.0,23.16,True,2017-05-22 00:00:00,Robbery,30.23532226,-97.72493362,2017.0,2.0,5.0,2.0,22.0
2017-02-03 02:09:00,AGGRAVATED ASSAULT,False,2017-02-03 05:09:00,PARKING LOTS / GARAGE,2237 E RIVERSIDE DR,78741.0,3.0,HE,2,457.0,23.16,True,2017-02-09 00:00:00,Aggravated Assault,30.23820652,-97.72624311,2017.0,2.0,5.0,3.0,2.0
2017-02-03 02:21:00,AGGRAVATED ASSAULT,False,2017-02-03 02:21:00,STREETS / HWY / ROAD / ALLEY,E 7TH ST / TRINITY ST,78701.0,9.0,GE,2,382.0,11.0,True,2017-05-30 00:00:00,Aggravated Assault,30.26800598,-97.73895531,2017.0,2.0,5.0,3.0,2.0
2017-02-03 05:39:00,RAPE OF A CHILD,True,2017-02-03 05:39:00,RESIDENCE / HOME,2600 BLOCK S PLEASANT VALLEY RD,78741.0,3.0,HE,4,484.0,23.13,True,2017-02-09 00:00:00,Rape,,,2017.0,2.0,5.0,3.0,5.0
2017-02-03 09:22:00,ARMED ROBBERY,False,2017-02-03 09:22:00,STREETS / HWY / ROAD / ALLEY,5608 MEADOW CREST,78744.0,2.0,FR,6,519.0,,True,2017-02-07 00:00:00,Robbery,30.19261625,-97.73418851,2017.0,2.0,5.0,3.0,9.0
2017-02-03 12:04:00,AGGRAVATED ASSAULT,False,2017-02-03 12:04:00,RESIDENCE / HOME,8404 GARCREEK CIR,78724.0,1.0,CH,7,302.0,22.02,False,2017-03-16 00:00:00,Aggravated Assault,30.29462672,-97.62919219,2017.0,2.0,5.0,3.0,12.0
2017-02-03 13:53:00,ARMED ROBBERY,False,2017-02-03 13:53:00,GAS / SERVICE STATIONS,13125 POND SPRINGS RD,78729.0,6.0,AD,4,165.0,204.1,False,2017-03-14 00:00:00,Robbery,30.44384434,-97.7758332,2017.0,2.0,5.0,3.0,13.0
2017-02-03 15:04:00,ROBBERY BY THREAT,False,2017-02-03 18:57:00,DEPARTMENT / DISCOUNT STORE,2901 S CAPITAL OF TEXAS HWY NB,78746.0,8.0,DA,5,462.0,19.1,False,2017-08-28 00:00:00,Robbery,30.25788603,-97.80700704,2017.0,2.0,5.0,3.0,15.0
2017-02-03 22:45:00,DEADLY CONDUCT,False,2017-02-04 00:10:00,RESIDENCE / HOME,3900 ALEXANDRIA DR,78749.0,8.0,DA,7,86.0,,False,2017-02-21 00:00:00,Aggravated Assault,30.2019723,-97.84448902,2017.0,2.0,5.0,3.0,22.0
2017-02-03 23:52:00,AGGRAVATED ASSAULT,False,2017-02-03 23:52:00,STREETS / HWY / ROAD / ALLEY,500 E 6TH ST,78701.0,9.0,GE,2,382.0,11.0,True,2017-03-07 00:00:00,Aggravated Assault,30.26704868,-97.73799564,2017.0,2.0,5.0,3.0,23.0
2017-02-03 23:53:00,AGG ASLT STRANGLE/SUFFOCATE,True,2017-02-04 03:37:00,RESIDENCE / HOME,1139 RICHARDINE AVE,78721.0,3.0,CH,5,397.0,21.1,True,2017-02-04 00:00:00,Aggravated Assault,30.27083739,-97.68550676,2017.0,2.0,5.0,3.0,23.0
2017-02-04 00:07:00,AGG ASLT STRANGLE/SUFFOCATE,True,2017-02-04 00:07:00,RESIDENCE / HOME,739 W WILLIAM CANNON DR,78745.0,2.0,FR,3,526.0,,False,2017-02-10 00:00:00,Aggravated Assault,30.1974094,-97.78989537,2017.0,2.0,5.0,4.0,0.0
2017-02-04 01:17:00,AGGRAVATED ASSAULT,False,2017-02-04 01:17:00,BAR / NIGHT CLUB,7522 N IH 35 SVRD SB,78752.0,4.0,ID,8,264.0,18.0,True,2017-02-04 00:00:00,Aggravated Assault,30.33847755,-97.70395965,2017.0,2.0,5.0,4.0,1.0
2017-02-04 02:33:00,AGGRAVATED ASSAULT,False,2017-02-04 04:02:00,RESIDENCE / HOME,8309 GRAYLEDGE DR,78753.0,4.0,ED,3,251.0,,False,2017-05-09 00:00:00,Aggravated Assault,30.34581602,-97.69274003,2017.0,2.0,5.0,4.0,2.0
2017-02-04 02:36:00,ARMED ROBBERY,False,2017-02-04 02:36:00,OTHER / UNKNOWN,1301 E 4TH ST,78702.0,3.0,CH,1,410.0,9.0,False,2017-03-07 00:00:00,Robbery,30.26197719,-97.73027451,2017.0,2.0,5.0,4.0,2.0
2017-02-04 03:00:00,ARMED ROBBERY,False,2017-02-04 03:06:00,PARKING LOTS / GARAGE,6307 CAMERON RD,78723.0,1.0,ID,5,293.0,21.0,False,2017-03-08 00:00:00,Robbery,30.32022465,-97.6951872,2017.0,2.0,5.0,4.0,3.0
2017-02-04 03:22:00,AGG ASLT STRANGLE/SUFFOCATE,True,2017-02-04 04:18:00,RESIDENCE / HOME,8926 N LAMAR BLVD,78758.0,4.0,ED,1,237.0,18.19,True,2017-03-09 00:00:00,Aggravated Assault,30.35875709,-97.69972149,2017.0,2.0,5.0,4.0,3.0
2017-02-04 06:30:00,RAPE,False,2017-02-04 06:30:00,PARKING LOTS / GARAGE,700 BLOCK SAN JACINTO BLVD,78701.0,9.0,GE,2,381.0,11.0,False,2017-02-08 00:00:00,Rape,,,2017.0,2.0,5.0,4.0,6.0
2017-02-04 08:13:00,AGGRAVATED ASSAULT,False,2017-02-04 08:13:00,STREETS / HWY / ROAD / ALLEY,800 GUADALUPE ST,78701.0,9.0,GE,1,373.0,11.0,True,2017-02-05 00:00:00,Aggravated Assault,30.27124359,-97.74577908,2017.0,2.0,5.0,4.0,8.0
2017-02-04 11:43:00,AGG ASLT STRANGLE/SUFFOCATE,True,2017-02-04 11:43:00,RESIDENCE / HOME,6704 TAMPA CV,78723.0,1.0,ID,3,296.0,21.13,True,2017-03-27 00:00:00,Aggravated Assault,30.31268048,-97.67018539,2017.0,2.0,5.0,4.0,11.0
2017-02-04 12:16:00,AGG ASSAULT WITH MOTOR VEH,False,2017-02-04 12:16:00,STREETS / HWY / ROAD / ALLEY,1400 BLOCK S CONGRESS AVE,78704.0,9.0,DA,1,453.0,13.0,False,2017-04-03 00:00:00,Aggravated Assault,,,2017.0,2.0,5.0,4.0,12.0
2017-02-04 15:04:00,AGG ASSAULT WITH MOTOR VEH,False,2017-02-05 13:34:00,STREETS / HWY / ROAD / ALLEY,4900 BLOCK E BEN WHITE BLVD WB,78741.0,3.0,HE,4,484.0,23.13,True,2017-02-24 00:00:00,Aggravated Assault,30.21370362,-97.72218597,2017.0,2.0,5.0,4.0,15.0
2017-02-04 18:28:00,AGG ASSAULT FAM/DATE VIOLENCE,True,2017-02-04 18:28:00,RESIDENCE / HOME,10505 S IH 35 SVRD NB,78747.0,5.0,FR,7,547.0,24.28,True,2017-02-04 00:00:00,Aggravated Assault,30.1457963,-97.79066483,2017.0,2.0,5.0,4.0,18.0
2017-02-04 22:35:00,AGG RAPE OF A CHILD,False,2017-02-05 00:01:00,RESIDENCE / HOME,1600 BLOCK RUTLAND DR,78758.0,4.0,ED,2,236.0,18.2,False,2017-07-07 00:00:00,Rape,,,2017.0,2.0,5.0,4.0,22.0
2017-02-05 01:00:00,AGG ASSAULT FAM/DATE VIOLENCE,True,2017-02-05 01:02:00,RESIDENCE / HOME,8807 REDFIELD LN,78758.0,4.0,ED,2,249.0,18.05,True,2017-02-13 00:00:00,Aggravated Assault,30.3625914,-97.71181814,2017.0,2.0,5.0,5.0,1.0
2017-02-05 01:43:00,ROBBERY BY ASSAULT,False,2017-02-05 04:19:00,STREETS / HWY / ROAD / ALLEY,317 E 6TH ST,78701.0,9.0,GE,2,381.0,11.0,False,2017-02-07 00:00:00,Robbery,30.26703057,-97.73981801,2017.0,2.0,5.0,5.0,1.0
2017-02-05 01:44:00,AGG ASSAULT FAM/DATE VIOLENCE,True,2017-02-05 01:45:00,RESIDENCE / HOME,201 LAVACA ST,78701.0,9.0,GE,4,405.0,11.0,True,2017-02-05 00:00:00,Aggravated Assault,30.26529387,-97.74628707,2017.0,2.0,5.0,5.0,1.0
2017-02-05 02:00:00,FORCED SODOMY,False,2017-02-10 16:22:00,RESIDENCE / HOME,3000 BLOCK WHITIS AVE,78705.0,9.0,BA,1,346.0,5.0,False,2017-03-08 00:00:00,Rape,,,2017.0,2.0,5.0,5.0,2.0
2017-02-05 02:57:00,MURDER,False,2017-02-05 02:57:00,STREETS / HWY / ROAD / ALLEY,9049 GALEWOOD DR,78758.0,4.0,ED,2,235.0,18.2,True,2017-02-08 00:00:00,Murder,30.36796982,-97.71444728,2017.0,2.0,5.0,5.0,2.0
2017-02-05 03:00:00,AGGRAVATED ASSAULT,False,2017-02-05 03:00:00,PARKING LOTS / GARAGE,501 E BEN WHITE BLVD EB,78745.0,3.0,DA,3,492.0,,False,2017-02-21 00:00:00,Aggravated Assault,30.21992497,-97.758596,2017.0,2.0,5.0,5.0,3.0
2017-02-05 09:25:00,DEADLY CONDUCT,False,2017-02-05 09:25:00,RESIDENCE / HOME,7701 WYNNE LN,78745.0,5.0,FR,3,526.0,24.24,False,2017-03-16 00:00:00,Aggravated Assault,30.19006423,-97.80270812,2017.0,2.0,5.0,5.0,9.0
2017-02-05 19:33:00,AGG ASLT STRANGLE/SUFFOCATE,True,2017-02-05 19:33:00,RESIDENCE / HOME,10601 TURNER DR,78753.0,4.0,ED,1,240.0,18.23,True,2017-02-05 00:00:00,Aggravated Assault,30.37284714,-97.68635372,2017.0,2.0,5.0,5.0,19.0
2017-02-05 19:49:00,ARMED ROBBERY,False,2017-02-05 19:50:00,STREETS / HWY / ROAD / ALLEY,1600 BLOCK ROYAL CREST DR,78741.0,3.0,HE,2,457.0,23.16,False,2017-02-20 00:00:00,Robbery,30.23958468,-97.73098897,2017.0,2.0,5.0,5.0,19.0
2017-02-05 21:30:00,AGG ASSAULT FAM/DATE VIOLENCE,True,2017-02-05 21:30:00,RESIDENCE / HOME,11210 FM 2222 RD,78726.0,6.0,AD,8,15.0,17.14,True,2017-02-16 00:00:00,Aggravated Assault,30.40000312,-97.85056416,2017.0,2.0,5.0,5.0,21.0
2017-02-05 21:57:00,AGG ASLT ENHANC STRANGL/SUFFOC,True,2017-02-05 21:57:00,RESIDENCE / HOME,2112 E WILLIAM CANNON DR,78744.0,2.0,FR,8,516.0,24.19,True,2017-02-06 00:00:00,Aggravated Assault,30.18782573,-97.76131607,2017.0,2.0,5.0,5.0,21.0
2017-02-05 23:30:00,AGG ASSAULT WITH MOTOR VEH,False,2017-02-05 23:30:00,STREETS / HWY / ROAD / ALLEY,200 WEST AVE,78701.0,9.0,GE,1,403.0,12.0,False,2017-03-01 00:00:00,Aggravated Assault,30.26660944,-97.75205963,2017.0,2.0,5.0,5.0,23.0
2017-02-06 00:05:00,AGGRAVATED ASSAULT,False,2017-02-06 00:05:00,RESIDENCE / HOME,2400 WICKERSHAM LN,78741.0,3.0,HE,4,458.0,23.14,False,2017-04-04 00:00:00,Aggravated Assault,30.22764855,-97.72330072,2017.0,2.0,6.0,6.0,0.0
2017-02-06 00:38:00,AGG ASSAULT ON PUBLIC SERVANT,False,2017-02-06 00:38:00,STREETS / HWY / ROAD / ALLEY,SPRINGDALE RD / E 51ST ST,78723.0,1.0,CH,4,323.0,21.0,True,2017-05-17 00:00:00,Aggravated Assault,30.2935999,-97.67781769,2017.0,2.0,6.0,6.0,0.0
2017-02-06 01:38:00,AGGRAVATED ASSAULT,False,2017-02-06 01:38:00,RESIDENCE / HOME,3524 GREYSTONE DR,78731.0,10.0,BA,8,256.0,17.52,False,2017-03-09 00:00:00,Aggravated Assault,30.35851201,-97.75042152,2017.0,2.0,6.0,6.0,1.0
2017-02-06 02:00:00,AGGRAVATED ASSAULT,False,2017-02-06 16:15:00,STREETS / HWY / ROAD / ALLEY,W 6TH ST / RIO GRANDE ST,78701.0,9.0,GE,1,373.0,11.0,False,2017-03-08 00:00:00,Aggravated Assault,30.26994412,-97.74953066,2017.0,2.0,6.0,6.0,2.0
2017-02-06 02:15:00,DEADLY CONDUCT,False,2017-02-06 03:19:00,RESIDENCE / HOME,4100 VICTORY DR,78704.0,5.0,DA,4,467.0,20.0,True,2017-03-29 00:00:00,Aggravated Assault,30.23393567,-97.79084334,2017.0,2.0,6.0,6.0,2.0
2017-02-06 10:12:00,AGG ASLT STRANGLE/SUFFOCATE,True,2017-02-06 10:12:00,STREETS / HWY / ROAD / ALLEY,5789 AIRPORT BLVD,78752.0,4.0,ID,8,279.0,15.0,True,2017-02-13 00:00:00,Aggravated Assault,30.32269352,-97.71432245,2017.0,2.0,6.0,6.0,10.0
2017-02-06 15:24:00,ARMED ROBBERY,False,2017-02-06 15:24:00,RESIDENCE / HOME,1071 CLAYTON LN,78723.0,4.0,ID,5,292.0,21.0,True,2017-04-04 00:00:00,Robbery,30.3185291,-97.7034222,2017.0,2.0,6.0,6.0,15.0
2017-02-06 16:25:00,AGG ASSAULT FAM/DATE VIOLENCE,True,2017-02-06 18:09:00,STREETS / HWY / ROAD / ALLEY,N LAMAR BLVD / KRAMER LN,78758.0,4.0,ED,4,2213.0,18.23,False,2017-02-16 00:00:00,Aggravated Assault,30.37953888,-97.68768953,2017.0,2.0,6.0,6.0,16.0
2017-02-06 20:23:00,AGG ASLT W/MOTOR VEH FAM/DAT V,True,2017-02-06 21:38:00,STREETS / HWY / ROAD / ALLEY,4709 LESLIE AVE,78721.0,1.0,CH,4,396.0,,True,2017-02-06 00:00:00,Aggravated Assault,30.28168975,-97.68348196,2017.0,2.0,6.0,6.0,20.0
2017-02-07 01:54:00,ARMED ROBBERY,False,2017-02-07 01:54:00,STREETS / HWY / ROAD / ALLEY,BENNETT AVE / CAMINO LA COSTA,78752.0,4.0,ID,1,265.0,18.12,False,2017-06-13 00:00:00,Robbery,30.32808553,-97.70229616,2017.0,2.0,6.0,7.0,1.0
2017-02-07 03:00:00,ARMED ROBBERY,False,2017-02-07 03:05:00,RESIDENCE / HOME,1112 BERGER ST,78721.0,3.0,CH,5,397.0,21.1,False,2017-06-13 00:00:00,Robbery,30.26972657,-97.6880531,2017.0,2.0,6.0,7.0,3.0
2017-02-07 05:00:00,ROBBERY BY ASSAULT,False,2017-02-07 05:05:00,HOTEL / MOTEL / ETC.,9420 N IH 35 SVRD SB,78753.0,4.0,ED,1,240.0,,True,2017-02-07 00:00:00,Robbery,30.35979391,-97.688358,2017.0,2.0,6.0,7.0,5.0
2017-02-07 08:29:00,AGGRAVATED ASSAULT,False,2017-02-07 08:29:00,STREETS / HWY / ROAD / ALLEY,300 BLOCK E 6TH ST,78701.0,9.0,GE,2,381.0,11.0,True,2017-02-07 00:00:00,Aggravated Assault,30.2676012,-97.74015438,2017.0,2.0,6.0,7.0,8.0
2017-02-07 18:24:00,AGG ASSAULT FAM/DATE VIOLENCE,True,2017-02-07 18:24:00,RESIDENCE / HOME,10611 CAROVILLI DR,78748.0,5.0,FR,2,542.0,24.21,True,2017-02-09 00:00:00,Aggravated Assault,30.15872078,-97.81603329,2017.0,2.0,6.0,7.0,18.0
2017-02-07 18:29:00,AGG ASLT STRANGLE/SUFFOCATE,True,2017-02-07 18:29:00,RESIDENCE / HOME,6807 TRENDAL LN,78744.0,2.0,FR,8,530.0,24.27,True,2017-02-08 00:00:00,Aggravated Assault,30.18171037,-97.7605608,2017.0,2.0,6.0,7.0,18.0
2017-02-07 18:43:00,AGG ASLT STRANGLE/SUFFOCATE,True,2017-02-07 20:05:00,RESIDENCE / HOME,4407 DOVE SPRINGS DR,78744.0,2.0,FR,5,517.0,24.12,False,2017-03-17 00:00:00,Aggravated Assault,30.18743164,-97.75334857,2017.0,2.0,6.0,7.0,18.0
2017-02-07 22:10:00,ROBBERY BY ASSAULT,False,2017-02-07 22:10:00,PARKING LOTS / GARAGE,2336 DOUGLAS ST,78741.0,3.0,HE,2,483.0,23.13,False,2017-02-08 00:00:00,Robbery,30.22823533,-97.73294807,2017.0,2.0,6.0,7.0,22.0
2017-02-08 01:16:00,ROBBERY BY ASSAULT,False,2017-02-08 01:16:00,STREETS / HWY / ROAD / ALLEY,400 RED RIVER ST,78701.0,9.0,GE,2,382.0,11.0,False,2017-05-17 00:00:00,Robbery,30.26473618,-97.73788671,2017.0,2.0,6.0,8.0,1.0
2017-02-08 03:00:00,AGG ASSAULT FAM/DATE VIOLENCE,True,2017-02-08 22:35:00,RESIDENCE / HOME,1016 CAMINO LA COSTA,78752.0,4.0,ID,1,280.0,18.12,True,2017-02-16 00:00:00,Aggravated Assault,30.32645272,-97.70140223,2017.0,2.0,6.0,8.0,3.0
2017-02-08 04:40:00,DEADLY CONDUCT,False,2017-02-08 06:25:00,RESIDENCE / HOME,2800 BLOCK E 14TH ST,78702.0,1.0,CH,3,393.0,8.03,,,Aggravated Assault,30.27720151,-97.71131044,2017.0,2.0,6.0,8.0,4.0
2017-02-08 11:26:00,AGGRAVATED ASSAULT,False,2017-02-08 11:26:00,RESIDENCE / HOME,11700 METRIC BLVD,78758.0,7.0,AD,2,202.0,,False,2017-06-06 00:00:00,Aggravated Assault,30.39761338,-97.70517069,2017.0,2.0,6.0,8.0,11.0
2017-02-08 18:40:00,AGG ASLT STRANGLE/SUFFOCATE,True,2017-02-08 18:40:00,STREETS / HWY / ROAD / ALLEY,1400 E ANDERSON LN WB,78753.0,4.0,ID,2,252.0,18.12,True,2017-02-09 00:00:00,Aggravated Assault,30.33368617,-97.68856962,2017.0,2.0,6.0,8.0,18.0
2017-02-08 20:30:00,AGGRAVATED ASSAULT,False,2017-02-08 21:04:00,STREETS / HWY / ROAD / ALLEY,OVERBROOK DR / OVERDALE RD,78723.0,1.0,ID,4,298.0,,True,2017-02-10 00:00:00,Aggravated Assault,30.30238576,-97.68212444,2017.0,2.0,6.0,8.0,20.0
2017-02-09 01:42:00,AGGRAVATED ASSAULT,False,2017-02-09 01:42:00,OTHER / UNKNOWN,412 COMAL ST,78702.0,3.0,CH,1,410.0,9.0,False,2017-03-10 00:00:00,Aggravated Assault,30.26190753,-97.7272538,2017.0,2.0,6.0,9.0,1.0
2017-02-09 05:48:00,ARMED ROBBERY,False,2017-02-09 05:48:00,STREETS / HWY / ROAD / ALLEY,2901 S CAPITAL OF TEXAS HWY NB,78746.0,8.0,DA,5,462.0,19.1,True,2017-02-15 00:00:00,Robbery,30.25788603,-97.80700704,2017.0,2.0,6.0,9.0,5.0
2017-02-09 15:30:00,AGGRAVATED ASSAULT,False,2017-02-09 19:41:00,FIELD / WOODS,2700 GRACY FARMS LN,78758.0,7.0,AD,2,202.0,18.49,False,2017-03-15 00:00:00,Aggravated Assault,30.4067171,-97.71296949,2017.0,2.0,6.0,9.0,15.0
2017-02-09 16:39:00,CONT SEX ABUSE OF CHILD,False,2017-02-09 16:39:00,RESIDENCE / HOME,3600 BLOCK ROCKY FORD DR,78749.0,8.0,DA,8,95.0,,True,2017-03-23 00:00:00,Rape,,,2017.0,2.0,6.0,9.0,16.0
2017-02-09 19:54:00,AGG ASSAULT FAM/DATE VIOLENCE,True,2017-02-09 19:54:00,RESIDENCE / HOME,12345 LAMPLIGHT VILLAGE AVE,78758.0,7.0,AD,3,203.0,18.5,True,2017-02-09 00:00:00,Aggravated Assault,30.41260065,-97.6958102,2017.0,2.0,6.0,9.0,19.0
2017-02-09 23:56:00,AGG ASSAULT FAM/DATE VIOLENCE,True,2017-02-09 23:56:00,RESIDENCE / HOME,1817 PRAIRIE KNOLL CT,78758.0,7.0,ED,4,2211.0,,True,2017-02-10 00:00:00,Aggravated Assault,30.39666594,-97.70255677,2017.0,2.0,6.0,9.0,23.0
2017-02-10 00:38:00,AGG ASLT STRANGLE/SUFFOCATE,True,2017-02-10 00:38:00,RESIDENCE / HOME,9107 WAMPTON WAY,78749.0,8.0,DA,7,87.0,17.37,True,2017-02-14 00:00:00,Aggravated Assault,30.20659839,-97.87596765,2017.0,2.0,6.0,10.0,0.0
2017-02-10 03:09:00,AGG ASLT STRANGLE/SUFFOCATE,True,2017-02-10 03:09:00,STREETS / HWY / ROAD / ALLEY,MANOR RD / NORTHEAST DR,78723.0,1.0,ID,3,296.0,21.0,False,2017-02-15 00:00:00,Aggravated Assault,30.30853134,-97.67077221,2017.0,2.0,6.0,10.0,3.0
2017-02-10 03:30:00,SEXUAL ASSAULT W/ OBJECT,False,2017-02-10 05:57:00,STREETS / HWY / ROAD / ALLEY,600 BLOCK W 26TH ST,78705.0,9.0,BA,1,360.0,6.03,False,2017-02-22 00:00:00,Rape,,,2017.0,2.0,6.0,10.0,3.0
2017-02-10 09:00:00,RAPE OF A CHILD,False,2017-02-16 19:54:00,RESIDENCE / HOME,7800 BLOCK BEAUREGARD CIR,78745.0,5.0,FR,1,525.0,17.28,False,2017-08-01 00:00:00,Rape,,,2017.0,2.0,6.0,10.0,9.0
2017-02-10 13:00:00,AGGRAVATED ASSAULT,False,2017-02-10 14:25:00,PARKING LOTS / GARAGE,1925 AIRPORT BLVD,78723.0,1.0,CH,4,351.0,21.0,False,2017-02-24 00:00:00,Aggravated Assault,30.28324167,-97.7039463,2017.0,2.0,6.0,10.0,13.0
2017-02-10 14:20:00,ROBBERY BY ASSAULT,False,2017-02-10 14:32:00,STREETS / HWY / ROAD / ALLEY,1501 REAGAN HILL DR,78752.0,4.0,ID,2,266.0,18.11,False,2017-03-02 00:00:00,Robbery,30.32628674,-97.6902594,2017.0,2.0,6.0,10.0,14.0
2017-02-10 15:27:00,AGG ASLT STRANGLE/SUFFOCATE,True,2017-02-10 16:45:00,RESIDENCE / HOME,12100 METRIC BLVD,78758.0,7.0,AD,2,202.0,,True,2017-02-12 00:00:00,Aggravated Assault,30.40362788,-97.70098336,2017.0,2.0,6.0,10.0,15.0
2017-02-10 19:05:00,ROBBERY BY ASSAULT,False,2017-02-10 20:27:00,STREETS / HWY / ROAD / ALLEY,500 E 7TH ST,78701.0,9.0,GE,2,382.0,11.0,True,2017-02-14 00:00:00,Robbery,30.26797616,-97.737619,2017.0,2.0,6.0,10.0,19.0
2017-02-10 19:06:00,ARMED ROBBERY,False,2017-02-10 19:06:00,RESIDENCE / HOME,5137 MEADOW CREEK DR,78745.0,3.0,DA,3,490.0,20.0,True,2017-06-08 00:00:00,Robbery,30.21376093,-97.78330874,2017.0,2.0,6.0,10.0,19.0
2017-02-10 20:02:00,AGG ASLT ENHANC STRANGL/SUFFOC,True,2017-02-10 20:02:00,RESIDENCE / HOME,2317 CORTA ST,78702.0,3.0,CH,1,419.0,,True,2017-02-11 00:00:00,Aggravated Assault,30.25643936,-97.71805217,2017.0,2.0,6.0,10.0,20.0
2017-02-10 21:00:00,AGG SEXUAL ASSAULT W OBJECT,False,2017-02-14 13:35:00,STREETS / HWY / ROAD / ALLEY,00 BLOCK IH 35 SVRD SB / E ANDERSON LN SVRD WB,78752.0,4.0,ID,8,264.0,18.0,False,2017-04-19 00:00:00,Rape,,,2017.0,2.0,6.0,10.0,21.0
2017-02-10 22:23:00,AGG ASLT STRANGLE/SUFFOCATE,True,2017-02-10 22:23:00,RESIDENCE / HOME,6834 E BEN WHITE BLVD SVRD WB,78741.0,3.0,HE,5,459.0,23.12,False,2017-03-01 00:00:00,Aggravated Assault,30.21463479,-97.70384725,2017.0,2.0,6.0,10.0,22.0
2017-02-11 00:02:00,AGG ASLT STRANGLE/SUFFOCATE,True,2017-02-11 00:07:00,STREETS / HWY / ROAD / ALLEY,600 BLOCK W 7TH ST,78701.0,9.0,GE,1,373.0,,True,2017-02-11 00:00:00,Aggravated Assault,30.2709462,-97.74821421,2017.0,2.0,6.0,11.0,0.0
2017-02-11 04:00:00,AGGRAVATED ASSAULT,False,2017-02-11 05:51:00,BAR / NIGHT CLUB,1200 W HOWARD LN,78660.0,7.0,ED,6,174.0,18.4,False,2017-04-02 00:00:00,Aggravated Assault,30.42418877,-97.66974492,2017.0,2.0,6.0,11.0,4.0
2017-02-11 10:00:00,AGG ASLT STRANGLE/SUFFOCATE,True,2017-02-11 12:27:00,RESIDENCE / HOME,515 E SLAUGHTER LN,78744.0,5.0,FR,7,543.0,24.25,True,2017-02-22 00:00:00,Aggravated Assault,30.16358782,-97.77878351,2017.0,2.0,6.0,11.0,10.0
2017-02-11 10:55:00,AGGRAVATED ASSAULT,False,2017-02-11 10:55:00,STREETS / HWY / ROAD / ALLEY,2700 S LAMAR BLVD,78704.0,5.0,DA,1,450.0,19.0,False,2017-02-16 00:00:00,Aggravated Assault,30.24539031,-97.78045246,2017.0,2.0,6.0,11.0,10.0
2017-02-11 13:56:00,AGGRAVATED ASSAULT,False,2017-02-11 15:09:00,RESIDENCE / HOME,1124 RUTLAND DR,78758.0,4.0,ED,1,239.0,18.22,True,2017-02-11 00:00:00,Aggravated Assault,30.36871033,-97.70372535,2017.0,2.0,6.0,11.0,13.0
2017-02-11 16:18:00,AGGRAVATED ASSAULT,False,2017-02-11 16:18:00,STREETS / HWY / ROAD / ALLEY,1500 E CESAR CHAVEZ ST,78702.0,3.0,CH,1,410.0,9.0,True,2017-02-22 00:00:00,Aggravated Assault,30.25895787,-97.72935475,2017.0,2.0,6.0,11.0,16.0
2017-02-11 16:26:00,AGG ASLT STRANGLE/SUFFOCATE,True,2017-02-11 16:26:00,RESIDENCE / HOME,2709 ZARAGOSA ST,78702.0,3.0,CH,2,422.0,,True,2017-02-11 00:00:00,Aggravated Assault,30.26360295,-97.70992763,2017.0,2.0,6.0,11.0,16.0
2017-02-11 18:30:00,AGG SEXUAL ASSAULT CHILD/OBJEC,True,2017-02-12 22:00:00,RESIDENCE / HOME,5500 BLOCK APPLE ORCHARD LN,78744.0,2.0,FR,6,496.0,,True,2017-05-30 00:00:00,Rape,,,2017.0,2.0,6.0,11.0,18.0
2017-02-11 20:00:00,ROBBERY BY ASSAULT,False,2017-02-11 21:17:00,STREETS / HWY / ROAD / ALLEY,4320 S CONGRESS AVE,78745.0,3.0,DA,3,491.0,20.0,True,2017-06-17 00:00:00,Robbery,30.21903307,-97.76718941,2017.0,2.0,6.0,11.0,20.0
2017-02-11 20:04:00,DEADLY CONDUCT,False,2017-02-11 20:04:00,STREETS / HWY / ROAD / ALLEY,WICKERSHAM LN / SUNRIDGE DR,78741.0,3.0,HE,4,484.0,23.13,False,2017-02-21 00:00:00,Aggravated Assault,30.22014513,-97.72638224,2017.0,2.0,6.0,11.0,20.0
2017-02-11 21:28:00,AGG ASLT STRANGLE/SUFFOCATE,True,2017-02-11 21:28:00,RESIDENCE / HOME,5000 SPRINGDALE RD,78723.0,1.0,CH,4,323.0,21.0,False,2017-03-16 00:00:00,Aggravated Assault,30.29340659,-97.67817798,2017.0,2.0,6.0,11.0,21.0
2017-02-11 23:00:00,AGG ASSAULT FAM/DATE VIOLENCE,True,2017-02-12 21:28:00,RESIDENCE / HOME,2317 S PLEASANT VALLEY RD,78741.0,3.0,HE,4,458.0,,True,2017-04-04 00:00:00,Aggravated Assault,30.22935819,-97.72621907,2017.0,2.0,6.0,11.0,23.0
2017-02-12 02:02:00,AGG ASLT STRANGLE/SUFFOCATE,True,2017-02-12 02:02:00,RESIDENCE / HOME,5114 HEFLIN LN,78721.0,1.0,CH,4,396.0,,True,2017-02-12 00:00:00,Aggravated Assault,30.28297464,-97.67699449,2017.0,2.0,6.0,12.0,2.0
2017-02-12 02:26:00,AGG ASLT ENHANC STRANGL/SUFFOC,True,2017-02-12 02:26:00,RESIDENCE / HOME,2504 NEW YORK DR,78702.0,1.0,CH,2,415.0,8.02,True,2017-02-17 00:00:00,Aggravated Assault,30.27394366,-97.71339206,2017.0,2.0,6.0,12.0,2.0
2017-02-12 03:48:00,DEADLY CONDUCT,False,2017-02-12 04:03:00,RESIDENCE / HOME,1054 SPRINGDALE RD,78721.0,1.0,CH,4,425.0,21.11,True,2017-03-09 00:00:00,Aggravated Assault,30.27185395,-97.69305203,2017.0,2.0,6.0,12.0,3.0
2017-02-12 04:27:00,ROBBERY BY THREAT,False,2017-02-12 06:18:00,CONVENIENCE STORE,1920 E RIVERSIDE DR,78741.0,3.0,HE,2,441.0,23.0,False,2017-03-03 00:00:00,Robbery,30.24250177,-97.72809745,2017.0,2.0,6.0,12.0,4.0
2017-02-12 09:35:00,AGG ASSAULT FAM/DATE VIOLENCE,True,2017-02-12 09:35:00,STREETS / HWY / ROAD / ALLEY,3500 WEBBERVILLE RD,78702.0,1.0,CH,2,416.0,8.0,True,2017-02-12 00:00:00,Aggravated Assault,30.27086096,-97.70602626,2017.0,2.0,6.0,12.0,9.0
2017-02-12 16:50:00,AGGRAVATED ASSAULT,False,2017-02-12 20:01:00,RESIDENCE / HOME,306 W RUNDBERG LN,78753.0,4.0,ED,1,240.0,18.23,True,2017-02-12 00:00:00,Aggravated Assault,30.36239452,-97.6945729,2017.0,2.0,6.0,12.0,16.0
2017-02-12 16:55:00,ARMED ROBBERY,False,2017-02-12 16:55:00,STREETS / HWY / ROAD / ALLEY,MOONGLOW DR / ASTRO VIEW DR,78724.0,1.0,CH,6,303.0,22.0,,,Robbery,30.2969457,-97.64450584,2017.0,2.0,6.0,12.0,16.0
2017-02-12 20:00:00,AGGRAVATED ASSAULT,False,2017-02-16 22:23:00,STREETS / HWY / ROAD / ALLEY,W 29TH ST / HEMPHILL PARK,78705.0,9.0,BA,1,361.0,6.0,False,2017-07-24 00:00:00,Aggravated Assault,30.29448166,-97.74090276,2017.0,2.0,6.0,12.0,20.0
2017-02-12 21:51:00,AGGRAVATED ASSAULT,False,2017-02-13 00:35:00,OTHER / UNKNOWN,10701 RESEARCH BLVD SVRD NB,78759.0,7.0,AD,1,215.0,17.53,True,2017-02-13 00:00:00,Aggravated Assault,30.39849733,-97.74527325,2017.0,2.0,6.0,12.0,21.0
2017-02-13 00:00:00,AGGRAVATED ASSAULT,False,2017-02-14 16:54:00,STREETS / HWY / ROAD / ALLEY,E STASSNEY LN / S CONGRESS AVE,78745.0,3.0,DA,3,515.0,24.0,False,2017-02-16 00:00:00,Aggravated Assault,30.20493874,-97.7747991,2017.0,2.0,7.0,13.0,0.0
2017-02-13 02:00:00,DEADLY CONDUCT,False,2017-02-22 11:01:00,CONSTRUCTION SITE,5600 S IH 35 SVRD SB,78745.0,3.0,DA,3,515.0,,False,2017-03-14 00:00:00,Aggravated Assault,30.1998133,-97.76359327,2017.0,2.0,7.0,13.0,2.0
2017-02-13 04:14:00,ROBBERY BY ASSAULT,False,2017-02-13 04:14:00,PARKING LOTS / GARAGE,2237 E RIVERSIDE DR,78741.0,3.0,HE,2,457.0,23.16,False,2017-03-10 00:00:00,Robbery,30.23820652,-97.72624311,2017.0,2.0,7.0,13.0,4.0
2017-02-13 08:21:00,AGG ASLT ENHANC STRANGL/SUFFOC,True,2017-02-13 09:51:00,COMMERCIAL / OFFICE BUILDING,611 S CONGRESS AVE,78704.0,9.0,HE,1,454.0,14.0,True,2017-02-13 00:00:00,Aggravated Assault,30.25534382,-97.7471366,2017.0,2.0,7.0,13.0,8.0
2017-02-13 15:00:00,RAPE OF A CHILD,False,2017-02-19 11:12:00,RESIDENCE / HOME,700 BLOCK WOODWARD ST,78704.0,3.0,DA,2,480.0,23.08,True,2017-10-25 00:00:00,Rape,,,2017.0,2.0,7.0,13.0,15.0
2017-02-13 17:29:00,AGGRAVATED ASSAULT,False,2017-02-13 17:29:00,RESIDENCE / HOME,9300 NORTH PLZ,78753.0,4.0,ED,3,251.0,18.13,False,2017-03-09 00:00:00,Aggravated Assault,30.35500615,-97.68519101,2017.0,2.0,7.0,13.0,17.0
2017-02-13 18:28:00,ROBBERY BY ASSAULT,False,2017-02-13 18:28:00,STREETS / HWY / ROAD / ALLEY,5707 MANOR RD,78723.0,1.0,ID,4,298.0,21.0,False,2017-02-15 00:00:00,Robbery,30.30512792,-97.68053078,2017.0,2.0,7.0,13.0,18.0
2017-02-13 18:30:00,ROBBERY BY ASSAULT,False,2017-02-13 18:30:00,STREETS / HWY / ROAD / ALLEY,9400 MIDDLE FISKVILLE RD,78753.0,4.0,ED,7,241.0,18.33,True,2017-02-13 00:00:00,Robbery,30.35776217,-97.68639664,2017.0,2.0,7.0,13.0,18.0
2017-02-13 19:00:00,AGGRAVATED ASSAULT,False,2017-02-14 12:26:00,STREETS / HWY / ROAD / ALLEY,1030 NORWOOD PARK BLVD,78753.0,4.0,ID,2,252.0,18.13,False,2017-03-07 00:00:00,Aggravated Assault,30.3391525,-97.69116892,2017.0,2.0,7.0,13.0,19.0
2017-02-13 19:09:00,AGGRAVATED ASSAULT,False,2017-02-13 19:09:00,OTHER / UNKNOWN,2400 WICKERSHAM LN,78741.0,3.0,HE,4,458.0,23.14,True,2017-02-14 00:00:00,Aggravated Assault,30.22764855,-97.72330072,2017.0,2.0,7.0,13.0,19.0
2017-02-13 20:30:00,AGG ASSAULT FAM/DATE VIOLENCE,True,2017-02-14 00:12:00,RESIDENCE / HOME,6916 RIFLE BND,78736.0,8.0,DA,6,68.0,,True,2017-02-14 00:00:00,Aggravated Assault,30.24236729,-97.88885863,2017.0,2.0,7.0,13.0,20.0
2017-02-13 20:30:00,ROBBERY BY ASSAULT,False,2017-02-13 21:12:00,STREETS / HWY / ROAD / ALLEY,9615 ABERDEEN WAY,78753.0,4.0,ED,7,241.0,18.33,True,2017-05-16 00:00:00,Robbery,30.35610347,-97.67627764,2017.0,2.0,7.0,13.0,20.0
2017-02-13 20:45:00,ROBBERY BY ASSAULT,False,2017-02-13 22:49:00,PARKING LOTS / GARAGE,1020 E 45TH ST,78751.0,9.0,BA,5,320.0,3.0,False,2017-02-16 00:00:00,Robbery,30.30432344,-97.716726,2017.0,2.0,7.0,13.0,20.0
2017-02-14 10:30:00,AGG ASSAULT FAM/DATE VIOLENCE,True,2017-02-15 00:58:00,RESIDENCE / HOME,9613 NIGHTJAR DR,78748.0,5.0,FR,1,535.0,17.46,True,2017-03-08 00:00:00,Aggravated Assault,30.18168931,-97.83433378,2017.0,2.0,7.0,14.0,10.0
2017-02-14 16:35:00,AGGRAVATED ASSAULT,False,2017-02-14 17:24:00,RESTAURANTS,5105 E STASSNEY LN,78744.0,2.0,FR,5,518.0,24.13,False,2017-03-02 00:00:00,Aggravated Assault,30.19303309,-97.73968942,2017.0,2.0,7.0,14.0,16.0
2017-02-14 19:00:00,AGG ASLT STRANGLE/SUFFOCATE,True,2017-02-16 21:00:00,PARKING LOTS / GARAGE,12611 RESEARCH BLVD NB,78727.0,6.0,AD,3,183.0,17.86,True,2017-02-24 00:00:00,Aggravated Assault,30.4313166,-97.76316864,2017.0,2.0,7.0,14.0,19.0
2017-02-14 22:00:00,RAPE,False,2017-02-16 18:33:00,RESIDENCE / HOME,2800 BLOCK RIO GRANDE ST,78705.0,9.0,BA,3,356.0,,True,2017-02-22 00:00:00,Rape,,,2017.0,2.0,7.0,14.0,22.0
2017-02-14 22:30:00,RAPE,True,2017-03-02 01:26:00,RESIDENCE / HOME,5700 BLOCK S MOPAC EXPY SVRD NB,78749.0,8.0,DA,4,79,17.5,True,2017-03-09 00:00:00,Rape,,,2017.0,2.0,7.0,14.0,22.0
2017-02-15 11:45:00,AGG SEXUAL ASSAULT W OBJECT,False,2017-02-16 00:12:00,HOTEL / MOTEL / ETC.,5500 BLOCK N IH 35 SVRD NB,78723.0,4.0,ID,5,292,21.05,False,2018-10-18 00:00:00,Rape,,,2017.0,2.0,7.0,15.0,11.0
2017-02-15 14:15:00,AGG ASSAULT WITH MOTOR VEH,False,2017-02-15 14:15:00,PARKING LOTS / GARAGE,2310 WICKERSHAM LN,78741.0,3.0,HE,4,458.0,23.14,True,2017-03-27 00:00:00,Aggravated Assault,30.22896354,-97.72237201,2017.0,2.0,7.0,15.0,14.0
2017-02-15 20:00:00,RAPE OF A CHILD,True,2017-03-08 20:47:00,RESIDENCE / HOME,700 BLOCK W WILLIAM CANNON DR,78745.0,2.0,FR,3,526.0,,True,2017-03-31 00:00:00,Rape,,,2017.0,2.0,7.0,15.0,20.0
2017-02-15 20:06:00,AGG ASSAULT WITH MOTOR VEH,False,2017-02-16 01:08:00,CONVENIENCE STORE,6518 ED BLUESTEIN BLVD SB,78723.0,1.0,CH,4,299.0,21.0,True,2017-02-16 00:00:00,Aggravated Assault,30.30332175,-97.66163497,2017.0,2.0,7.0,15.0,20.0
2017-02-15 20:17:00,AGG ASLT STRANGLE/SUFFOCATE,True,2017-02-15 20:17:00,RESIDENCE / HOME,900 BLOCK THOMPSON ST,78702.0,1.0,CH,2,416.0,,False,2017-03-15 00:00:00,Aggravated Assault,,,2017.0,2.0,7.0,15.0,20.0
2017-02-15 20:23:00,RAPE OF A CHILD,False,2017-10-10 20:23:00,RESIDENCE / HOME,1100 BLOCK DENFIELD ST,78721.0,3.0,CH,5,397,21.1,False,2017-10-11 00:00:00,Rape,,,2017.0,2.0,7.0,15.0,20.0
2017-02-15 23:30:00,AGGRAVATED ASSAULT,False,2017-02-16 00:35:00,LIQUOR STORE,2915 E MARTIN LUTHER KING JR BLVD,78702.0,1.0,CH,3,394.0,8.0,False,2017-02-16 00:00:00,Aggravated Assault,30.28177567,-97.70783339,2017.0,2.0,7.0,15.0,23.0
2017-02-16 03:00:00,RAPE,False,2017-02-16 17:10:00,RESIDENCE / HOME,8200 BLOCK SAM RAYBURN DR,78753.0,4.0,ED,1,250.0,18.0,False,2017-03-10 00:00:00,Rape,,,2017.0,2.0,7.0,16.0,3.0
2017-02-16 09:05:00,CONT SEX ABUSE OF CHILD,False,2018-01-24 09:05:00,HOTEL / MOTEL / ETC.,5100 BLOCK CREEK BEND DR,78744.0,2.0,FR,5,517.0,,True,2018-09-06 00:00:00,Rape,,,2017.0,2.0,7.0,16.0,9.0
2017-02-16 12:00:00,RAPE OF A CHILD,False,2017-03-27 20:26:00,STREETS / HWY / ROAD / ALLEY,900 BLOCK W NORTH LOOP BLVD,78756.0,7.0,ID,7,289.0,2.0,False,2017-06-02 00:00:00,Rape,,,2017.0,2.0,7.0,16.0,12.0
