occurred_date_time,highest_offense_description,family_violence,report_date_time,location_type,address,zip_code,council_district,apd_sector,apd_district,pra,census_tract,clearance_status,clearance_date,category_description,latitude,longitude,year,month,week,day,hour
2019-01-01 00:00:00,DEADLY CONDUCT,False,2019-01-01 14:21:00,RESIDENCE / HOME,1707 E 32ND ST,78722.0,9.0,CH,3,350.0,,False,2019-01-02 00:00:00,Aggravated Assault,30.28631466,-97.71634901,2019.0,1.0,1.0,1.0,0.0
2019-01-01 01:00:00,RAPE,False,2019-01-03 21:42:00,RESIDENCE / HOME,8700 BLOCK W SH 71,78736.0,8.0,DA,6,68.0,17.69,False,2019-03-18 00:00:00,Rape,,,2019.0,1.0,1.0,1.0,1.0
2019-01-01 01:00:00,AGG ASSAULT,False,2019-01-01 15:50:00,STREETS / HWY / ROAD / ALLEY,1034 CLAYTON LN,78723.0,1.0,ID,5,292.0,21.0,False,2019-01-02 00:00:00,Aggravated Assault,30.31954409,-97.70329309,2019.0,1.0,1.0,1.0,1.0
2019-01-01 01:12:00,AGG ASLT ENHANC STRANGL/SUFFOC,True,2019-01-01 01:12:00,RESIDENCE / HOME,409 NELRAY BLVD,78751.0,9.0,ID,6,653.0,,True,2019-01-01 00:00:00,Aggravated Assault,30.32115156,-97.72502913,2019.0,1.0,1.0,1.0,1.0
2019-01-01 01:20:00,AGG ASLT STRANGLE/SUFFOCATE,True,2019-01-01 01:20:00,RESIDENCE / HOME,3220 DUVAL RD,78759.0,7.0,AD,3,200.0,18.29,True,2019-01-09 00:00:00,Aggravated Assault,30.41069234,-97.71678989,2019.0,1.0,1.0,1.0,1.0
2019-01-01 02:30:00,AGG ASSAULT,False,2019-01-01 16:34:00,STREETS / HWY / ROAD / ALLEY,301 E 5TH ST,78701.0,9.0,GE,2,381.0,11.0,False,2019-01-30 00:00:00,Aggravated Assault,30.26613589,-97.74059297,2019.0,1.0,1.0,1.0,2.0
2019-01-01 03:00:00,AGG ASLT STRANGLE/SUFFOCATE,True,2019-01-01 05:06:00,RESIDENCE / HOME,1500 FARO DR,78741.0,3.0,HE,3,442.0,,True,2019-01-01 00:00:00,Aggravated Assault,30.23433705,-97.71398825,2019.0,1.0,1.0,1.0,3.0
2019-01-01 03:00:00,ROBBERY BY ASSAULT,False,2019-01-01 04:31:00,STREETS / HWY / ROAD / ALLEY,707 E 7TH ST,78701.0,9.0,GE,2,382.0,11.0,False,2019-01-09 00:00:00,Robbery,30.26676049,-97.73544642,2019.0,1.0,1.0,1.0,3.0
2019-01-01 03:34:00,AGG ASSAULT,False,2019-01-01 03:34:00,OTHER / UNKNOWN,1934 RUTLAND DR,78758.0,4.0,ED,2,219.0,18.21,False,2019-01-27 00:00:00,Aggravated Assault,30.37972058,-97.71302423,2019.0,1.0,1.0,1.0,3.0
2019-01-01 04:00:00,AGG ASLT STRANGLE/SUFFOCATE,True,2019-01-01 04:00:00,RESIDENCE / HOME,2901 BARTON SKWY,78746.0,8.0,DA,4,464.0,19.11,True,2019-01-01 00:00:00,Aggravated Assault,30.25873038,-97.78949342,2019.0,1.0,1.0,1.0,4.0
2019-01-01 05:00:00,AGG ASSAULT,False,2019-01-01 10:16:00,RESIDENCE / HOME,1802 WEST AVE,78701.0,9.0,BA,2,375.0,7.0,False,2019-04-02 00:00:00,Aggravated Assault,30.28224941,-97.74668193,2019.0,1.0,1.0,1.0,5.0
2019-01-01 05:24:00,AGG ASSAULT,False,2019-01-01 05:24:00,RESTAURANTS,707 E CESAR CHAVEZ ST,78701.0,9.0,GE,3,408.0,11.0,False,2019-01-22 00:00:00,Aggravated Assault,30.2609912,-97.73739174,2019.0,1.0,1.0,1.0,5.0
2019-01-01 08:00:00,SEXUAL ASSAULT OF CHILD/OBJECT,True,2020-03-05 13:07:00,RESIDENCE / HOME,2000 BLOCK AIRPORT BLVD,78722.0,1.0,CH,3,390.0,,False,2020-07-03 00:00:00,Rape,,,2019.0,1.0,1.0,1.0,8.0
2019-01-01 10:53:00,AGG ASSAULT,False,2019-01-01 10:53:00,STREETS / HWY / ROAD / ALLEY,4410 E RIVERSIDE DR,78741.0,3.0,HE,3,442.0,23.18,True,2019-03-27 00:00:00,Aggravated Assault,30.23354856,-97.72116797,2019.0,1.0,1.0,1.0,10.0
2019-01-01 11:19:00,DEADLY CONDUCT,False,2019-01-01 11:19:00,RESIDENCE / HOME,9201 SOUTHWICK DR,78724.0,1.0,CH,6,303.0,22.11,False,2019-01-02 00:00:00,Aggravated Assault,30.27805836,-97.62711168,2019.0,1.0,1.0,1.0,11.0
2019-01-01 11:22:00,RAPE,True,2019-01-01 11:22:00,HOTEL / MOTEL / ETC.,3900 BLOCK RED RIVER ST,78751.0,9.0,BA,5,332.0,3.02,False,2019-06-14 00:00:00,Rape,,,2019.0,1.0,1.0,1.0,11.0
2019-01-01 14:03:00,DEADLY CONDUCT,False,2019-01-01 14:03:00,RESIDENCE / HOME,9420 CHINA ROSE DR,78724.0,1.0,CH,6,303,22.11,False,2019-01-02 00:00:00,Aggravated Assault,30.27880146,-97.62375077,2019.0,1.0,1.0,1.0,14.0
2019-01-01 20:22:00,CONT SEX ABUSE OF CHILD,True,2020-04-23 20:22:00,RESIDENCE / HOME,2300 BLOCK DURWOOD ST,78704.0,9.0,DA,1,476.0,,True,2020-08-28 00:00:00,Rape,,,2019.0,1.0,1.0,1.0,20.0
2019-01-01 22:23:00,DEADLY CONDUCT,False,2019-01-01 22:23:00,RESIDENCE / HOME,7204 LAZY CREEK DR,78724.0,1.0,CH,7,300.0,,False,2019-01-03 00:00:00,Aggravated Assault,30.31275881,-97.65849211,2019.0,1.0,1.0,1.0,22.0
2019-01-01 23:28:00,AGG RAPE OF A CHILD,True,2019-07-18 23:28:00,RESIDENCE / HOME,1700 BLOCK SINGLETON AVE,78702.0,1.0,CH,3,393.0,8.03,True,2019-09-06 00:00:00,Rape,,,2019.0,1.0,1.0,1.0,23.0
2019-01-02 00:41:00,AGG ASSAULT FAM/DATE VIOLENCE,True,2019-01-02 00:41:00,,6906 DEEP CIR,78744.0,2.0,FR,8,530.0,24.27,True,2019-01-28 00:00:00,Aggravated Assault,30.18001185,-97.75801971,2019.0,1.0,1.0,2.0,0.0
2019-01-02 09:58:00,DEADLY CONDUCT,True,2019-01-02 09:58:00,PARKING LOTS / GARAGE,7000 DECKER LN,78724.0,1.0,CH,7,302.0,22.0,False,2019-02-07 00:00:00,Aggravated Assault,30.29674707,-97.62618511,2019.0,1.0,1.0,2.0,9.0
2019-01-02 10:03:00,SEXUAL ASSAULT OF CHILD/OBJECT,False,2019-01-02 10:03:00,RESIDENCE / HOME,1500 BLOCK RUTHERFORD LN,78754.0,1.0,ED,3,253.0,18.34,True,2019-03-29 00:00:00,Rape,,,2019.0,1.0,1.0,2.0,10.0
2019-01-02 15:14:00,AGG ASSAULT,False,2019-01-02 15:41:00,PARKING LOTS / GARAGE,12550 METRIC BLVD,78727.0,7.0,AD,3,828.0,18.48,False,2019-03-26 00:00:00,Aggravated Assault,30.41447766,-97.69025622,2019.0,1.0,1.0,2.0,15.0
2019-01-02 16:00:00,AGG ASSAULT,False,2019-01-03 10:32:00,OTHER / UNKNOWN,4700 BLOCK MANOR RD,78723.0,9.0,BA,4,900.0,3.0,True,2019-07-01 00:00:00,Aggravated Assault,,,2019.0,1.0,1.0,2.0,16.0
2019-01-02 16:10:00,ROBBERY BY THREAT,False,2019-01-02 16:10:00,CONVENIENCE STORE,2250 E BEN WHITE BLVD SVRD WB,78741.0,3.0,HE,2,482.0,23.0,True,2019-01-31 00:00:00,Robbery,30.21647703,-97.73915492,2019.0,1.0,1.0,2.0,16.0
2019-01-02 20:27:00,RAPE,False,2019-01-02 20:45:00,STREETS / HWY / ROAD / ALLEY,500 BLOCK E 6TH ST,78701.0,9.0,GE,2,382.0,11.0,False,2019-01-05 00:00:00,Rape,,,2019.0,1.0,1.0,2.0,20.0
2019-01-02 22:35:00,ROBBERY BY ASSAULT,False,2019-01-02 23:16:00,PARKING LOTS / GARAGE,9807 N FM 620 RD,78726.0,6.0,AD,8,178.0,,False,2019-01-11 00:00:00,Robbery,30.43741621,-97.83741843,2019.0,1.0,1.0,2.0,22.0
2019-01-03 02:27:00,AGG ASLT STRANGLE/SUFFOCATE,True,2019-01-03 02:27:00,PARKING LOTS / GARAGE,14233 THE LAKES BLVD,78660.0,7.0,ED,6,174.0,18.4,False,2019-01-09 00:00:00,Aggravated Assault,30.42925784,-97.6652471,2019.0,1.0,1.0,3.0,2.0
2019-01-03 09:04:00,AGG ROBBERY/DEADLY WEAPON,False,2019-01-03 10:07:00,AUTO DEALERSHIP NEW / USED,13300 N IH 35 SVRD SB,78753.0,7.0,ED,4,193.0,18.48,False,2019-03-12 00:00:00,Robbery,30.41890776,-97.67371178,2019.0,1.0,1.0,3.0,9.0
2019-01-03 14:32:00,AGG ASLT STRANGLE/SUFFOCATE,True,2019-01-03 14:32:00,RESIDENCE / HOME,8211 SPRING VALLEY DR,78736.0,8.0,DA,6,68.0,17.69,False,2019-01-09 00:00:00,Aggravated Assault,30.23902845,-97.89347264,2019.0,1.0,1.0,3.0,14.0
2019-01-03 15:00:00,FORCED SODOMY,False,2019-01-06 06:51:00,RESIDENCE / HOME,2900 BLOCK SAVILLE LOOP,78741.0,3.0,HE,2,482.0,23.0,True,2019-07-01 00:00:00,Rape,,,2019.0,1.0,1.0,3.0,15.0
2019-01-03 18:26:00,ROBBERY BY ASSAULT,False,2019-01-03 18:26:00,DEPARTMENT / DISCOUNT STORE,5017 W US 290 HWY SVRD EB,78749.0,8.0,DA,4,79.0,17.5,False,2019-02-19 00:00:00,Robbery,30.23395667,-97.82272228,2019.0,1.0,1.0,3.0,18.0
2019-01-03 19:18:00,AGG ASSAULT,False,2019-01-03 19:18:00,STREETS / HWY / ROAD / ALLEY,7010 W SH 71,78735.0,8.0,DA,6,61.0,19.0,True,2019-02-12 00:00:00,Aggravated Assault,30.23579838,-97.87599749,2019.0,1.0,1.0,3.0,19.0
2019-01-03 19:42:00,AGG ASSAULT,False,2019-01-03 19:42:00,STREETS / HWY / ROAD / ALLEY,214 HEARTWOOD DR,78745.0,3.0,DA,3,514.0,24.0,False,2019-03-01 00:00:00,Aggravated Assault,30.21267107,-97.77307112,2019.0,1.0,1.0,3.0,19.0
2019-01-03 20:06:00,AGG ASLT STRANGLE/SUFFOCATE,True,2019-01-03 20:06:00,STREETS / HWY / ROAD / ALLEY,8500 BLOCK RESEARCH BLVD SVRD SB,78757.0,7.0,ID,7,248.0,18.18,True,2019-01-04 00:00:00,Aggravated Assault,30.35956988,-97.71712697,2019.0,1.0,1.0,3.0,20.0
2019-01-04 00:32:00,AGG ASSAULT,False,2019-01-04 00:32:00,RESIDENCE / HOME,2302 GRANBERRY DR,78745.0,5.0,FR,1,525.0,17.28,False,2019-02-04 00:00:00,Aggravated Assault,30.20055311,-97.81257176,2019.0,1.0,1.0,4.0,0.0
2019-01-04 01:24:00,AGG ASLT STRANGLE/SUFFOCATE,True,2019-01-04 01:24:00,RESIDENCE / HOME,2800 LYONS RD,78702.0,3.0,CH,2,423.0,8.0,True,2019-01-04 00:00:00,Aggravated Assault,30.2640271,-97.7075398,2019.0,1.0,1.0,4.0,1.0
2019-01-04 05:33:00,AGG ASLT STRANGLE/SUFFOCATE,True,2019-01-04 05:33:00,RESIDENCE / HOME,907 THOMPSON ST,78702.0,1.0,CH,2,416,8.0,False,2019-01-15 00:00:00,Aggravated Assault,30.27070373,-97.7088221,2019.0,1.0,1.0,4.0,5.0
2019-01-04 05:55:00,AGG ASLT STRANGLE/SUFFOCATE,True,2019-01-04 05:55:00,HOTEL / MOTEL / ETC.,5901 N IH 35 SVRD NB,78723.0,4.0,ID,5,292.0,21.05,False,2019-01-04 00:00:00,Aggravated Assault,30.31950763,-97.70594123,2019.0,1.0,1.0,4.0,5.0
2019-01-04 07:30:00,AGG ASSAULT,False,2019-01-04 13:04:00,STREETS / HWY / ROAD / ALLEY,300 N IH 35 NB,78753.0,7.0,CH,1,409.0,18.39,False,2019-04-11 00:00:00,Aggravated Assault,30.26327483,-97.73553388,2019.0,1.0,1.0,4.0,7.0
2019-01-04 12:27:00,AGG ASSAULT,False,2019-01-04 12:27:00,STREETS / HWY / ROAD / ALLEY,1100 E CESAR CHAVEZ ST,78702.0,3.0,CH,1,410.0,9.0,False,2019-01-15 00:00:00,Aggravated Assault,30.26047437,-97.7333344,2019.0,1.0,1.0,4.0,12.0
2019-01-04 13:03:00,AGG ASSAULT,False,2019-01-04 13:03:00,PARKING LOTS / GARAGE,10815 FM 2222 RD,78730.0,6.0,AD,8,2201.0,17.6,False,2019-02-27 00:00:00,Aggravated Assault,30.39467528,-97.84755412,2019.0,1.0,1.0,4.0,13.0
2019-01-04 20:18:00,AGG ASSAULT FAM/DATE VIOLENCE,True,2019-01-04 20:18:00,OTHER / UNKNOWN,3128 MANOR RD,78723.0,1.0,BA,4,900.0,3.0,True,2019-01-28 00:00:00,Aggravated Assault,30.28681927,-97.70431788,2019.0,1.0,1.0,4.0,20.0
2019-01-04 22:00:00,AGG SEXUAL ASSAULT CHILD/OBJEC,False,2019-01-05 15:16:00,RESIDENCE / HOME,5200 BLOCK WOODLAND OAKS CT,78744.0,2.0,FR,5,495.0,,False,2019-02-12 00:00:00,Rape,,,2019.0,1.0,1.0,4.0,22.0
2019-01-04 23:00:00,AGG ASLT STRANGLE/SUFFOCATE,True,2019-02-04 14:00:00,RESIDENCE / HOME,10505 S IH 35 SVRD NB,78747.0,5.0,FR,7,547.0,,True,2019-02-19 00:00:00,Aggravated Assault,30.1457963,-97.79066483,2019.0,1.0,1.0,4.0,23.0
2019-01-04 23:00:00,RAPE,False,2019-03-08 22:26:00,RESIDENCE / HOME,2800 BLOCK S LAKELINE BLVD,78613.0,6.0,AD,6,118.0,203.18,True,2019-08-09 00:00:00,Rape,,,2019.0,1.0,1.0,4.0,23.0
2019-01-05 01:35:00,ROBBERY BY ASSAULT,False,2019-01-06 13:20:00,STREETS / HWY / ROAD / ALLEY,500 TRINITY ST,78701.0,9.0,GE,2,381.0,11.0,False,2019-04-08 00:00:00,Robbery,30.26624484,-97.73972505,2019.0,1.0,1.0,5.0,1.0
2019-01-05 01:36:00,AGG ASSAULT WITH MOTOR VEH,False,2019-01-05 01:36:00,STREETS / HWY / ROAD / ALLEY,1608 ANISE DR,78741.0,3.0,HE,5,444.0,,False,2019-01-05 00:00:00,Aggravated Assault,30.22381905,-97.6942606,2019.0,1.0,1.0,5.0,1.0
2019-01-05 01:42:00,AGG ROBBERY/DEADLY WEAPON,False,2019-01-05 01:42:00,PARKING LOTS / GARAGE,2211 W NORTH LOOP BLVD,78756.0,7.0,BA,6,656.0,,False,2019-12-04 00:00:00,Robbery,30.32478881,-97.74122979,2019.0,1.0,1.0,5.0,1.0
2019-01-05 02:00:00,RAPE,False,2019-01-15 14:18:00,RESIDENCE / HOME,00 BLOCK UNKOWN,,,,,,,False,2019-04-15 00:00:00,Rape,,,2019.0,1.0,1.0,5.0,2.0
2019-01-05 02:17:00,AGG ASSAULT,False,2019-01-05 02:17:00,BAR / NIGHT CLUB,10401 ANDERSON MILL RD,78750.0,6.0,AD,8,179.0,17.14,False,2019-01-21 00:00:00,Aggravated Assault,30.44650265,-97.80562383,2019.0,1.0,1.0,5.0,2.0
2019-01-05 03:00:00,ROBBERY BY ASSAULT,False,2019-01-05 03:31:00,STREETS / HWY / ROAD / ALLEY,700 RED RIVER ST,78701.0,9.0,GE,2,382.0,11.0,False,2019-02-14 00:00:00,Robbery,30.26751257,-97.73686469,2019.0,1.0,1.0,5.0,3.0
2019-01-05 10:30:00,AGG ASLT STRANGLE/SUFFOCATE,True,2019-01-07 20:29:00,STREETS / HWY / ROAD / ALLEY,6909 COLONY PARK DR,78724.0,1.0,CH,7,302.0,22.0,True,2019-01-09 00:00:00,Aggravated Assault,30.30143961,-97.64344557,2019.0,1.0,1.0,5.0,10.0
2019-01-05 16:55:00,AGG ASSAULT,False,2019-01-05 20:01:00,RESTAURANTS,2315 S CONGRESS AVE,78704.0,9.0,HE,1,478.0,,False,2019-01-15 00:00:00,Aggravated Assault,30.23935045,-97.75299097,2019.0,1.0,1.0,5.0,16.0
2019-01-05 17:41:00,AGG ASSAULT,False,2019-01-05 17:41:00,HOTEL / MOTEL / ETC.,5526 N IH 35 SVRD SB,78751.0,4.0,ID,6,291.0,21.0,False,2019-01-08 00:00:00,Aggravated Assault,30.31530425,-97.70845228,2019.0,1.0,1.0,5.0,17.0
2019-01-05 18:10:00,ROBBERY BY ASSAULT,False,2019-01-05 18:10:00,ABANDONED/CONDEMNED STRUCTURE,1512 WHELESS LN,78723.0,1.0,ID,5,293.0,21.0,False,2019-01-08 00:00:00,Robbery,30.31984179,-97.69208765,2019.0,1.0,1.0,5.0,18.0
2019-01-05 22:15:00,AGG ROBBERY/DEADLY WEAPON,False,2019-01-05 23:36:00,PARKING LOTS / GARAGE,12349 METRIC BLVD,78758.0,7.0,ED,4,204.0,,True,2019-01-07 00:00:00,Robbery,30.40977797,-97.69537019,2019.0,1.0,1.0,5.0,22.0
2019-01-05 22:45:00,RAPE,False,2019-01-07 00:28:00,RESIDENCE / HOME,3200 BLOCK W SLAUGHTER LN,78748.0,5.0,FR,1,99.0,17.46,False,2019-01-14 00:00:00,Rape,,,2019.0,1.0,1.0,5.0,22.0
2019-01-05 23:01:00,AGG ROBBERY/DEADLY WEAPON,False,2019-01-05 23:15:00,STREETS / HWY / ROAD / ALLEY,1200 E 5TH ST,78702.0,3.0,CH,1,410.0,9.0,False,2019-04-22 00:00:00,Robbery,30.26353937,-97.73081538,2019.0,1.0,1.0,5.0,23.0
2019-01-05 23:47:00,AGG ROBBERY/DEADLY WEAPON,False,2019-01-05 23:47:00,PARKING LOTS / GARAGE,1301 CROSSING PL,78741.0,3.0,HE,3,442.0,23.17,False,2019-06-10 00:00:00,Robbery,30.23653703,-97.71330141,2019.0,1.0,1.0,5.0,23.0
2019-01-06 00:01:00,ROBBERY BY ASSAULT,False,2019-01-06 03:57:00,STREETS / HWY / ROAD / ALLEY,SOUTHRIDGE DR / SOUTHPORT DR,78704.0,3.0,DA,2,468.0,20.0,False,2019-12-16 00:00:00,Robbery,30.23191319,-97.77738801,2019.0,1.0,1.0,6.0,0.0
2019-01-06 00:03:00,AGG ROBBERY/DEADLY WEAPON,False,2019-01-06 00:03:00,STREETS / HWY / ROAD / ALLEY,2500 AUDUBON PL,78741.0,3.0,HE,2,482.0,23.0,False,2019-01-06 00:00:00,Robbery,30.23115284,-97.7407878,2019.0,1.0,1.0,6.0,0.0
2019-01-06 01:18:00,AGG ASSAULT,False,2019-01-06 01:18:00,PARKING LOTS / GARAGE,1934 RUTLAND DR,78758.0,4.0,ED,2,219.0,18.21,False,2019-03-18 00:00:00,Aggravated Assault,30.37972058,-97.71302423,2019.0,1.0,1.0,6.0,1.0
2019-01-06 02:42:00,AGG ASSAULT,False,2019-01-06 02:42:00,STREETS / HWY / ROAD / ALLEY,60 EAST AVE,78701.0,9.0,GE,3,408.0,11.0,False,2019-01-17 00:00:00,Aggravated Assault,30.25786889,-97.73830893,2019.0,1.0,1.0,6.0,2.0
2019-01-06 07:10:00,AGG ASSAULT,False,2019-01-06 07:10:00,HOTEL / MOTEL / ETC.,810 RED RIVER ST,78701.0,9.0,GE,1,383.0,11.0,False,2019-09-03 00:00:00,Aggravated Assault,30.26915654,-97.73642123,2019.0,1.0,1.0,6.0,7.0
2019-01-06 07:25:00,AGG ASSAULT,False,2019-01-06 11:46:00,RESIDENCE / HOME,200 CONGRESS AVE,78701.0,9.0,GE,4,405.0,11.0,True,2019-01-11 00:00:00,Aggravated Assault,30.26459628,-97.74443007,2019.0,1.0,1.0,6.0,7.0
2019-01-06 09:18:00,AGG ROBBERY/DEADLY WEAPON,False,2019-01-06 11:07:00,CONVENIENCE STORE,1918 ROSEWOOD AVE,78702.0,1.0,CH,2,414.0,8.0,False,2019-06-26 00:00:00,Robbery,30.27006915,-97.71827547,2019.0,1.0,1.0,6.0,9.0
2019-01-06 10:13:00,RAPE,False,2019-01-06 10:13:00,RESIDENCE / HOME,14300 BLOCK N IH 35 SVRD NB,78660.0,7.0,ED,6,174.0,,True,2019-01-16 00:00:00,Rape,,,2019.0,1.0,1.0,6.0,10.0
2019-01-06 16:58:00,AGG ASLT STRANGLE/SUFFOCATE,True,2019-01-06 18:04:00,CONVENIENCE STORE,14200 N FM 620 RD NB,78729.0,6.0,AD,5,573.0,204.0,True,2019-01-07 00:00:00,Aggravated Assault,30.4765837,-97.76298975,2019.0,1.0,1.0,6.0,16.0
2019-01-06 19:29:00,AGG ASSAULT,False,2019-01-06 22:42:00,STREETS / HWY / ROAD / ALLEY,9100 BLOCK NORTH PLZ,78753.0,4.0,ED,3,251.0,18.13,False,2019-01-09 00:00:00,Aggravated Assault,30.35272161,-97.68670621,2019.0,1.0,1.0,6.0,19.0
2019-01-06 20:11:00,AGG ROBBERY/DEADLY WEAPON,False,2019-01-06 20:11:00,PARKING LOTS / GARAGE,1030 NORWOOD PARK BLVD,78753.0,4.0,ID,2,252.0,18.13,True,2019-02-20 00:00:00,Robbery,30.3391525,-97.69116892,2019.0,1.0,1.0,6.0,20.0
2019-01-06 21:21:00,AGG ASSAULT,False,2019-01-06 21:21:00,RESIDENCE / HOME,5207 WOODLAND OAKS CT,78744.0,2.0,FR,5,495.0,,False,2019-01-21 00:00:00,Aggravated Assault,30.19510752,-97.74325578,2019.0,1.0,1.0,6.0,21.0
2019-01-06 22:44:00,AGG ROBBERY/DEADLY WEAPON,False,2019-01-06 22:44:00,PARKING LOTS / GARAGE,1113 RUTLAND DR,78758.0,4.0,ED,1,238.0,18.19,False,2019-02-13 00:00:00,Robbery,30.36707309,-97.7016766,2019.0,1.0,1.0,6.0,22.0
2019-01-06 23:38:00,DEADLY CONDUCT,False,2019-01-06 23:38:00,STREETS / HWY / ROAD / ALLEY,300 E 6TH ST,78701.0,9.0,GE,2,381.0,11.0,True,2019-01-07 00:00:00,Aggravated Assault,30.2676012,-97.74015438,2019.0,1.0,1.0,6.0,23.0
2019-01-07 01:41:00,AGG ROBBERY/DEADLY WEAPON,False,2019-01-07 05:57:00,PARKING LOTS / GARAGE,7033 E US 290 HWY SVRD EB,78723.0,1.0,ID,3,294.0,21.12,False,2019-02-13 00:00:00,Robbery,30.32048257,-97.68608462,2019.0,1.0,2.0,7.0,1.0
2019-01-07 01:44:00,AGG ROBBERY/DEADLY WEAPON,False,2019-01-07 01:44:00,STREETS / HWY / ROAD / ALLEY,7211 NORTHEAST DR,78723.0,1.0,ID,3,296.0,21.13,False,2019-02-13 00:00:00,Robbery,30.32212322,-97.67923606,2019.0,1.0,2.0,7.0,1.0
2019-01-07 02:42:00,AGG ROBBERY/DEADLY WEAPON,False,2019-01-07 02:42:00,PARKING LOTS / GARAGE,6855 E US 290 HWY SVRD EB,78723.0,1.0,ID,3,294.0,21.12,True,2019-01-10 00:00:00,Robbery,30.32066659,-97.68767105,2019.0,1.0,2.0,7.0,2.0
2019-01-07 03:03:00,AGG ASSAULT WITH MOTOR VEH,False,2019-01-07 06:13:00,STREETS / HWY / ROAD / ALLEY,900 RED RIVER ST,78701.0,9.0,GE,1,383.0,11.0,True,2019-01-11 00:00:00,Aggravated Assault,30.26968892,-97.73636255,2019.0,1.0,2.0,7.0,3.0
2019-01-07 03:10:00,AGG ROBBERY/DEADLY WEAPON,False,2019-01-07 03:48:00,PARKING LOTS / GARAGE,1709 E SH 71 WB,78742.0,2.0,HE,8,500.0,23.1,False,2019-01-07 00:00:00,Robbery,30.22110956,-97.67151624,2019.0,1.0,2.0,7.0,3.0
2019-01-07 07:30:00,AGG ASSAULT,False,2019-01-07 11:33:00,RESIDENCE / HOME,7204 INSPIRATION DR,78724.0,1.0,CH,7,300.0,,False,2019-04-04 00:00:00,Aggravated Assault,30.30959869,-97.65375505,2019.0,1.0,2.0,7.0,7.0
2019-01-07 08:24:00,AGG ASLT STRANGLE/SUFFOCATE,True,2019-01-07 09:24:00,RESIDENCE / HOME,1521 REAGAN HILL DR,78752.0,4.0,ID,2,266.0,18.11,True,2019-01-07 00:00:00,Aggravated Assault,30.32573466,-97.68909512,2019.0,1.0,2.0,7.0,8.0
2019-01-07 21:37:00,AGG ASLT STRANGLE/SUFFOCATE,True,2019-01-07 21:37:00,CAMP / CAMPGROUND,11300 1/2 LAKELINE BLVD,78717.0,6.0,AD,5,573.0,203.11,False,2019-02-15 00:00:00,Aggravated Assault,30.48029618,-97.80061535,2019.0,1.0,2.0,7.0,21.0
2019-01-07 23:24:00,AGG ASSAULT FAM/DATE VIOLENCE,True,2019-01-07 23:24:00,RESIDENCE / HOME,3500 ESKEW DR,78749.0,8.0,DA,7,86.0,17.76,True,2019-01-07 00:00:00,Aggravated Assault,30.20340921,-97.83748922,2019.0,1.0,2.0,7.0,23.0
2019-01-08 06:53:00,AGG RAPE OF A CHILD,True,2019-01-08 06:53:00,OTHER / UNKNOWN,5800 BLOCK SWEENEY CIR,78723.0,1.0,ID,4,298.0,21.0,False,2019-01-15 00:00:00,Rape,,,2019.0,1.0,2.0,8.0,6.0
2019-01-08 20:24:00,AGG ASSAULT FAM/DATE VIOLENCE,True,2019-01-09 15:08:00,GAS / SERVICE STATIONS,7101 ED BLUESTEIN BLVD SVRD NB,78724.0,1.0,CH,7,300.0,22.0,False,2019-01-28 00:00:00,Aggravated Assault,30.31264535,-97.66162409,2019.0,1.0,2.0,8.0,20.0
2019-01-08 20:35:00,AGG ROBBERY/DEADLY WEAPON,False,2019-01-08 21:05:00,RESTAURANTS,7110 CAMERON RD,78752.0,4.0,ID,1,265.0,18.12,False,2019-01-30 00:00:00,Robbery,30.32600641,-97.6932061,2019.0,1.0,2.0,8.0,20.0
2019-01-08 22:03:00,SEXUAL ASSAULT OF CHILD/OBJECT,True,2019-01-08 22:03:00,RESIDENCE / HOME,2500 BLOCK DOVEMEADOW DR,78744.0,2.0,FR,5,517.0,24.12,False,2019-01-23 00:00:00,Rape,,,2019.0,1.0,2.0,8.0,22.0
2019-01-09 01:45:00,AGG ASSAULT,False,2019-01-09 01:45:00,RESIDENCE / HOME,2102 NOGALES TRL,78744.0,2.0,FR,8,530.0,24.27,False,2019-01-15 00:00:00,Aggravated Assault,30.18192002,-97.76620913,2019.0,1.0,2.0,9.0,1.0
2019-01-09 06:45:00,AGG SEXUAL ASSAULT CHILD/OBJEC,False,2019-01-09 17:11:00,OTHER / UNKNOWN,3000 BLOCK W WILLIAM CANNON DR,78745.0,5.0,DA,4,504.0,,True,2019-03-18 00:00:00,Rape,,,2019.0,1.0,2.0,9.0,6.0
2019-01-09 19:00:00,ROBBERY BY THREAT,False,2019-01-10 00:09:00,RESTAURANTS,6002 BURLESON RD,78744.0,2.0,FR,6,496.0,24.31,False,2019-02-20 00:00:00,Robbery,30.20668536,-97.71830669,2019.0,1.0,2.0,9.0,19.0
2019-01-09 21:24:00,AGG ASSAULT FAM/DATE VIOLENCE,True,2019-01-09 21:24:00,RESIDENCE / HOME,3226 W SLAUGHTER LN,78748.0,5.0,FR,1,99.0,,True,2019-01-14 00:00:00,Aggravated Assault,30.18153149,-97.84472743,2019.0,1.0,2.0,9.0,21.0
2019-01-09 21:37:00,SEXUAL ASSAULT OF CHILD/OBJECT,True,2019-01-09 21:37:00,RESIDENCE / HOME,8200 BLOCK RESEARCH BLVD SVRD SB,78757.0,7.0,ID,7,248.0,18.18,True,2019-01-09 00:00:00,Rape,,,2019.0,1.0,2.0,9.0,21.0
2019-01-10 01:25:00,AGG ASSAULT,False,2019-01-10 01:25:00,CONVENIENCE STORE,11724 RESEARCH BLVD SVRD SB,78759.0,10.0,AD,7,190.0,25.0,True,2019-01-10 00:00:00,Aggravated Assault,30.41934013,-97.74789664,2019.0,1.0,2.0,10.0,1.0
2019-01-10 04:52:00,AGG ASSAULT,False,2019-01-10 05:35:00,RESIDENCE / HOME,2302 DURWOOD ST,78704.0,9.0,DA,1,476.0,13.0,False,2019-03-25 00:00:00,Aggravated Assault,30.24193769,-97.7577335,2019.0,1.0,2.0,10.0,4.0
2019-01-10 07:22:00,AGG ROBBERY/DEADLY WEAPON,False,2019-01-10 13:01:00,RESIDENCE / HOME,8926 N LAMAR BLVD,78758.0,4.0,ED,1,237.0,18.19,False,2019-02-11 00:00:00,Robbery,30.35875709,-97.69972149,2019.0,1.0,2.0,10.0,7.0
2019-01-10 13:20:00,AGG ASLT STRANGLE/SUFFOCATE,True,2019-01-10 13:20:00,RESIDENCE / HOME,6201 SNEED CV,78744.0,2.0,FR,8,516.0,24.19,False,2019-01-23 00:00:00,Aggravated Assault,30.19394123,-97.76344868,2019.0,1.0,2.0,10.0,13.0
2019-01-10 14:00:00,AGG ASLT STRANGLE/SUFFOCATE,True,2019-01-10 16:13:00,RESIDENCE / HOME,1817 E OLTORF ST,78741.0,3.0,HE,2,482.0,23.07,True,2019-01-11 00:00:00,Aggravated Assault,30.2316152,-97.73645832,2019.0,1.0,2.0,10.0,14.0
2019-01-10 16:17:00,AGG ASSAULT,False,2019-01-10 16:17:00,STREETS / HWY / ROAD / ALLEY,SPRINGDALE RD / E US 290 HWY SVRD EB,78724.0,1.0,CH,7,268.0,22.0,False,2019-02-05 00:00:00,Aggravated Assault,30.32816792,-97.65526531,2019.0,1.0,2.0,10.0,16.0
2019-01-10 18:09:00,DEADLY CONDUCT,False,2019-01-10 18:09:00,STREETS / HWY / ROAD / ALLEY,1500 N LAMAR BLVD,78701.0,9.0,BA,2,375.0,6.0,False,2019-01-10 00:00:00,Aggravated Assault,30.27979482,-97.75070884,2019.0,1.0,2.0,10.0,18.0
2019-01-10 20:22:00,AGG ASSAULT WITH MOTOR VEH,False,2019-01-10 20:22:00,STREETS / HWY / ROAD / ALLEY,11700 HORNSBY ST,78753.0,7.0,ED,4,221.0,18.24,,,Aggravated Assault,30.38516538,-97.68192316,2019.0,1.0,2.0,10.0,20.0
2019-01-11 00:43:00,AGG ASSAULT ON PUBLIC SERVANT,False,2019-01-11 00:43:00,RESIDENCE / HOME,6509 TARA DR,78747.0,2.0,FR,7,600.0,24.26,True,2019-01-18 00:00:00,Aggravated Assault,30.16239639,-97.74100218,2019.0,1.0,2.0,11.0,0.0
2019-01-11 09:30:00,AGG ASSAULT,False,2019-01-11 12:16:00,PARKING LOTS / GARAGE,13810 GEELONG DR,78660.0,,ED,8,208.0,,True,2019-04-26 00:00:00,Aggravated Assault,30.39618182,-97.61546741,2019.0,1.0,2.0,11.0,9.0
2019-01-11 10:00:00,AGG ASLT STRANGLE/SUFFOCATE,True,2019-01-12 20:27:00,PARKING LOTS / GARAGE,13500 FM 2769 RD,78641.0,,88,88,6.0,17.65,True,2019-01-17 00:00:00,Aggravated Assault,30.44420623,-97.86555999,2019.0,1.0,2.0,11.0,10.0
2019-01-11 15:23:00,ROBBERY BY ASSAULT,False,2019-01-11 15:23:00,GOVERNMENT / PUBLIC BUILDING,710 W CESAR CHAVEZ ST,78701.0,9.0,GE,1,403.0,12.0,True,2019-01-11 00:00:00,Robbery,30.26612258,-97.75178431,2019.0,1.0,2.0,11.0,15.0
2019-01-11 16:22:00,ROBBERY BY ASSAULT,False,2019-01-11 16:23:00,OTHER / UNKNOWN,5800 WELLINGTON DR,78723.0,1.0,ID,4,295.0,21.0,False,2019-04-08 00:00:00,Robbery,30.31066814,-97.68829704,2019.0,1.0,2.0,11.0,16.0
2019-01-11 21:47:00,ROBBERY BY ASSAULT,False,2019-01-11 23:01:00,COMMUNITY CENTER,12901 N IH 35 SVRD NB,78753.0,7.0,ED,6,206.0,18.39,True,2019-02-14 00:00:00,Robbery,30.41525806,-97.67013449,2019.0,1.0,2.0,11.0,21.0
2019-01-12 02:00:00,RAPE,True,2019-01-26 11:44:00,RESIDENCE / HOME,700 BLOCK TURTLE CREEK BLVD,78745.0,2.0,FR,4,512.0,24.1,,,Rape,,,2019.0,1.0,2.0,12.0,2.0
2019-01-12 02:30:00,AGG ASLT STRANGLE/SUFFOCATE,True,2019-01-13 18:00:00,RESIDENCE / HOME,2101 BURTON DR,78741.0,3.0,HE,2,457.0,23.15,True,2019-01-17 00:00:00,Aggravated Assault,30.23255819,-97.73196698,2019.0,1.0,2.0,12.0,2.0
2019-01-12 03:17:00,AGG ASLT STRANGLE/SUFFOCATE,True,2019-01-12 03:17:00,RESIDENCE / HOME,502 W LONGSPUR BLVD,78753.0,4.0,ED,1,240.0,18.23,False,2019-01-22 00:00:00,Aggravated Assault,30.36685701,-97.69196728,2019.0,1.0,2.0,12.0,3.0
2019-01-12 03:46:00,ROBBERY BY ASSAULT,False,2019-01-12 03:46:00,STREETS / HWY / ROAD / ALLEY,400 BLOCK E 6TH ST,78701.0,9.0,GE,2,382.0,11.0,False,2019-01-17 00:00:00,Robbery,30.26735144,-97.73909331,2019.0,1.0,2.0,12.0,3.0
2019-01-12 05:04:00,ROBBERY BY THREAT,False,2019-01-12 05:07:00,CONVENIENCE STORE,13201 N FM 620 RD NB,78729.0,6.0,AD,5,153.0,204.0,True,2019-01-30 00:00:00,Robbery,30.46793555,-97.79250733,2019.0,1.0,2.0,12.0,5.0
2019-01-12 05:53:00,AGG ASSAULT,False,2019-01-12 07:30:00,CONVENIENCE STORE,8900 N LAMAR BLVD,78758.0,4.0,ED,1,237.0,18.19,False,2019-01-28 00:00:00,Aggravated Assault,30.35828676,-97.70039084,2019.0,1.0,2.0,12.0,5.0
2019-01-12 08:51:00,AGG ASSAULT,False,2019-01-12 08:51:00,OTHER / UNKNOWN,7309 CAMERON RD,78752.0,4.0,ID,2,266.0,18.11,True,2019-01-12 00:00:00,Aggravated Assault,30.32823802,-97.69018692,2019.0,1.0,2.0,12.0,8.0
2019-01-12 12:00:00,AGG ROBBERY BY ASSAULT,False,2019-01-12 12:05:00,SHOPPING MALL,1201 BARBARA JORDAN BLVD,78723.0,9.0,BA,4,900.0,3.0,True,2019-01-15 00:00:00,Robbery,30.30635272,-97.70916806,2019.0,1.0,2.0,12.0,12.0
2019-01-12 14:36:00,AGG ASSAULT,False,2019-01-12 17:03:00,PARKING LOTS / GARAGE,814 E RUNDBERG LN,78753.0,4.0,ED,7,241.0,18.33,False,2019-01-17 00:00:00,Aggravated Assault,30.35785478,-97.68661927,2019.0,1.0,2.0,12.0,14.0
2019-01-12 15:05:00,AGG ASSAULT FAM/DATE VIOLENCE,True,2019-01-12 15:05:00,RESIDENCE / HOME,6106 SANDSHOF DR,78724.0,1.0,CH,6,303.0,22.0,False,2019-01-16 00:00:00,Aggravated Assault,30.29454559,-97.64796402,2019.0,1.0,2.0,12.0,15.0
2019-01-12 17:14:00,RAPE,True,2019-02-12 17:14:00,RESIDENCE / HOME,200 BLOCK PEDERNALES ST,78702.0,3.0,CH,1,419.0,,False,2019-02-14 00:00:00,Rape,,,2019.0,1.0,2.0,12.0,17.0
2019-01-12 19:12:00,DEADLY CONDUCT,False,2019-01-12 19:12:00,CONVENIENCE STORE,1017 BARTON SPRINGS RD,78704.0,9.0,DA,1,452.0,13.0,True,2019-01-12 00:00:00,Aggravated Assault,30.25994458,-97.75543457,2019.0,1.0,2.0,12.0,19.0
2019-01-12 22:00:00,AGG ASLT STRANGLE/SUFFOCATE,True,2019-01-12 22:20:00,RESIDENCE / HOME,8600 N LAMAR BLVD,78758.0,4.0,ED,2,249.0,18.05,True,2019-01-13 00:00:00,Aggravated Assault,30.35465196,-97.70433696,2019.0,1.0,2.0,12.0,22.0
2019-01-12 22:17:00,DEADLY CONDUCT,False,2019-01-12 22:23:00,STREETS / HWY / ROAD / ALLEY,8024 HIDDEN VIEW CIR,78724.0,1.0,CH,6,303.0,,False,2019-02-14 00:00:00,Aggravated Assault,30.28761967,-97.64204326,2019.0,1.0,2.0,12.0,22.0
2019-01-12 23:30:00,RAPE,False,2019-01-13 20:07:00,PARKING LOTS / GARAGE,8800 BLOCK N IH 35 SVRD SB,78753.0,4.0,ED,1,250.0,18.06,False,2019-03-25 00:00:00,Rape,,,2019.0,1.0,2.0,12.0,23.0
2019-01-13 01:29:00,AGG ASLT STRANGLE/SUFFOCATE,True,2019-01-13 01:29:00,HOTEL / MOTEL / ETC.,11301 DOMAIN DR,78758.0,7.0,AD,2,201.0,18.49,True,2019-01-13 00:00:00,Aggravated Assault,30.39934257,-97.72453825,2019.0,1.0,2.0,13.0,1.0
2019-01-13 01:35:00,AGG ASSAULT,False,2019-01-13 07:11:00,STREETS / HWY / ROAD / ALLEY,2237 E RIVERSIDE DR,78741.0,3.0,HE,2,457.0,23.16,False,2019-01-13 00:00:00,Aggravated Assault,30.23820652,-97.72624311,2019.0,1.0,2.0,13.0,1.0
2019-01-13 03:15:00,AGG ASLT ENHANC STRANGL/SUFFOC,True,2019-01-13 03:15:00,STREETS / HWY / ROAD / ALLEY,4712 BOLM RD,78702.0,3.0,CH,2,426.0,21.11,True,2019-01-14 00:00:00,Aggravated Assault,30.26150795,-97.69576507,2019.0,1.0,2.0,13.0,3.0
2019-01-13 11:50:00,ROBBERY BY THREAT,False,2019-01-13 12:54:00,CONVENIENCE STORE,201 W BEN WHITE BLVD EB,78745.0,3.0,DA,3,491.0,13.0,True,2019-01-15 00:00:00,Robbery,30.22326428,-97.76478089,2019.0,1.0,2.0,13.0,11.0
2019-01-13 13:00:00,AGG ROBBERY/DEADLY WEAPON,False,2019-01-13 18:03:00,PARKING LOTS / GARAGE,7201 COLONY LOOP DR,78724.0,1.0,CH,7,302.0,22.0,False,2019-02-28 00:00:00,Robbery,30.30039276,-97.63603557,2019.0,1.0,2.0,13.0,13.0
2019-01-13 17:31:00,AGG ASSAULT FAM/DATE VIOLENCE,True,2019-01-13 17:31:00,RESIDENCE / HOME,1105 FLANAGAN CV,78704.0,3.0,DA,2,472.0,13.0,True,2019-01-15 00:00:00,Aggravated Assault,30.23947574,-97.7701907,2019.0,1.0,2.0,13.0,17.0
2019-01-13 18:00:00,AGG ROBBERY BY ASSAULT,True,2019-01-14 06:37:00,RESIDENCE / HOME,3005 CHEVIOT LN,78617.0,2.0,HE,8,500.0,,True,2019-01-17 00:00:00,Robbery,30.20632721,-97.64064432,2019.0,1.0,2.0,13.0,18.0
2019-01-13 18:50:00,ROBBERY BY ASSAULT,False,2019-01-13 18:50:00,DEPARTMENT / DISCOUNT STORE,2765 E 7TH ST,78702.0,3.0,CH,1,419.0,9.0,False,2019-03-04 00:00:00,Robbery,30.25964883,-97.71037407,2019.0,1.0,2.0,13.0,18.0
2019-01-13 18:58:00,AGG ASSAULT FAM/DATE VIOLENCE,True,2019-01-13 18:58:00,RESIDENCE / HOME,9308 S 1ST ST,78748.0,5.0,FR,2,542.0,24.21,True,2019-01-14 00:00:00,Aggravated Assault,30.17026497,-97.80173574,2019.0,1.0,2.0,13.0,18.0
2019-01-13 20:00:00,AGG ROBBERY/DEADLY WEAPON,False,2019-01-13 20:57:00,PARK / PLAYGROUND,13858 N US 183 HWY SVRD SB,78750.0,6.0,AD,6,152.0,204.0,True,2019-01-15 00:00:00,Robbery,30.46646105,-97.79749923,2019.0,1.0,2.0,13.0,20.0
2019-01-13 21:55:00,AGG ROBBERY/DEADLY WEAPON,False,2019-01-13 21:55:00,RESIDENCE / HOME,1124 RUTLAND DR,78758.0,4.0,ED,1,239.0,18.22,False,2019-03-19 00:00:00,Robbery,30.36871033,-97.70372535,2019.0,1.0,2.0,13.0,21.0
2019-01-13 23:00:00,AGG ASSAULT FAM/DATE VIOLENCE,True,2019-01-14 16:34:00,STREETS / HWY / ROAD / ALLEY,715 MAIN ST,78610.0,,88,88,1585.0,109.02,False,2019-01-28 00:00:00,Aggravated Assault,30.08578924,-97.83735227,2019.0,1.0,2.0,13.0,23.0
2019-01-13 23:54:00,AGG ASLT W/MOTOR VEH FAM/DAT V,True,2019-01-13 23:54:00,PARKING LOTS / GARAGE,9024 NORTHGATE BLVD,78758.0,4.0,ED,2,235,18.2,False,2019-01-29 00:00:00,Aggravated Assault,30.37025069,-97.71718296,2019.0,1.0,2.0,13.0,23.0
2019-01-14 01:15:00,AGG ROBBERY/DEADLY WEAPON,False,2019-01-14 01:15:00,PARKING LOTS / GARAGE,2207 WICKERSHAM LN,78741.0,3.0,HE,4,458.0,23.14,False,2019-01-14 00:00:00,Robbery,30.22899132,-97.72063244,2019.0,1.0,3.0,14.0,1.0
2019-01-14 01:27:00,AGG ASLT STRANGLE/SUFFOCATE,True,2019-01-14 01:27:00,PARKING LOTS / GARAGE,12221 N MOPAC EXPY SVRD NB,78758.0,7.0,AD,3,203.0,18.5,False,2019-01-21 00:00:00,Aggravated Assault,30.4142479,-97.70612296,2019.0,1.0,3.0,14.0,1.0
2019-01-14 08:43:00,AGG ASSAULT,False,2019-01-14 08:43:00,STREETS / HWY / ROAD / ALLEY,E 6TH ST / TRINITY ST,78701.0,9.0,GE,2,382.0,11.0,True,2019-01-14 00:00:00,Aggravated Assault,30.26706768,-97.73934174,2019.0,1.0,3.0,14.0,8.0
2019-01-14 12:45:00,AGG ASSAULT FAM/DATE VIOLENCE,True,2019-01-14 13:39:00,RESIDENCE / HOME,2301 DURWOOD ST,78704.0,9.0,DA,1,476.0,13.0,True,2019-01-25 00:00:00,Aggravated Assault,30.24184309,-97.7575428,2019.0,1.0,3.0,14.0,12.0
2019-01-14 15:11:00,ROBBERY BY ASSAULT,False,2019-01-14 16:01:00,DRUG STORE / DR. OFFICE / HOSPITAL,1701 BRIARCLIFF BLVD,78723.0,4.0,ID,4,295.0,21.0,False,2019-02-26 00:00:00,Robbery,30.31364843,-97.69224449,2019.0,1.0,3.0,14.0,15.0
2019-01-14 17:00:00,AGG ASSAULT FAM/DATE VIOLENCE,True,2019-01-15 13:16:00,OTHER / UNKNOWN,9400 GROUSE MEADOW LN,78758.0,4.0,ED,1,238.0,18.19,True,2019-02-10 00:00:00,Aggravated Assault,30.36723372,-97.7052183,2019.0,1.0,3.0,14.0,17.0
2019-01-14 17:06:00,AGG ASLT STRANGLE/SUFFOCATE,True,2019-01-14 17:06:00,PARKING LOTS / GARAGE,9971 QUAIL BLVD,78758.0,4.0,ED,1,239.0,18.22,True,2019-01-14 00:00:00,Aggravated Assault,30.37022695,-97.7002964,2019.0,1.0,3.0,14.0,17.0
2019-01-14 17:37:00,AGG ASSAULT FAM/DATE VIOLENCE,True,2019-01-14 17:37:00,STREETS / HWY / ROAD / ALLEY,501 E 8TH ST,78701.0,9.0,GE,2,382.0,11.0,True,2019-01-14 00:00:00,Aggravated Assault,30.26835472,-97.73743455,2019.0,1.0,3.0,14.0,17.0
2019-01-14 20:46:00,AGG ASLT STRANGLE/SUFFOCATE,True,2019-01-14 20:46:00,RESIDENCE / HOME,8071 N LAMAR BLVD NB,78753.0,4.0,ED,1,592.0,18.0,True,2019-01-15 00:00:00,Aggravated Assault,30.34835496,-97.71125368,2019.0,1.0,3.0,14.0,20.0
2019-01-15 00:18:00,RAPE OF A CHILD,False,2019-01-16 00:18:00,OTHER / UNKNOWN,1500 BLOCK GROVE BLVD,78741.0,3.0,HE,3,443.0,23.18,False,2019-05-14 00:00:00,Rape,,,2019.0,1.0,3.0,15.0,0.0
2019-01-15 00:40:00,AGG ASSAULT FAM/DATE VIOLENCE,True,2019-01-15 00:40:00,RESIDENCE / HOME,2104 BRUNSWICK DR,78723.0,1.0,ID,3,294.0,21.12,True,2019-01-15 00:00:00,Aggravated Assault,30.31601116,-97.6854528,2019.0,1.0,3.0,15.0,0.0
2019-01-15 02:00:00,RAPE,False,2019-01-17 14:41:00,RESIDENCE / HOME,1800 BLOCK HOLLY ST,78702.0,3.0,CH,1,409.0,10.0,False,2019-01-20 00:00:00,Rape,,,2019.0,1.0,3.0,15.0,2.0
2019-01-15 07:20:00,AGG ASSAULT,False,2019-01-15 07:20:00,PARK / PLAYGROUND,4800 COPPERBEND BLVD,78744.0,2.0,FR,5,495.0,24.13,False,2019-01-21 00:00:00,Aggravated Assault,30.19901395,-97.73936421,2019.0,1.0,3.0,15.0,7.0
2019-01-15 07:56:00,AGG ASSAULT,False,2019-01-15 07:56:00,STREETS / HWY / ROAD / ALLEY,2210 SANTA ROSA ST,78702.0,3.0,CH,1,419.0,,False,2019-03-04 00:00:00,Aggravated Assault,30.25858374,-97.71841229,2019.0,1.0,3.0,15.0,7.0
2019-01-15 10:36:00,DEADLY CONDUCT,False,2019-01-15 10:36:00,SCHOOL - ELEMENTARY / SECONDARY,1901 E BEN WHITE BLVD SVRD EB,78744.0,2.0,FR,6,494.0,24.11,False,2019-04-11 00:00:00,Aggravated Assault,30.21550142,-97.74680678,2019.0,1.0,3.0,15.0,10.0
2019-01-15 11:25:00,AGG ASLT STRANGLE/SUFFOCATE,True,2019-01-15 11:25:00,RESIDENCE / HOME,1109 S PLEASANT VALLEY RD,78741.0,3.0,HE,3,442.0,23.17,True,2019-01-31 00:00:00,Aggravated Assault,30.24136087,-97.71692105,2019.0,1.0,3.0,15.0,11.0
2019-01-15 14:55:00,AGG ASSAULT,False,2019-01-15 14:55:00,STREETS / HWY / ROAD / ALLEY,5008 CAPE VERDE CV,78744.0,2.0,FR,5,518.0,24.13,False,2019-03-11 00:00:00,Aggravated Assault,30.19353807,-97.74017927,2019.0,1.0,3.0,15.0,14.0
2019-01-15 20:35:00,AGG ROBBERY/DEADLY WEAPON,False,2019-01-15 20:35:00,RESIDENCE / HOME,2305 RIO GRANDE ST,78705.0,9.0,BA,1,359.0,6.0,False,2019-04-10 00:00:00,Robbery,30.287197,-97.7444894,2019.0,1.0,3.0,15.0,20.0
2019-01-15 21:00:00,RAPE,False,2019-04-22 13:26:00,RESIDENCE / HOME,2700 BLOCK SAN PEDRO ST,78705.0,9.0,BA,3,356,6.03,False,2019-05-17 00:00:00,Rape,,,2019.0,1.0,3.0,15.0,21.0
2019-01-15 22:36:00,AGG ASSAULT FAM/DATE VIOLENCE,True,2019-01-15 22:36:00,RESIDENCE / HOME,8312 N IH 35 SVRD SB,78753.0,4.0,ED,1,250.0,,True,2019-01-16 00:00:00,Aggravated Assault,30.34664576,-97.69657342,2019.0,1.0,3.0,15.0,22.0
2019-01-15 22:47:00,ROBBERY BY ASSAULT,False,2019-01-15 22:47:00,OTHER / UNKNOWN,1515 WICKERSHAM LN,78741.0,3.0,HE,3,442.0,23.18,False,2020-01-05 00:00:00,Robbery,30.23496305,-97.7183772,2019.0,1.0,3.0,15.0,22.0
2019-01-16 02:00:00,RAPE,False,2019-01-16 08:31:00,RESIDENCE / HOME,3100 BLOCK S IH 35 SVRD NB,78741.0,3.0,HE,2,482.0,23.07,False,2019-06-13 00:00:00,Rape,,,2019.0,1.0,3.0,16.0,2.0
2019-01-16 02:12:00,AGG ASLT STRANGLE/SUFFOCATE,True,2019-01-16 02:12:00,STREETS / HWY / ROAD / ALLEY,720 BASTROP HWY SB,78741.0,3.0,HE,5,444.0,23.12,True,2019-01-23 00:00:00,Aggravated Assault,30.23358128,-97.68592323,2019.0,1.0,3.0,16.0,2.0
2019-01-16 08:00:00,RAPE OF A CHILD,True,2019-01-20 21:56:00,RESIDENCE / HOME,2300 BLOCK DOUGLAS ST,78741.0,3.0,HE,2,483.0,23.13,True,2019-06-20 00:00:00,Rape,,,2019.0,1.0,3.0,16.0,8.0
2019-01-16 17:17:00,RAPE,False,2019-01-25 17:17:00,RESIDENCE / HOME,1000 BLOCK CLAYTON LN,78723.0,4.0,ID,5,292.0,21.05,False,2019-02-05 00:00:00,Rape,,,2019.0,1.0,3.0,16.0,17.0
2019-01-16 17:37:00,AGG ASSAULT,False,2019-01-16 17:37:00,STREETS / HWY / ROAD / ALLEY,4361 S CONGRESS AVE,78745.0,3.0,DA,3,492.0,24.0,True,2019-01-16 00:00:00,Aggravated Assault,30.21795096,-97.76657845,2019.0,1.0,3.0,16.0,17.0
2019-01-17 00:00:00,AGG ASLT STRANGLE/SUFFOCATE,True,2019-01-17 17:18:00,CAMP / CAMPGROUND,2819 FOSTER LN,78757.0,7.0,BA,6,259.0,15.0,False,2019-01-24 00:00:00,Aggravated Assault,30.35758583,-97.73887366,2019.0,1.0,3.0,17.0,0.0
2019-01-17 11:36:00,RAPE OF A CHILD,False,2019-01-17 11:36:00,RESIDENCE / HOME,1200 BLOCK E OLTORF ST,78704.0,9.0,DA,2,479.0,23.0,False,2019-02-12 00:00:00,Rape,,,2019.0,1.0,3.0,17.0,11.0
2019-01-17 12:00:00,RAPE,False,2019-01-20 04:15:00,RESIDENCE / HOME,600 BLOCK MASTERSON PASS,78753.0,4.0,ED,1,240.0,18.23,False,2019-05-29 00:00:00,Rape,,,2019.0,1.0,3.0,17.0,12.0
2019-01-17 12:12:00,RAPE,False,2019-01-17 12:12:00,RESIDENCE / HOME,4600 BLOCK W GUADALUPE ST,78751.0,9.0,BA,5,329.0,2.03,False,2019-02-13 00:00:00,Rape,,,2019.0,1.0,3.0,17.0,12.0
2019-01-17 13:55:00,SEXUAL ASSAULT W/ OBJECT,False,2019-01-17 13:55:00,BAR / NIGHT CLUB,6500 BLOCK N LAMAR BLVD,78757.0,7.0,ID,7,277.0,15.0,False,2019-01-20 00:00:00,Rape,,,2019.0,1.0,3.0,17.0,13.0
2019-01-17 14:20:00,AGG ASLT STRANGLE/SUFFOCATE,True,2019-01-17 14:20:00,RESIDENCE / HOME,412 E WILLIAM CANNON DR,78745.0,2.0,FR,4,515.0,24.0,False,2019-01-28 00:00:00,Aggravated Assault,30.19259606,-97.77497082,2019.0,1.0,3.0,17.0,14.0
2019-01-17 14:50:00,AGG ASLT W/MOTOR VEH FAM/DAT V,True,2019-01-18 09:00:00,STREETS / HWY / ROAD / ALLEY,5000 LEXINGTON MEADOW LN,78617.0,2.0,HE,7,611.0,24.33,False,2019-01-30 00:00:00,Aggravated Assault,30.17796954,-97.61754024,2019.0,1.0,3.0,17.0,14.0
2019-01-17 23:41:00,AGG ASSAULT,False,2019-01-17 23:41:00,STREETS / HWY / ROAD / ALLEY,1908 WAGON CROSSING PATH,78744.0,2.0,FR,5,517.0,24.12,True,2019-01-19 00:00:00,Aggravated Assault,30.1949182,-97.75909778,2019.0,1.0,3.0,17.0,23.0
2019-01-18 07:43:00,AGG ASSAULT FAM/DATE VIOLENCE,True,2019-01-18 07:43:00,RESIDENCE / HOME,1521 REAGAN HILL DR,78752.0,4.0,ID,2,266.0,18.11,True,2019-01-18 00:00:00,Aggravated Assault,30.32573466,-97.68909512,2019.0,1.0,3.0,18.0,7.0
2019-01-18 10:27:00,ROBBERY BY THREAT,False,2019-01-18 10:27:00,BANKS / SAVINGS & LOAN,11545 RESEARCH BLVD SVRD NB,78759.0,6.0,AD,2,199.0,17.54,True,2019-01-29 00:00:00,Robbery,30.41324186,-97.7452677,2019.0,1.0,3.0,18.0,10.0
2019-01-18 12:24:00,ROBBERY BY THREAT,False,2019-01-18 12:24:00,GAS / SERVICE STATIONS,13201 N US 183 HWY NB,78729.0,6.0,AD,4,162.0,,True,2019-01-31 00:00:00,Robbery,30.44182664,-97.78252085,2019.0,1.0,3.0,18.0,12.0
2019-01-18 12:42:00,ROBBERY BY THREAT,False,2019-01-18 12:42:00,ATM SEPARATE FROM BANK,6501 AIRPORT BLVD,78752.0,4.0,ID,8,279.0,15.0,True,2019-01-23 00:00:00,Robbery,30.32959567,-97.71547307,2019.0,1.0,3.0,18.0,12.0
2019-01-18 20:20:00,RAPE,False,2019-01-19 07:40:00,RESIDENCE / HOME,11900 BLOCK ANDERSON MILL RD,78613.0,,88,88,819.0,17.65,False,2019-02-08 00:00:00,Rape,,,2019.0,1.0,3.0,18.0,20.0
2019-01-18 21:00:00,AGG ASLT STRANGLE/SUFFOCATE,True,2019-01-18 22:13:00,STREETS / HWY / ROAD / ALLEY,2124 BURTON DR,78741.0,3.0,HE,2,457.0,23.15,True,2019-01-19 00:00:00,Aggravated Assault,30.23178517,-97.73358414,2019.0,1.0,3.0,18.0,21.0
2019-01-18 22:30:00,AGG ASLT STRANGLE/SUFFOCATE,True,2019-01-19 00:38:00,RESIDENCE / HOME,6500 CHAMPION GRANDVIEW WAY,78750.0,10.0,AD,7,213.0,,True,2019-01-28 00:00:00,Aggravated Assault,30.36434915,-97.79232466,2019.0,1.0,3.0,18.0,22.0
2019-01-18 23:00:00,AGG ASLT STRANGLE/SUFFOCATE,True,2019-02-12 19:21:00,HOTEL / MOTEL / ETC.,4200 S IH 35 SVRD SB,78745.0,3.0,DA,3,492.0,24.0,False,2019-02-13 00:00:00,Aggravated Assault,30.21494929,-97.7537948,2019.0,1.0,3.0,18.0,23.0
2019-01-19 01:30:00,ROBBERY BY ASSAULT,False,2019-01-19 05:03:00,STREETS / HWY / ROAD / ALLEY,100 E 5TH ST,78701.0,9.0,GE,2,381.0,11.0,False,2020-01-05 00:00:00,Robbery,30.26714488,-97.74302145,2019.0,1.0,3.0,19.0,1.0
2019-01-19 02:00:00,ROBBERY BY ASSAULT,False,2019-01-19 11:33:00,PARKING LOTS / GARAGE,8800 N IH 35 SVRD SB,78753.0,4.0,ED,1,250.0,18.0,False,2019-03-08 00:00:00,Robbery,30.35225082,-97.69282075,2019.0,1.0,3.0,19.0,2.0
2019-01-19 02:26:00,AGG ASLT STRANGLE/SUFFOCATE,True,2019-01-19 02:26:00,RESIDENCE / HOME,6806 S IH 35 SVRD SB,78745.0,2.0,FR,3,528.0,24.22,True,2019-01-21 00:00:00,Aggravated Assault,30.18809369,-97.77276311,2019.0,1.0,3.0,19.0,2.0
2019-01-19 02:28:00,AGG ASSAULT,False,2019-01-19 02:28:00,STREETS / HWY / ROAD / ALLEY,300 CONGRESS AVE,78701.0,9.0,GE,4,405.0,11.0,True,2019-01-29 00:00:00,Aggravated Assault,30.26535591,-97.74391225,2019.0,1.0,3.0,19.0,2.0
2019-01-19 17:00:00,AGG ASLT STRANGLE/SUFFOCATE,True,2019-01-21 17:00:00,HOTEL / MOTEL / ETC.,9120 N IH 35 SVRD SB,78753.0,4.0,ED,1,250.0,18.06,True,2019-02-06 00:00:00,Aggravated Assault,30.35685347,-97.68994508,2019.0,1.0,3.0,19.0,17.0
2019-01-20 03:00:00,RAPE,False,2019-01-22 12:45:00,RESIDENCE / HOME,500 BLOCK BATTLE BEND BLVD,78745.0,3.0,DA,3,492.0,24.0,True,2019-04-15 00:00:00,Rape,,,2019.0,1.0,3.0,20.0,3.0
2019-01-20 03:10:00,ROBBERY BY ASSAULT,False,2019-01-20 03:10:00,BAR / NIGHT CLUB,4141 GOVERNORS ROW,78744.0,2.0,FR,6,494.0,24.11,False,2019-01-20 00:00:00,Robbery,30.21364024,-97.7495705,2019.0,1.0,3.0,20.0,3.0
2019-01-20 03:18:00,SEXUAL ASSAULT W/ OBJECT,False,2019-01-20 05:13:00,RESIDENCE / HOME,10000 BLOCK BROWNIE DR,78753.0,4.0,ED,1,240.0,,False,2019-02-25 00:00:00,Rape,,,2019.0,1.0,3.0,20.0,3.0
2019-01-20 12:29:00,AGG ASSAULT FAM/DATE VIOLENCE,True,2019-01-20 12:29:00,RESIDENCE / HOME,7408 CREPE MYRTLE DR,78744.0,2.0,FR,7,532,,False,2019-01-23 00:00:00,Aggravated Assault,30.16397304,-97.73737381,2019.0,1.0,3.0,20.0,12.0
2019-01-20 13:51:00,RAPE,False,2019-01-20 16:34:00,RESIDENCE / HOME,1100 BLOCK GARDNER CV,78721.0,3.0,CH,5,428.0,21.11,False,2019-03-06 00:00:00,Rape,,,2019.0,1.0,3.0,20.0,13.0
2019-01-20 19:30:00,AGG ROBBERY/DEADLY WEAPON,False,2019-01-20 19:35:00,PARKING LOTS / GARAGE,12800 TURTLE ROCK RD,78729.0,6.0,AD,4,165.0,204.06,False,2019-06-20 00:00:00,Robbery,30.45157753,-97.7741391,2019.0,1.0,3.0,20.0,19.0
2019-01-20 20:28:00,AGG ROBBERY/DEADLY WEAPON,False,2019-01-24 15:16:00,PARKING LOTS / GARAGE,8600 N FM 620 RD,78726.0,6.0,AD,8,576.0,17.65,False,2019-02-05 00:00:00,Robbery,30.42518946,-97.84512323,2019.0,1.0,3.0,20.0,20.0
2019-01-20 21:09:00,DEADLY CONDUCT,False,2019-01-20 21:09:00,RESIDENCE / HOME,2104 DONAHUE LN,78744.0,2.0,FR,5,493,24.11,,,Aggravated Assault,30.20278005,-97.75124783,2019.0,1.0,3.0,20.0,21.0
2019-01-20 22:00:00,CAPITAL MURDER,False,2019-01-20 22:00:00,RESIDENCE / HOME,9036 N LAMAR BLVD,78758.0,4.0,ED,1,237.0,18.19,,,Murder,30.36030464,-97.69887365,2019.0,1.0,3.0,20.0,22.0
2019-01-20 22:21:00,AGG ASLT STRANGLE/SUFFOCATE,True,2019-01-20 22:21:00,RESIDENCE / HOME,1300 E RIVERSIDE DR,78741.0,9.0,HE,2,441.0,23.04,True,2019-01-21 00:00:00,Aggravated Assault,30.24849791,-97.73393882,2019.0,1.0,3.0,20.0,22.0
2019-01-20 22:37:00,AGG ASLT STRANGLE/SUFFOCATE,True,2019-01-20 22:37:00,RESIDENCE / HOME,2809 W WILLIAM CANNON DR,78745.0,5.0,FR,1,98.0,17.29,True,2019-01-21 00:00:00,Aggravated Assault,30.20758275,-97.81858198,2019.0,1.0,3.0,20.0,22.0
2019-01-21 00:07:00,AGG ASSAULT FAM/DATE VIOLENCE,True,2019-01-21 00:51:00,PARKING LOTS / GARAGE,9133 NORTHGATE BLVD,78758.0,4.0,ED,2,235.0,18.2,True,2019-01-21 00:00:00,Aggravated Assault,30.3711701,-97.71587339,2019.0,1.0,4.0,21.0,0.0
2019-01-21 01:39:00,AGG ROBBERY/DEADLY WEAPON,False,2019-01-21 01:39:00,PARKING LOTS / GARAGE,744 W WILLIAM CANNON DR,78745.0,2.0,FR,4,512.0,24.1,False,2019-01-22 00:00:00,Robbery,30.19835668,-97.78926252,2019.0,1.0,4.0,21.0,1.0
2019-01-21 02:32:00,AGG ASLT STRANGLE/SUFFOCATE,True,2019-01-21 02:32:00,RESIDENCE / HOME,10010 BROWNIE DR,78753.0,4.0,ED,1,240.0,,True,2019-01-30 00:00:00,Aggravated Assault,30.36603863,-97.68575715,2019.0,1.0,4.0,21.0,2.0
2019-01-21 05:56:00,AGG ASSAULT FAM/DATE VIOLENCE,True,2019-01-21 05:56:00,HOTEL / MOTEL / ETC.,9420 N IH 35 SVRD SB,78753.0,4.0,ED,1,240.0,18.23,True,2019-01-21 00:00:00,Aggravated Assault,30.35979391,-97.688358,2019.0,1.0,4.0,21.0,5.0
2019-01-21 18:10:00,AGG ASSAULT,False,2019-01-21 18:10:00,STREETS / HWY / ROAD / ALLEY,5812 N IH 35 SVRD SB,78751.0,4.0,ID,6,291.0,,False,2019-01-29 00:00:00,Aggravated Assault,30.3198323,-97.70796135,2019.0,1.0,4.0,21.0,18.0
2019-01-21 19:33:00,ROBBERY BY THREAT,False,2019-01-21 19:33:00,CONVENIENCE STORE,5301 E STASSNEY LN,78744.0,2.0,FR,6,519.0,24.31,True,2019-02-27 00:00:00,Robbery,30.19247448,-97.73831768,2019.0,1.0,4.0,21.0,19.0
2019-01-21 22:35:00,AGG ROBBERY/DEADLY WEAPON,False,2019-01-21 22:44:00,GAS / SERVICE STATIONS,12800 PEARCE LN,78617.0,2.0,HE,7,778.0,24.33,True,2019-01-22 00:00:00,Robbery,30.16925033,-97.62218829,2019.0,1.0,4.0,21.0,22.0
2019-01-21 23:00:00,AGG ASSAULT,False,2019-01-21 23:46:00,PARKING LOTS / GARAGE,7610 CAMERON RD,78752.0,4.0,ID,1,265.0,18.12,False,2019-02-07 00:00:00,Aggravated Assault,30.33173988,-97.6883503,2019.0,1.0,4.0,21.0,23.0
2019-01-22 09:00:00,RAPE,False,2019-01-22 19:49:00,RESIDENCE / HOME,7500 BLOCK EASTCREST DR,78752.0,4.0,ID,8,264,18.0,False,2019-01-23 00:00:00,Rape,,,2019.0,1.0,4.0,22.0,9.0
2019-01-22 11:40:00,AGG ASLT STRANGLE/SUFFOCATE,True,2019-01-22 14:57:00,RESIDENCE / HOME,8104 WILLET TRL,78745.0,5.0,FR,1,525.0,,True,2019-01-25 00:00:00,Aggravated Assault,30.19714841,-97.82700957,2019.0,1.0,4.0,22.0,11.0
2019-01-22 11:52:00,ROBBERY BY ASSAULT,False,2019-01-22 11:52:00,PARKING LOTS / GARAGE,13858 N US 183 HWY SVRD SB,78750.0,6.0,AD,6,152.0,204.0,False,2019-07-11 00:00:00,Robbery,30.46646105,-97.79749923,2019.0,1.0,4.0,22.0,11.0
2019-01-22 14:22:00,AGG ASLT STRANGLE/SUFFOCATE,True,2019-01-22 18:42:00,RESIDENCE / HOME,2205 PERRY AVE,78704.0,9.0,DA,1,471.0,13.0,False,2019-01-28 00:00:00,Aggravated Assault,30.24611394,-97.76505692,2019.0,1.0,4.0,22.0,14.0
2019-01-22 18:30:00,AGG RAPE OF A CHILD,False,2019-01-25 21:54:00,RESIDENCE / HOME,4500 BLOCK FINLEY DR,78731.0,7.0,BA,6,316.0,1.0,False,2019-05-21 00:00:00,Rape,,,2019.0,1.0,4.0,22.0,18.0
2019-01-22 19:30:00,ROBBERY BY ASSAULT,False,2019-01-22 20:27:00,STREETS / HWY / ROAD / ALLEY,800 RUTLAND DR,78758.0,4.0,ED,1,239.0,18.22,False,2019-04-10 00:00:00,Robbery,30.36507842,-97.69628833,2019.0,1.0,4.0,22.0,19.0
2019-01-22 19:38:00,AGG ASSAULT,False,2019-01-22 19:38:00,HOTEL / MOTEL / ETC.,6201 E US 290 HWY SVRD EB,78723.0,1.0,ID,5,292.0,,False,2019-01-23 00:00:00,Aggravated Assault,30.32143685,-97.70278181,2019.0,1.0,4.0,22.0,19.0
2019-01-22 22:00:00,RAPE,True,2019-01-24 14:36:00,PARKING LOTS / GARAGE,4400 BLOCK E OLTORF ST,78741.0,3.0,HE,4,458.0,23.14,False,2019-04-04 00:00:00,Rape,,,2019.0,1.0,4.0,22.0,22.0
2019-01-23 07:24:00,AGG ASSAULT,False,2019-01-23 07:24:00,HOTEL / MOTEL / ETC.,400 E 4TH ST,78701.0,9.0,GE,2,382.0,11.0,False,2019-01-31 00:00:00,Aggravated Assault,30.26521249,-97.73981298,2019.0,1.0,4.0,23.0,7.0
2019-01-23 11:58:00,ROBBERY BY ASSAULT,False,2019-01-23 11:58:00,DEPARTMENT / DISCOUNT STORE,10107 RESEARCH BLVD SVRD NB,78759.0,7.0,AD,1,215.0,17.53,True,2019-01-28 00:00:00,Robbery,30.39283708,-97.74418151,2019.0,1.0,4.0,23.0,11.0
2019-01-23 13:48:00,SEXUAL ASSAULT OF CHILD/OBJECT,False,2019-02-13 13:48:00,RESIDENCE / HOME,1300 BLOCK W PARMER LN,78727.0,7.0,ED,4,193.0,18.48,True,2019-02-21 00:00:00,Rape,,,2019.0,1.0,4.0,23.0,13.0
2019-01-23 15:28:00,AGG ASLT ENHANC STRANGL/SUFFOC,True,2019-01-23 15:28:00,STREETS / HWY / ROAD / ALLEY,11300 N IH 35 SVRD SB,78753.0,7.0,ED,4,221.0,18.24,True,2019-01-31 00:00:00,Aggravated Assault,30.37774224,-97.6764808,2019.0,1.0,4.0,23.0,15.0
2019-01-23 18:35:00,ROBBERY BY ASSAULT,False,2019-01-23 19:10:00,RESIDENCE / HOME,2014 TRAMSON DR,78741.0,3.0,HE,2,482.0,23.07,True,2019-02-08 00:00:00,Robbery,30.22611881,-97.73829736,2019.0,1.0,4.0,23.0,18.0
2019-01-23 19:00:00,RAPE,True,2019-01-27 11:35:00,RESIDENCE / HOME,8200 BLOCK SAM RAYBURN DR,78753.0,4.0,ED,1,250.0,,False,2019-04-04 00:00:00,Rape,,,2019.0,1.0,4.0,23.0,19.0
2019-01-23 23:56:00,AGG ASLT W/MOTOR VEH FAM/DAT V,True,2019-01-23 23:56:00,PARKING LOTS / GARAGE,6700 MIDDLE FISKVILLE RD,78752.0,4.0,ID,8,279.0,15.0,True,2019-01-24 00:00:00,Aggravated Assault,30.32856344,-97.70736232,2019.0,1.0,4.0,23.0,23.0
2019-01-24 02:51:00,AGG ASLT STRANGLE/SUFFOCATE,True,2019-01-24 02:51:00,RESIDENCE / HOME,12370 ALAMEDA TRACE CIR,78727.0,6.0,AD,3,183.0,17.86,True,2019-02-13 00:00:00,Aggravated Assault,30.43235896,-97.74673805,2019.0,1.0,4.0,24.0,2.0
2019-01-24 07:28:00,FORCED SODOMY,False,2019-01-24 07:28:00,DRUG STORE / DR. OFFICE / HOSPITAL,4100 BLOCK GUADALUPE ST,78751.0,9.0,BA,5,330.0,2.0,False,2019-02-08 00:00:00,Rape,,,2019.0,1.0,4.0,24.0,7.0
2019-01-24 10:36:00,AGG ASLT STRANGLE/SUFFOCATE,True,2019-01-24 10:36:00,HOTEL / MOTEL / ETC.,7100 N IH 35 SVRD SB,78752.0,4.0,ID,8,279.0,15.0,True,2019-01-25 00:00:00,Aggravated Assault,30.3324806,-97.70524551,2019.0,1.0,4.0,24.0,10.0
2019-01-24 13:57:00,ROBBERY BY ASSAULT,False,2019-01-24 13:57:00,SPECIALTY  STORE (TV  FUR ETC.),2901 S CAPITAL OF TEXAS HWY NB,78746.0,8.0,DA,5,462.0,19.1,False,2019-01-30 00:00:00,Robbery,30.25788603,-97.80700704,2019.0,1.0,4.0,24.0,13.0
2019-01-24 14:41:00,AGG ASSAULT FAM/DATE VIOLENCE,True,2019-01-24 17:40:00,RESIDENCE / HOME,6712 TULLOCH WAY,78754.0,1.0,CH,8,226.0,18.56,True,2019-01-25 00:00:00,Aggravated Assault,30.3545147,-97.61101534,2019.0,1.0,4.0,24.0,14.0
2019-01-24 15:25:00,AGG ASSAULT,False,2019-01-24 15:25:00,OTHER / UNKNOWN,2605 S IH 35 SVRD NB,78741.0,3.0,HE,2,482.0,23.0,True,2019-01-24 00:00:00,Aggravated Assault,30.23001189,-97.74257626,2019.0,1.0,4.0,24.0,15.0
2019-01-24 15:50:00,AGG ROBBERY/DEADLY WEAPON,False,2019-01-24 15:50:00,RESTAURANTS,9306 N LAMAR BLVD,78758.0,4.0,ED,1,237.0,,True,2019-01-28 00:00:00,Robbery,30.36254566,-97.69817811,2019.0,1.0,4.0,24.0,15.0
2019-01-24 16:38:00,ROBBERY BY ASSAULT,False,2019-01-24 16:38:00,DEPARTMENT / DISCOUNT STORE,3311 ESPERANZA XING,78758.0,7.0,AD,2,201.0,18.49,False,2019-01-29 00:00:00,Robbery,30.40007896,-97.72693922,2019.0,1.0,4.0,24.0,16.0
2019-01-24 17:53:00,AGG ASSAULT,False,2019-01-24 17:53:00,CONSTRUCTION SITE,2200 NUECES ST,78705.0,9.0,BA,1,359.0,6.0,,,Aggravated Assault,30.28541375,-97.74416644,2019.0,1.0,4.0,24.0,17.0
2019-01-24 20:44:00,AGG ASLT STRANGLE/SUFFOCATE,True,2019-01-24 21:10:00,RESIDENCE / HOME,10702 PLAINS TRL,78758.0,4.0,ED,1,239.0,18.22,True,2019-01-24 00:00:00,Aggravated Assault,30.37982631,-97.69577082,2019.0,1.0,4.0,24.0,20.0
2019-01-24 21:00:00,ROBBERY BY ASSAULT,False,2019-01-24 22:09:00,PARKING LOTS / GARAGE,601 W SLAUGHTER LN,78748.0,5.0,FR,2,542.0,24.21,False,2019-05-13 00:00:00,Robbery,30.17246219,-97.80019363,2019.0,1.0,4.0,24.0,21.0
2019-01-24 21:50:00,ROBBERY BY ASSAULT,False,2019-01-24 22:15:00,STREETS / HWY / ROAD / ALLEY,2100 KRAMER LN,78758.0,4.0,AD,2,202.0,18.49,False,2019-04-22 00:00:00,Robbery,30.39012538,-97.711685,2019.0,1.0,4.0,24.0,21.0
2019-01-25 02:01:00,AGG ASLT STRANGLE/SUFFOCATE,True,2019-01-25 02:01:00,RESIDENCE / HOME,4646 MUELLER BLVD,78723.0,9.0,BA,4,900.0,,True,2019-01-25 00:00:00,Aggravated Assault,30.29986863,-97.70708128,2019.0,1.0,4.0,25.0,2.0
2019-01-25 02:32:00,ROBBERY BY ASSAULT,False,2019-01-25 02:32:00,STREETS / HWY / ROAD / ALLEY,714 E 8TH ST,78701.0,9.0,GE,1,383.0,11.0,False,2019-02-20 00:00:00,Robbery,30.26804621,-97.73442641,2019.0,1.0,4.0,25.0,2.0
2019-01-25 03:00:00,ROBBERY BY THREAT,False,2019-01-25 03:17:00,OTHER / UNKNOWN,3800 BLOCK SOUTHRIDGE DR,78704.0,5.0,DA,2,468.0,20.05,False,2019-02-06 00:00:00,Robbery,30.23150623,-97.77739244,2019.0,1.0,4.0,25.0,3.0
2019-01-25 06:28:00,AGG ASSAULT FAM/DATE VIOLENCE,True,2019-01-25 08:10:00,RESIDENCE / HOME,1124 RUTLAND DR,78758.0,4.0,ED,1,239.0,18.22,True,2019-01-25 00:00:00,Aggravated Assault,30.36871033,-97.70372535,2019.0,1.0,4.0,25.0,6.0
2019-01-25 07:40:00,AGG ROBBERY/DEADLY WEAPON,False,2019-01-25 09:51:00,DEPARTMENT / DISCOUNT STORE,2025 GUADALUPE ST,78705.0,9.0,BA,1,362.0,6.0,True,2019-01-25 00:00:00,Robbery,30.28362462,-97.74164752,2019.0,1.0,4.0,25.0,7.0
2019-01-25 16:20:00,ROBBERY BY THREAT,False,2019-01-25 16:25:00,BANKS / SAVINGS & LOAN,3900 N IH 35 SVRD SB,78751.0,9.0,BA,5,332.0,3.0,True,2019-02-19 00:00:00,Robbery,30.29592306,-97.71951783,2019.0,1.0,4.0,25.0,16.0
2019-01-25 17:55:00,CAPITAL MURDER,False,2019-01-25 17:55:00,STREETS / HWY / ROAD / ALLEY,8100 BLOCK SONNET AVE,78759.0,10.0,BA,8,231.0,17.07,True,2019-01-25 00:00:00,Murder,30.36601926,-97.74599571,2019.0,1.0,4.0,25.0,17.0
2019-01-25 21:05:00,AGG ROBBERY/DEADLY WEAPON,False,2019-01-25 21:10:00,HOTEL / MOTEL / ETC.,6201 E US 290 HWY SVRD EB,78723.0,1.0,ID,5,292.0,21.0,False,2019-04-23 00:00:00,Robbery,30.32143685,-97.70278181,2019.0,1.0,4.0,25.0,21.0
2019-01-25 23:43:00,DEADLY CONDUCT,False,2019-01-25 23:43:00,STREETS / HWY / ROAD / ALLEY,200 E STASSNEY LN,78745.0,3.0,DA,3,515.0,24.0,True,2019-01-28 00:00:00,Aggravated Assault,30.20452528,-97.77351499,2019.0,1.0,4.0,25.0,23.0
2019-01-26 00:00:00,ROBBERY BY ASSAULT,False,2019-01-26 07:30:00,STREETS / HWY / ROAD / ALLEY,715 E 8TH ST,78701.0,9.0,GE,2,382.0,11.0,False,2019-02-08 00:00:00,Robbery,30.26755343,-97.73467415,2019.0,1.0,4.0,26.0,0.0
2019-01-26 00:30:00,AGG ASSAULT,False,2019-01-26 01:39:00,RESIDENCE / HOME,1708 RUTLAND DR,78758.0,4.0,ED,2,219.0,,False,2019-02-13 00:00:00,Aggravated Assault,30.37452301,-97.71049777,2019.0,1.0,4.0,26.0,0.0
2019-01-26 01:10:00,AGG ROBBERY/DEADLY WEAPON,False,2019-01-26 02:49:00,PARKING LOTS / GARAGE,12151 N IH 35 SVRD NB,78753.0,1.0,ED,7,223.0,18.35,False,2019-02-28 00:00:00,Robbery,30.39438783,-97.67065387,2019.0,1.0,4.0,26.0,1.0
2019-01-26 01:13:00,AGG ASSAULT,False,2019-01-29 13:54:00,PARKING LOTS / GARAGE,N IH 35 SVRD NB / E 7TH ST,78702.0,3.0,CH,1,410.0,9.0,False,2019-03-07 00:00:00,Aggravated Assault,30.26656888,-97.73386417,2019.0,1.0,4.0,26.0,1.0
2019-01-26 01:30:00,FORCED SODOMY,False,2019-01-26 19:58:00,HOTEL / MOTEL / ETC.,300 BLOCK W 15TH ST,78701.0,9.0,BA,1,377.0,7.0,False,2019-03-29 00:00:00,Rape,,,2019.0,1.0,4.0,26.0,1.0
2019-01-26 02:59:00,AGG ASSAULT,False,2019-01-26 02:59:00,STREETS / HWY / ROAD / ALLEY,522 E 6TH ST,78701.0,9.0,GE,2,382.0,11.0,False,2019-04-11 00:00:00,Aggravated Assault,30.26680379,-97.73731149,2019.0,1.0,4.0,26.0,2.0
2019-01-26 15:05:00,ROBBERY BY ASSAULT,False,2019-01-26 15:05:00,GROCERY / SUPERMARKET,8610 N LAMAR BLVD,78758.0,4.0,ED,2,249.0,18.0,False,2019-02-14 00:00:00,Robbery,30.3551549,-97.70364774,2019.0,1.0,4.0,26.0,15.0
2019-01-26 15:50:00,AGG ROBBERY/DEADLY WEAPON,False,2019-01-26 15:50:00,STREETS / HWY / ROAD / ALLEY,6700 FELIX AVE,78741.0,3.0,HE,5,444.0,,True,2019-06-06 00:00:00,Robbery,30.23349736,-97.69264998,2019.0,1.0,4.0,26.0,15.0
2019-01-27 02:30:00,AGG ASLT W/MOTOR VEH FAM/DAT V,True,2019-01-27 02:30:00,PARKING LOTS / GARAGE,13000 N FM 620 RD NB,78613.0,6.0,AD,6,118.0,203.18,True,2019-01-27 00:00:00,Aggravated Assault,30.46791131,-97.79795955,2019.0,1.0,4.0,27.0,2.0
2019-01-27 03:00:00,RAPE,False,2019-01-29 20:13:00,HOTEL / MOTEL / ETC.,2700 BLOCK S IH 35 NB,78741.0,3.0,HE,2,482.0,23.07,False,2019-05-29 00:00:00,Rape,,,2019.0,1.0,4.0,27.0,3.0
2019-01-27 03:05:00,ROBBERY BY ASSAULT,False,2019-01-27 03:05:00,STREETS / HWY / ROAD / ALLEY,500 SAN JACINTO BLVD,78701.0,9.0,GE,2,381.0,11.0,False,2019-01-27 00:00:00,Robbery,30.26685022,-97.74096351,2019.0,1.0,4.0,27.0,3.0
2019-01-27 03:55:00,AGG ASSAULT FAM/DATE VIOLENCE,True,2019-01-27 04:50:00,RESIDENCE / HOME,2300 W NORTH LOOP BLVD,78756.0,7.0,BA,6,287.0,2.0,False,2019-01-29 00:00:00,Aggravated Assault,30.32577761,-97.74225263,2019.0,1.0,4.0,27.0,3.0
2019-01-27 10:32:00,AGG ROBBERY/DEADLY WEAPON,False,2019-01-27 10:32:00,CONVENIENCE STORE,1600 OHLEN RD,78758.0,4.0,ED,2,249.0,18.05,False,2019-04-04 00:00:00,Robbery,30.36436584,-97.71534125,2019.0,1.0,4.0,27.0,10.0
2019-01-27 11:52:00,DEADLY CONDUCT,True,2019-02-27 13:55:00,RESIDENCE / HOME,1901 E ANDERSON LN SVRD EB,78752.0,1.0,ID,2,266.0,18.11,True,2019-02-28 00:00:00,Aggravated Assault,30.32915121,-97.68006999,2019.0,1.0,4.0,27.0,11.0
2019-01-27 18:48:00,AGG ROBBERY/DEADLY WEAPON,False,2019-01-27 18:48:00,RESIDENCE / HOME,1730 E OLTORF ST,78741.0,9.0,HE,1,456.0,,False,2019-01-27 00:00:00,Robbery,30.23292142,-97.73739875,2019.0,1.0,4.0,27.0,18.0
2019-01-27 18:55:00,ROBBERY BY ASSAULT,False,2019-01-27 18:55:00,PARKING LOTS / GARAGE,5400 N LAMAR BLVD,78756.0,7.0,ID,7,289.0,2.0,True,2019-01-29 00:00:00,Robbery,30.32212002,-97.7293748,2019.0,1.0,4.0,27.0,18.0
2019-01-27 19:18:00,AGG ASSAULT,False,2019-01-29 19:18:00,RESIDENCE / HOME,2250 RIDGEPOINT DR,78754.0,1.0,ID,2,254.0,18.34,False,2019-03-12 00:00:00,Aggravated Assault,30.33058555,-97.67615288,2019.0,1.0,4.0,27.0,19.0
2019-01-27 20:59:00,DEADLY CONDUCT,False,2019-01-27 21:40:00,RESIDENCE / HOME,1711 RUTLAND DR,78758.0,4.0,ED,2,236.0,18.2,False,2019-01-28 00:00:00,Aggravated Assault,30.37521409,-97.71174462,2019.0,1.0,4.0,27.0,20.0
2019-01-27 21:10:00,AGG ASSAULT,False,2019-01-27 21:10:00,RESIDENCE / HOME,404 W STASSNEY LN,78745.0,3.0,DA,3,514.0,24.0,False,2019-02-01 00:00:00,Aggravated Assault,30.20750887,-97.77899949,2019.0,1.0,4.0,27.0,21.0
2019-01-27 22:25:00,AGG ROBBERY/DEADLY WEAPON,True,2019-01-27 22:25:00,RESIDENCE / HOME,744 W WILLIAM CANNON DR,78745.0,2.0,FR,4,512.0,24.1,True,2019-02-06 00:00:00,Robbery,30.19835668,-97.78926252,2019.0,1.0,4.0,27.0,22.0
2019-01-28 02:29:00,AGG ASLT STRANGLE/SUFFOCATE,True,2019-01-28 04:39:00,PARKING LOTS / GARAGE,9515 N LAMAR BLVD,78753.0,4.0,ED,1,240.0,18.23,True,2019-01-28 00:00:00,Aggravated Assault,30.36442773,-97.69460608,2019.0,1.0,5.0,28.0,2.0
2019-01-28 05:50:00,ROBBERY BY THREAT,False,2019-01-28 05:59:00,HOTEL / MOTEL / ETC.,1201 N IH 35 SVRD NB,78702.0,1.0,CH,3,391.0,8.0,False,2019-07-16 00:00:00,Robbery,30.27221806,-97.73142428,2019.0,1.0,5.0,28.0,5.0
2019-01-28 06:04:00,ROBBERY BY THREAT,False,2019-01-28 06:04:00,HOTEL / MOTEL / ETC.,8500 N IH 35 SVRD SB,78753.0,4.0,ED,1,250.0,18.0,False,2019-07-16 00:00:00,Robbery,30.34871699,-97.69497877,2019.0,1.0,5.0,28.0,6.0
2019-01-28 14:20:00,AGG ROBBERY/DEADLY WEAPON,False,2019-01-31 19:48:00,PARKING LOTS / GARAGE,12300 HYMEADOW DR,78750.0,6.0,AD,6,827,204.0,False,2019-03-19 00:00:00,Robbery,30.45403435,-97.79788023,2019.0,1.0,5.0,28.0,14.0
2019-01-28 14:38:00,AGG ASSAULT,False,2019-01-28 15:30:00,STREETS / HWY / ROAD / ALLEY,12195 METRIC BLVD,78758.0,7.0,ED,4,204.0,18.26,True,2019-01-28 00:00:00,Aggravated Assault,30.40720468,-97.69676063,2019.0,1.0,5.0,28.0,14.0
2019-01-28 19:00:00,ROBBERY BY ASSAULT,False,2019-01-28 23:35:00,SPECIALTY  STORE (TV  FUR ETC.),516 E 6TH ST,78701.0,9.0,GE,2,382.0,11.0,False,2019-04-23 00:00:00,Robbery,30.26689324,-97.73751821,2019.0,1.0,5.0,28.0,19.0
2019-01-28 19:29:00,AGG ASSAULT,False,2019-01-28 19:29:00,PARKING LOTS / GARAGE,1017 BARTON SPRINGS RD,78704.0,9.0,DA,1,452.0,13.0,True,2019-01-28 00:00:00,Aggravated Assault,30.25994458,-97.75543457,2019.0,1.0,5.0,28.0,19.0
2019-01-28 21:14:00,AGG ASSAULT FAM/DATE VIOLENCE,True,2019-01-28 21:14:00,RESIDENCE / HOME,10101 W PARMER LN,78717.0,6.0,AD,5,574.0,205.08,True,2019-01-29 00:00:00,Aggravated Assault,30.48940343,-97.77319761,2019.0,1.0,5.0,28.0,21.0
2019-01-29 00:00:00,RAPE,False,2019-03-24 15:23:00,OTHER / UNKNOWN,2700 BLOCK RIO GRANDE ST,78705.0,9.0,BA,1,360.0,6.0,False,2019-06-11 00:00:00,Rape,,,2019.0,1.0,5.0,29.0,0.0
2019-01-29 00:31:00,AGG ASLT STRANGLE/SUFFOCATE,True,2019-01-29 00:31:00,RESIDENCE / HOME,2301 S LAMAR BLVD,78704.0,5.0,DA,2,469.0,,True,2019-02-01 00:00:00,Aggravated Assault,30.24698616,-97.77552235,2019.0,1.0,5.0,29.0,0.0
2019-01-29 01:40:00,AGG ASSAULT ON PUBLIC SERVANT,False,2019-01-29 01:40:00,FIELD / WOODS,7900 E WILLIAM CANNON DR,78744.0,,88,88,533.0,24.32,True,2021-02-23 00:00:00,Aggravated Assault,30.15727922,-97.71511761,2019.0,1.0,5.0,29.0,1.0
2019-01-29 11:24:00,AGG ASSAULT,False,2019-01-29 11:24:00,STREETS / HWY / ROAD / ALLEY,8610 N LAMAR BLVD,78758.0,4.0,ED,2,249.0,18.0,True,2019-01-30 00:00:00,Aggravated Assault,30.3551549,-97.70364774,2019.0,1.0,5.0,29.0,11.0
2019-01-29 11:55:00,AGG ROBBERY/DEADLY WEAPON,False,2019-01-29 11:55:00,STREETS / HWY / ROAD / ALLEY,900 BLACKSON AVE,78752.0,4.0,ID,1,265.0,18.12,False,2019-02-07 00:00:00,Robbery,30.33418307,-97.69961549,2019.0,1.0,5.0,29.0,11.0
2019-01-29 19:30:00,AGG ASSAULT,False,2019-01-29 19:30:00,RESIDENCE / HOME,2200 S PLEASANT VALLEY RD,78741.0,3.0,HE,2,457.0,,False,2019-02-01 00:00:00,Aggravated Assault,30.23154682,-97.7260523,2019.0,1.0,5.0,29.0,19.0
2019-01-29 20:47:00,AGG ASSAULT,False,2019-01-29 20:47:00,STREETS / HWY / ROAD / ALLEY,1126 TILLERY ST,78702.0,3.0,CH,2,423.0,8.0,False,2019-02-26 00:00:00,Aggravated Assault,30.26830969,-97.70138722,2019.0,1.0,5.0,29.0,20.0
2019-01-29 22:40:00,SEXUAL ASSAULT W/ OBJECT,False,2019-01-29 22:40:00,RESIDENCE / HOME,11100 BLOCK RESEARCH BLVD SVRD NB,78759.0,7.0,AD,2,199.0,17.54,False,2019-04-18 00:00:00,Rape,,,2019.0,1.0,5.0,29.0,22.0
2019-01-29 23:54:00,AGG ASSAULT,True,2019-01-29 23:54:00,HOTEL / MOTEL / ETC.,6603 N IH 35 SVRD NB,78752.0,4.0,ID,1,280,18.12,True,2019-01-30 00:00:00,Aggravated Assault,30.3268287,-97.70297087,2019.0,1.0,5.0,29.0,23.0
2019-01-30 05:50:00,AGG ASSAULT FAM/DATE VIOLENCE,True,2019-01-30 05:50:00,RESIDENCE / HOME,8401 COLONY LOOP DR,78724.0,1.0,CH,7,302.0,22.02,False,2019-02-22 00:00:00,Aggravated Assault,30.29522154,-97.62792358,2019.0,1.0,5.0,30.0,5.0
2019-01-30 07:25:00,AGG ASSAULT,False,2019-01-30 11:49:00,STREETS / HWY / ROAD / ALLEY,1300 PAYTON GIN RD,78758.0,4.0,ED,2,235.0,,True,2019-02-25 00:00:00,Aggravated Assault,30.36228164,-97.71012021,2019.0,1.0,5.0,30.0,7.0
2019-01-30 08:41:00,ROBBERY BY ASSAULT,False,2019-01-30 08:41:00,PARKING LOTS / GARAGE,10810 N LAMAR BLVD,78758.0,4.0,ED,1,239.0,18.22,True,2019-02-08 00:00:00,Robbery,30.3772181,-97.68945029,2019.0,1.0,5.0,30.0,8.0
2019-01-30 09:30:00,AGG ASSAULT,False,2019-01-30 09:30:00,PARKING LOTS / GARAGE,8610 N LAMAR BLVD,78758.0,4.0,ED,2,249.0,18.0,True,2019-01-30 00:00:00,Aggravated Assault,30.3551549,-97.70364774,2019.0,1.0,5.0,30.0,9.0
2019-01-31 10:54:00,AGG ASLT STRANGLE/SUFFOCATE,True,2019-01-31 10:54:00,RESIDENCE / HOME,1600 WICKERSHAM LN,78741.0,3.0,HE,3,442.0,23.18,False,2019-02-20 00:00:00,Aggravated Assault,30.23597684,-97.71859364,2019.0,1.0,5.0,31.0,10.0
2019-01-31 13:30:00,AGG ASSAULT FAM/DATE VIOLENCE,True,2019-02-21 18:39:00,RESIDENCE / HOME,6725 CIRCLE S RD,78745.0,2.0,FR,3,528.0,,True,2019-02-27 00:00:00,Aggravated Assault,30.19084138,-97.77786348,2019.0,1.0,5.0,31.0,13.0
2019-01-31 17:00:00,AGG ASSAULT,False,2019-01-31 17:00:00,STREETS / HWY / ROAD / ALLEY,5700 MESQUITE GROVE RD,78744.0,2.0,FR,6,519.0,24.31,,,Aggravated Assault,30.19085648,-97.73475191,2019.0,1.0,5.0,31.0,17.0
2019-01-31 18:40:00,AGG ROBBERY/DEADLY WEAPON,False,2019-02-01 11:12:00,STREETS / HWY / ROAD / ALLEY,6600 BLOCK E RIVERSIDE DR,78741.0,3.0,HE,5,444.0,,False,2019-03-15 00:00:00,Robbery,30.2238152,-97.70035421,2019.0,1.0,5.0,31.0,18.0
2019-01-31 19:00:00,AGG ASSAULT FAM/DATE VIOLENCE,True,2019-02-02 09:08:00,STREETS / HWY / ROAD / ALLEY,700 BLOCK RED RIVER ST,78701.0,9.0,GE,2,382.0,11.0,False,2019-02-08 00:00:00,Aggravated Assault,30.26788123,-97.73673437,2019.0,1.0,5.0,31.0,19.0
2019-01-31 22:45:00,AGG ASLT W/MOTOR VEH FAM/DAT V,True,2019-01-31 22:45:00,STREETS / HWY / ROAD / ALLEY,9400 BLOCK N IH 35 NB,78753.0,7.0,ED,7,241.0,,True,2019-03-01 00:00:00,Aggravated Assault,30.35847717,-97.68785812,2019.0,1.0,5.0,31.0,22.0
2019-02-01 00:00:00,RAPE,False,2019-02-06 15:40:00,RESIDENCE / HOME,9100 BLOCK NORTHGATE BLVD,78758.0,4.0,ED,2,235.0,18.2,False,2019-03-14 00:00:00,Rape,,,2019.0,2.0,5.0,1.0,0.0
2019-02-01 00:00:00,AGG ASSAULT,False,2019-03-19 20:29:00,RESTAURANTS,7112 ED BLUESTEIN BLVD SB,78723.0,1.0,CH,4,299.0,21.0,,,Aggravated Assault,30.31543977,-97.66334101,2019.0,2.0,5.0,1.0,0.0
2019-02-01 00:00:00,SEXUAL ASSAULT OF CHILD/OBJECT,True,2020-02-26 08:00:00,RESIDENCE / HOME,2100 BLOCK BARTON SPRINGS RD,78746.0,8.0,DA,1,436.0,19.11,False,2020-03-25 00:00:00,Rape,,,2019.0,2.0,5.0,1.0,0.0
2019-02-01 00:10:00,AGG ROBBERY/DEADLY WEAPON,False,2019-02-01 00:10:00,RESIDENCE / HOME,12700 RIDGELINE BLVD,78613.0,6.0,AD,6,118.0,203.18,False,2019-03-04 00:00:00,Robbery,30.46703805,-97.81031432,2019.0,2.0,5.0,1.0,0.0
2019-02-01 00:12:00,AGG ASSAULT,False,2019-02-01 00:12:00,RESIDENCE / HOME,100 W NORTH LOOP BLVD,78751.0,9.0,ID,6,653.0,3.05,False,2019-03-11 00:00:00,Aggravated Assault,30.31793144,-97.72221864,2019.0,2.0,5.0,1.0,0.0
2019-02-01 00:52:00,DEADLY CONDUCT,False,2019-02-01 00:52:00,STREETS / HWY / ROAD / ALLEY,1006 BANISTER LN,78704.0,3.0,DA,2,473.0,13.0,False,2019-02-04 00:00:00,Aggravated Assault,30.22957415,-97.77443153,2019.0,2.0,5.0,1.0,0.0
2019-02-01 02:25:00,AGG ASSAULT,False,2019-02-01 04:17:00,STREETS / HWY / ROAD / ALLEY,600 E 6TH ST,78701.0,9.0,GE,2,382.0,11.0,False,2019-03-05 00:00:00,Aggravated Assault,30.26658149,-97.73692775,2019.0,2.0,5.0,1.0,2.0
2019-02-01 14:56:00,AGG ASSAULT FAM/DATE VIOLENCE,True,2019-02-01 14:56:00,RESIDENCE / HOME,9100 SLAYTON DR,78753.0,4.0,ED,1,250.0,,False,2019-02-05 00:00:00,Aggravated Assault,30.35906748,-97.69595474,2019.0,2.0,5.0,1.0,14.0
2019-02-01 15:18:00,AGG ASSAULT WITH MOTOR VEH,False,2019-02-01 15:18:00,PARKING LOTS / GARAGE,9010 N IH 35 SVRD SB,78753.0,4.0,ED,1,250.0,,False,2019-02-27 00:00:00,Aggravated Assault,30.35515159,-97.69077506,2019.0,2.0,5.0,1.0,15.0
2019-02-01 17:08:00,AGG ASLT STRANGLE/SUFFOCATE,True,2019-02-01 17:08:00,PARKING LOTS / GARAGE,1030 NORWOOD PARK BLVD,78753.0,4.0,ID,2,252.0,18.13,True,2019-02-01 00:00:00,Aggravated Assault,30.3391525,-97.69116892,2019.0,2.0,5.0,1.0,17.0
2019-02-01 17:12:00,ROBBERY BY ASSAULT,False,2019-02-01 19:41:00,GROCERY / SUPERMARKET,12900 N IH 35 SVRD SB,78753.0,7.0,ED,4,193.0,18.48,True,2019-02-01 00:00:00,Robbery,30.41357997,-97.67568979,2019.0,2.0,5.0,1.0,17.0
2019-02-01 19:00:00,AGG ASLT STRANGLE/SUFFOCATE,True,2019-02-05 18:25:00,RESIDENCE / HOME,4509 E ST ELMO RD,78744.0,2.0,FR,5,495.0,,True,2019-02-27 00:00:00,Aggravated Assault,30.20549246,-97.73862345,2019.0,2.0,5.0,1.0,19.0
2019-02-01 21:29:00,AGG ASSAULT,False,2019-02-01 21:29:00,STREETS / HWY / ROAD / ALLEY,202 WINCHESTER CT,78745.0,3.0,DA,3,492.0,,False,2019-02-27 00:00:00,Aggravated Assault,30.21212376,-97.76730012,2019.0,2.0,5.0,1.0,21.0
2019-02-01 21:45:00,AGG ASSAULT,False,2019-02-01 23:56:00,RESIDENCE / HOME,1300 BLOCK CROSSING PL,78741.0,3.0,HE,3,442.0,,False,2019-05-15 00:00:00,Aggravated Assault,,,2019.0,2.0,5.0,1.0,21.0
2019-02-01 23:22:00,AGG ASSAULT,False,2019-02-01 23:22:00,PARKING LOTS / GARAGE,2224 E RIVERSIDE DR,78741.0,3.0,HE,2,441.0,23.0,False,2019-04-03 00:00:00,Aggravated Assault,30.23883312,-97.72540895,2019.0,2.0,5.0,1.0,23.0
2019-02-01 23:55:00,AGG ROBBERY/DEADLY WEAPON,False,2019-02-01 23:59:00,PARKING LOTS / GARAGE,1088 PARK PLZ,78753.0,4.0,ED,3,251.0,18.13,False,2019-06-11 00:00:00,Robbery,30.34887091,-97.6852326,2019.0,2.0,5.0,1.0,23.0
2019-02-02 02:30:00,AGG RAPE,False,2019-02-02 18:21:00,RESIDENCE / HOME,1000 BLOCK CLAYTON LN,78723.0,4.0,ID,5,292.0,21.05,False,2019-03-05 00:00:00,Rape,,,2019.0,2.0,5.0,2.0,2.0
2019-02-02 04:16:00,ROBBERY BY ASSAULT,False,2019-02-02 04:16:00,PARKING LOTS / GARAGE,9329 NORTHGATE BLVD,78758.0,4.0,ED,2,236.0,18.2,False,2021-01-20 00:00:00,Robbery,30.37310385,-97.71440302,2019.0,2.0,5.0,2.0,4.0
2019-02-02 06:49:00,RAPE OF A CHILD,True,2019-02-12 06:49:00,RESIDENCE / HOME,7000 BLOCK GRAND CANYON DR,78752.0,4.0,ID,1,265.0,18.12,True,2019-08-05 00:00:00,Rape,,,2019.0,2.0,5.0,2.0,6.0
2019-02-02 09:00:00,SEXUAL ASSAULT W/ OBJECT,False,2019-02-08 16:19:00,RESIDENCE / HOME,5800 BLOCK WELLINGTON DR,78723.0,1.0,ID,3,974.0,,False,2019-03-29 00:00:00,Rape,,,2019.0,2.0,5.0,2.0,9.0
2019-02-02 11:00:00,DEADLY CONDUCT,False,2019-02-02 11:00:00,STREETS / HWY / ROAD / ALLEY,5004 MICHELLE CT,78744.0,2.0,FR,5,493.0,24.11,False,2019-03-06 00:00:00,Aggravated Assault,30.19908135,-97.74636617,2019.0,2.0,5.0,2.0,11.0
2019-02-02 12:00:00,AGG ASLT STRANGLE/SUFFOCATE,True,2019-02-03 23:03:00,HOTEL / MOTEL / ETC.,12989 N US 183 HWY SVRD NB,78729.0,6.0,AD,4,162.0,204.06,True,2019-02-11 00:00:00,Aggravated Assault,30.43815709,-97.77599365,2019.0,2.0,5.0,2.0,12.0
2019-02-02 15:59:00,RAPE,True,2019-02-02 15:59:00,RESIDENCE / HOME,2200 BLOCK CHASEWYCH DR,78745.0,5.0,DA,4,506.0,17.12,False,2019-02-11 00:00:00,Rape,,,2019.0,2.0,5.0,2.0,15.0
2019-02-02 16:43:00,AGG ASSAULT,False,2019-02-02 16:43:00,STREETS / HWY / ROAD / ALLEY,913 E 13TH ST,78702.0,1.0,CH,3,391.0,8.03,True,2019-02-02 00:00:00,Aggravated Assault,30.27310776,-97.72918855,2019.0,2.0,5.0,2.0,16.0
2019-02-02 19:00:00,AGG ROBBERY/DEADLY WEAPON,False,2019-02-02 19:00:00,CONVENIENCE STORE,1719 E WILLIAM CANNON DR,78744.0,2.0,FR,8,530.0,24.27,False,2019-03-26 00:00:00,Robbery,30.18856198,-97.76730535,2019.0,2.0,5.0,2.0,19.0
2019-02-02 22:17:00,AGG ASSAULT,False,2019-02-02 22:17:00,RESIDENCE / HOME,2516 GLEN SPRINGS WAY,78741.0,3.0,HE,2,482.0,23.07,False,2019-03-06 00:00:00,Aggravated Assault,30.22904092,-97.73876678,2019.0,2.0,5.0,2.0,22.0
2019-02-02 23:17:00,ROBBERY BY THREAT,False,2019-02-03 01:27:00,STREETS / HWY / ROAD / ALLEY,300 BLOCK W 8TH ST,78701.0,9.0,GE,1,378,11.0,True,2019-02-04 00:00:00,Robbery,30.27078829,-97.74502448,2019.0,2.0,5.0,2.0,23.0
2019-02-03 00:00:00,SEXUAL ASSAULT W/ OBJECT,False,2019-02-20 17:11:00,RESIDENCE / HOME,1200 BLOCK S CONGRESS AVE,78704.0,9.0,HE,1,454.0,14.01,False,2019-05-17 00:00:00,Rape,,,2019.0,2.0,5.0,3.0,0.0
2019-02-03 01:37:00,AGG ASSAULT,False,2019-02-03 01:37:00,STREETS / HWY / ROAD / ALLEY,500 E 7TH ST,78701.0,9.0,GE,2,382.0,11.0,True,2019-02-08 00:00:00,Aggravated Assault,30.26797616,-97.737619,2019.0,2.0,5.0,3.0,1.0
2019-02-03 04:00:00,AGG ASLT STRANGLE/SUFFOCATE,True,2019-02-03 04:43:00,RESIDENCE / HOME,4802 RUSTOWN DR,78727.0,6.0,AD,3,191.0,17.45,False,2019-02-21 00:00:00,Aggravated Assault,30.41978132,-97.73189349,2019.0,2.0,5.0,3.0,4.0
2019-02-03 09:53:00,AGG ASSAULT,False,2019-02-03 09:53:00,RESIDENCE / HOME,5604 VALIANT CV,78749.0,8.0,DA,6,78.0,17.49,False,2019-03-05 00:00:00,Aggravated Assault,30.23462216,-97.85292796,2019.0,2.0,5.0,3.0,9.0
2019-02-03 18:00:00,RAPE,False,2019-08-08 20:00:00,RESIDENCE / HOME,8800 BLOCK JODIE LN,78748.0,5.0,FR,1,535.0,,False,2019-10-23 00:00:00,Rape,,,2019.0,2.0,5.0,3.0,18.0
2019-02-03 18:00:00,CONT SEX ABUSE OF CHILD,False,2019-02-15 21:35:00,RESIDENCE / HOME,4700 BLOCK PELHAM DR,78727.0,7.0,AD,3,192.0,,True,2019-06-27 00:00:00,Rape,,,2019.0,2.0,5.0,3.0,18.0
2019-02-03 21:07:00,AGG ASSAULT,False,2019-02-03 21:08:00,STREETS / HWY / ROAD / ALLEY,8116 N FM 620 RD,78726.0,6.0,AD,8,576.0,17.65,False,2019-02-06 00:00:00,Aggravated Assault,30.41729941,-97.84713888,2019.0,2.0,5.0,3.0,21.0
2019-02-03 21:58:00,AGG ASSAULT,False,2019-02-03 22:35:00,RESIDENCE / HOME,8300 ROBIN CT,78758.0,4.0,ED,2,249.0,18.0,True,2019-03-05 00:00:00,Aggravated Assault,30.35313434,-97.70906556,2019.0,2.0,5.0,3.0,21.0
2019-02-03 22:34:00,AGG ASLT STRANGLE/SUFFOCATE,True,2019-02-03 22:34:00,RESIDENCE / HOME,2409 BURLESON CT,78741.0,3.0,HE,2,483.0,23.13,True,2019-02-10 00:00:00,Aggravated Assault,30.22956723,-97.73406826,2019.0,2.0,5.0,3.0,22.0
2019-02-03 23:02:00,AGG ASSAULT,False,2019-02-03 23:02:00,STREETS / HWY / ROAD / ALLEY,404 KEMP ST,78741.0,3.0,HE,3,443.0,23.17,False,2019-03-17 00:00:00,Aggravated Assault,30.24156798,-97.69470368,2019.0,2.0,5.0,3.0,23.0
2019-02-03 23:51:00,ROBBERY BY ASSAULT,False,2019-02-03 23:51:00,GAS / SERVICE STATIONS,1901 E WILLIAM CANNON DR,78744.0,2.0,FR,8,530.0,24.27,True,2019-02-04 00:00:00,Robbery,30.1880239,-97.76570821,2019.0,2.0,5.0,3.0,23.0
2019-02-04 02:00:00,RAPE,False,2019-02-04 18:17:00,RESIDENCE / HOME,3500 BLOCK BRECKENRIDGE DR,78744.0,2.0,HE,6,498.0,,False,2019-05-10 00:00:00,Rape,,,2019.0,2.0,6.0,4.0,2.0
2019-02-04 03:53:00,ROBBERY BY ASSAULT,False,2019-02-04 03:53:00,PARKING LOTS / GARAGE,4603 E STASSNEY LN,78744.0,2.0,FR,5,517.0,24.12,False,2019-02-04 00:00:00,Robbery,30.19366026,-97.74513091,2019.0,2.0,6.0,4.0,3.0
2019-02-04 04:03:00,ROBBERY BY ASSAULT,False,2019-02-04 04:03:00,STREETS / HWY / ROAD / ALLEY,S IH 35 SVRD SB / ST EDWARDS DR,78704.0,9.0,DA,2,479.0,,False,2020-01-05 00:00:00,Robbery,30.22789508,-97.74507179,2019.0,2.0,6.0,4.0,4.0
2019-02-04 04:14:00,AGG ASSAULT FAM/DATE VIOLENCE,True,2019-02-04 06:35:00,PARKING LOTS / GARAGE,9601 N IH 35 SVRD NB,78753.0,4.0,ED,7,241.0,18.33,False,2019-02-08 00:00:00,Aggravated Assault,30.3603907,-97.68595659,2019.0,2.0,6.0,4.0,4.0
2019-02-04 04:30:00,RAPE,True,2019-02-04 15:12:00,RESIDENCE / HOME,5700 BLOCK MANOR RD,78723.0,1.0,ID,4,298.0,21.0,False,2019-07-11 00:00:00,Rape,,,2019.0,2.0,6.0,4.0,4.0
2019-02-04 09:00:00,AGG ASSAULT,False,2019-02-04 09:41:00,PARKING LOTS / GARAGE,15424 FM 1825 RD,78660.0,7.0,ED,6,159.0,18.57,False,2019-02-05 00:00:00,Aggravated Assault,30.44908807,-97.66378377,2019.0,2.0,6.0,4.0,9.0
2019-02-04 10:19:00,AGG ASSAULT FAM/DATE VIOLENCE,True,2019-02-04 11:51:00,RESIDENCE / HOME,5707 MANOR RD,78723.0,1.0,ID,4,298.0,21.0,True,2019-02-05 00:00:00,Aggravated Assault,30.30512792,-97.68053078,2019.0,2.0,6.0,4.0,10.0
2019-02-04 12:46:00,AGG ASSAULT,False,2019-02-04 12:46:00,CONVENIENCE STORE,2241 S IH 35 SVRD NB,78741.0,9.0,HE,1,456.0,14.0,False,2019-02-27 00:00:00,Aggravated Assault,30.23388841,-97.73992251,2019.0,2.0,6.0,4.0,12.0
2019-02-04 14:28:00,AGG ROBBERY/DEADLY WEAPON,False,2019-02-04 14:30:00,STREETS / HWY / ROAD / ALLEY,800 E RUNDBERG LN,78753.0,4.0,ED,7,241.0,18.33,True,2019-02-05 00:00:00,Robbery,30.3579606,-97.68734899,2019.0,2.0,6.0,4.0,14.0
2019-02-04 15:38:00,RAPE OF A CHILD,False,2019-02-04 15:38:00,RESIDENCE / HOME,7300 BLOCK LAZY CREEK DR,78724.0,1.0,CH,7,300.0,22.0,False,2019-03-07 00:00:00,Rape,,,2019.0,2.0,6.0,4.0,15.0
2019-02-04 16:56:00,AGG ASSAULT,False,2019-02-04 16:56:00,PARKING LOTS / GARAGE,6503 BLUFF SPRINGS RD,78744.0,2.0,FR,8,516,24.19,False,2019-02-13 00:00:00,Aggravated Assault,30.19031629,-97.76660024,2019.0,2.0,6.0,4.0,16.0
2019-02-04 20:54:00,AGG ASSAULT FAM/DATE VIOLENCE,True,2019-02-04 20:54:00,RESIDENCE / HOME,2101 E BEN WHITE BLVD SVRD EB,78744.0,2.0,FR,6,494.0,,True,2019-02-06 00:00:00,Aggravated Assault,30.21529713,-97.74336678,2019.0,2.0,6.0,4.0,20.0
2019-02-04 22:00:00,AGG ASSAULT FAM/DATE VIOLENCE,True,2019-02-04 22:16:00,RESIDENCE / HOME,6806 WENTWORTH DR,78724.0,1.0,CH,7,302.0,22.02,False,2019-02-11 00:00:00,Aggravated Assault,30.29489895,-97.63062351,2019.0,2.0,6.0,4.0,22.0
2019-02-05 00:01:00,AGG ROBBERY/DEADLY WEAPON,False,2019-02-05 15:42:00,SCHOOL - ELEMENTARY / SECONDARY,12400 MELLOW MEADOW DR,78750.0,6.0,AD,6,827.0,204.0,False,2019-02-26 00:00:00,Robbery,30.45674409,-97.79805338,2019.0,2.0,6.0,5.0,0.0
2019-02-05 09:58:00,ROBBERY BY THREAT,False,2019-02-05 09:58:00,BANKS / SAVINGS & LOAN,12574 RESEARCH BLVD SVRD SB,78759.0,10.0,AD,7,188.0,17.56,True,2019-02-08 00:00:00,Robbery,30.42947874,-97.76176404,2019.0,2.0,6.0,5.0,9.0
2019-02-05 19:14:00,ROBBERY BY THREAT,False,2019-02-05 21:24:00,DEPARTMENT / DISCOUNT STORE,9717 N LAMAR BLVD,78753.0,4.0,ED,1,240.0,18.23,False,2019-04-02 00:00:00,Robbery,30.36582905,-97.69453919,2019.0,2.0,6.0,5.0,19.0
2019-02-05 20:31:00,RAPE,True,2019-02-05 20:31:00,PARK / PLAYGROUND,2500 BLOCK DURWOOD ST,78704.0,3.0,DA,2,475.0,13.0,True,2019-02-06 00:00:00,Rape,,,2019.0,2.0,6.0,5.0,20.0
2019-02-05 23:31:00,ROBBERY BY THREAT,False,2019-02-05 23:31:00,RESTAURANTS,8618 RESEARCH BLVD SVRD SB,78757.0,7.0,ID,7,248.0,18.18,False,2019-02-06 00:00:00,Robbery,30.36240329,-97.71782716,2019.0,2.0,6.0,5.0,23.0
2019-02-06 00:56:00,ROBBERY BY ASSAULT,False,2019-02-06 00:56:00,STREETS / HWY / ROAD / ALLEY,500 ONION ST,78702.0,3.0,CH,1,410.0,9.02,False,2019-03-09 00:00:00,Robbery,30.26258571,-97.72800858,2019.0,2.0,6.0,6.0,0.0
2019-02-06 06:30:00,AGG FORCED SODOMY OF CHILD,False,2019-02-06 22:49:00,SCHOOL - ELEMENTARY / SECONDARY,5600 BLOCK DECKER LN,78724.0,1.0,CH,6,303.0,22.08,False,2019-02-26 00:00:00,Rape,,,2019.0,2.0,6.0,6.0,6.0
2019-02-06 10:24:00,DEADLY CONDUCT,False,2019-02-06 11:30:00,RESIDENCE / HOME,6921 BENNETT AVE,78752.0,4.0,ID,1,265.0,18.12,True,2019-02-07 00:00:00,Aggravated Assault,30.32938193,-97.70127159,2019.0,2.0,6.0,6.0,10.0
2019-02-06 13:52:00,AGG ASSAULT,False,2019-02-06 13:53:00,RESIDENCE / HOME,4715 BLUEBERRY TRL,78723.0,1.0,CH,4,323.0,,True,2019-03-25 00:00:00,Aggravated Assault,30.29469225,-97.68515024,2019.0,2.0,6.0,6.0,13.0
2019-02-06 15:00:00,AGG ASSAULT FAM/DATE VIOLENCE,True,2019-02-11 09:04:00,RESIDENCE / HOME,9900 MC NEIL DR,78750.0,10.0,AD,8,210.0,17.16,True,2019-02-11 00:00:00,Aggravated Assault,30.39515474,-97.83344574,2019.0,2.0,6.0,6.0,15.0
2019-02-06 15:09:00,AGG RAPE OF A CHILD,False,2019-02-06 15:09:00,RESIDENCE / HOME,2500 BLOCK S CONGRESS AVE,78704.0,3.0,DA,2,479.0,23.0,False,2019-03-08 00:00:00,Rape,,,2019.0,2.0,6.0,6.0,15.0
2019-02-06 18:20:00,AGG ASSAULT FAM/DATE VIOLENCE,True,2019-02-06 19:07:00,RESIDENCE / HOME,10900 BLOSSOM BELL DR,78758.0,4.0,ED,4,2212.0,18.43,True,2019-03-07 00:00:00,Aggravated Assault,30.38433192,-97.70074875,2019.0,2.0,6.0,6.0,18.0
2019-02-06 18:27:00,AGG ASSAULT,False,2019-02-06 23:39:00,STREETS / HWY / ROAD / ALLEY,4715 BLUEBERRY TRL,78723.0,1.0,CH,4,323.0,21.0,True,2019-02-07 00:00:00,Aggravated Assault,30.29469225,-97.68515024,2019.0,2.0,6.0,6.0,18.0
2019-02-07 00:35:00,ROBBERY BY ASSAULT,False,2019-02-07 00:37:00,RESTAURANTS,1601 N IH 35 SVRD NB,78702.0,1.0,CH,3,391.0,8.0,False,2019-05-10 00:00:00,Robbery,30.27657854,-97.72972234,2019.0,2.0,6.0,7.0,0.0
2019-02-07 01:39:00,AGG ASSAULT,False,2019-02-07 01:39:00,PARKING LOTS / GARAGE,9629 RESEARCH BLVD SVRD NB,78759.0,7.0,AD,1,216.0,17.53,False,2019-02-14 00:00:00,Aggravated Assault,30.38945289,-97.74343801,2019.0,2.0,6.0,7.0,1.0
2019-02-07 12:40:00,AGG ASLT STRANGLE/SUFFOCATE,True,2019-02-07 12:40:00,RESIDENCE / HOME,5603 BEACHMONT CT,78739.0,8.0,DA,8,54.0,17.7,True,2019-02-12 00:00:00,Aggravated Assault,30.18596102,-97.88446067,2019.0,2.0,6.0,7.0,12.0
2019-02-07 18:15:00,AGG ASSAULT FAM/DATE VIOLENCE,True,2019-02-07 18:15:00,STREETS / HWY / ROAD / ALLEY,606 W SLAUGHTER LN,78748.0,2.0,FR,3,536.0,24.23,False,2019-02-12 00:00:00,Aggravated Assault,30.1729276,-97.79966865,2019.0,2.0,6.0,7.0,18.0
2019-02-07 18:39:00,AGG ASSAULT,False,2019-02-07 18:39:00,STREETS / HWY / ROAD / ALLEY,7403 TUMBLEWEED DR,78724.0,1.0,CH,7,300.0,22.0,False,2019-02-14 00:00:00,Aggravated Assault,30.31240608,-97.65292897,2019.0,2.0,6.0,7.0,18.0
2019-02-07 19:06:00,SEXUAL ASSAULT W/ OBJECT,False,2019-02-07 19:06:00,RESIDENCE / HOME,11400 BLOCK N IH 35 SVRD NB,78753.0,1.0,ED,7,222.0,,False,2019-02-14 00:00:00,Rape,,,2019.0,2.0,6.0,7.0,19.0
2019-02-07 19:28:00,AGG ASSAULT,False,2019-02-07 19:28:00,STREETS / HWY / ROAD / ALLEY,8207 SAM RAYBURN DR,78753.0,4.0,ED,1,250.0,,False,2019-03-01 00:00:00,Aggravated Assault,30.34654094,-97.69950324,2019.0,2.0,6.0,7.0,19.0
2019-02-07 22:22:00,AGG ROBBERY/DEADLY WEAPON,False,2019-02-07 22:22:00,HOTEL / MOTEL / ETC.,4323 S IH 35 SVRD NB,78744.0,2.0,FR,5,493.0,,True,2019-02-15 00:00:00,Robbery,30.21164837,-97.75281261,2019.0,2.0,6.0,7.0,22.0
2019-02-07 22:26:00,AGG ASLT STRANGLE/SUFFOCATE,True,2019-02-07 22:26:00,RESIDENCE / HOME,3412 WEBBERVILLE RD,78702.0,1.0,CH,2,416.0,,True,2019-02-07 00:00:00,Aggravated Assault,30.27069779,-97.70611625,2019.0,2.0,6.0,7.0,22.0
2019-02-08 00:15:00,AGG ROBBERY/DEADLY WEAPON,False,2019-02-08 00:15:00,CONVENIENCE STORE,8600 E US 290 HWY SVRD WB,78754.0,1.0,ED,3,253.0,18.34,True,2019-02-20 00:00:00,Robbery,30.32898446,-97.65986218,2019.0,2.0,6.0,8.0,0.0
2019-02-08 00:30:00,AGG ASSAULT,True,2019-02-08 03:58:00,PARKING LOTS / GARAGE,629 W BEN WHITE BLVD SVRD EB,78745.0,3.0,DA,3,490.0,20.0,False,2019-03-08 00:00:00,Aggravated Assault,30.22591805,-97.77135811,2019.0,2.0,6.0,8.0,0.0
2019-02-08 00:47:00,AGG ROBBERY/DEADLY WEAPON,False,2019-02-08 00:52:00,GAS / SERVICE STATIONS,9704 GILES LN,78754.0,1.0,CH,8,243.0,18.56,True,2019-04-10 00:00:00,Robbery,30.33162213,-97.6239636,2019.0,2.0,6.0,8.0,0.0
2019-02-08 04:24:00,DEADLY CONDUCT,False,2019-02-08 04:24:00,STREETS / HWY / ROAD / ALLEY,W 26TH ST / LEON ST,78705.0,9.0,BA,3,356.0,6.0,False,2019-03-12 00:00:00,Aggravated Assault,30.29096478,-97.74911373,2019.0,2.0,6.0,8.0,4.0
2019-02-08 10:23:00,RAPE,False,2019-02-08 10:23:00,RESIDENCE / HOME,1900 BLOCK RUTLAND DR,78758.0,4.0,ED,2,219.0,18.21,False,2019-06-21 00:00:00,Rape,,,2019.0,2.0,6.0,8.0,10.0
2019-02-08 17:04:00,AGG ASLT STRANGLE/SUFFOCATE,True,2019-02-08 17:04:00,RESIDENCE / HOME,12100 METRIC BLVD,78758.0,7.0,AD,2,202.0,18.49,True,2019-02-08 00:00:00,Aggravated Assault,30.40362788,-97.70098336,2019.0,2.0,6.0,8.0,17.0
2019-02-08 17:20:00,AGG ASLT STRANGLE/SUFFOCATE,True,2019-02-08 17:20:00,RESIDENCE / HOME,739 W WILLIAM CANNON DR,78745.0,2.0,FR,3,526.0,24.24,True,2019-02-08 00:00:00,Aggravated Assault,30.1974094,-97.78989537,2019.0,2.0,6.0,8.0,17.0
2019-02-08 18:14:00,AGG ASLT STRANGLE/SUFFOCATE,True,2019-02-10 18:14:00,RESIDENCE / HOME,1500 RED RIVER ST,78701.0,1.0,BA,1,385.0,7.0,True,2019-02-20 00:00:00,Aggravated Assault,30.27643109,-97.73438129,2019.0,2.0,6.0,8.0,18.0
2019-02-08 20:10:00,AGG ROBBERY/DEADLY WEAPON,False,2019-02-08 20:10:00,CONVENIENCE STORE,6700 MANOR RD,78723.0,1.0,ID,3,296.0,21.13,True,2019-02-27 00:00:00,Robbery,30.31056049,-97.66716903,2019.0,2.0,6.0,8.0,20.0
2019-02-08 22:11:00,AGG ROBBERY/DEADLY WEAPON,False,2019-02-08 23:52:00,CONVENIENCE STORE,2943 E 12TH ST,78702.0,1.0,CH,2,415.0,8.0,False,2019-04-11 00:00:00,Robbery,30.27606253,-97.70417987,2019.0,2.0,6.0,8.0,22.0
2019-02-08 22:22:00,AGG ASLT STRANGLE/SUFFOCATE,True,2019-02-08 22:22:00,RESIDENCE / HOME,5905 HIDDEN VALLEY TRL,78744.0,2.0,FR,5,518.0,24.13,True,2019-02-09 00:00:00,Aggravated Assault,30.18784066,-97.74445417,2019.0,2.0,6.0,8.0,22.0
2019-02-09 00:00:00,AGG ASLT STRANGLE/SUFFOCATE,True,2019-02-13 20:19:00,RESIDENCE / HOME,12117 ACORN CREEK TRL,78750.0,6.0,AD,6,151.0,204.0,False,2019-02-27 00:00:00,Aggravated Assault,30.45721786,-97.80995557,2019.0,2.0,6.0,9.0,0.0
2019-02-09 00:16:00,RAPE,True,2019-02-09 00:16:00,RESIDENCE / HOME,5900 BLOCK HIDDEN VALLEY TRL,78744.0,2.0,FR,5,518.0,24.13,False,2019-02-12 00:00:00,Rape,,,2019.0,2.0,6.0,9.0,0.0
2019-02-09 00:42:00,AGG ASLT ENHANC STRANGL/SUFFOC,True,2019-02-10 15:45:00,RESIDENCE / HOME,5813 GLOWING STAR TRL,78724.0,1.0,CH,6,303.0,22.11,True,2019-02-13 00:00:00,Aggravated Assault,30.2793284,-97.62629967,2019.0,2.0,6.0,9.0,0.0
2019-02-09 04:55:00,AGG ASLT STRANGLE/SUFFOCATE,True,2019-02-09 04:55:00,RESIDENCE / HOME,2901 BARTON SKWY,78746.0,8.0,DA,4,464.0,,False,2019-02-27 00:00:00,Aggravated Assault,30.25873038,-97.78949342,2019.0,2.0,6.0,9.0,4.0
2019-02-09 12:37:00,AGG ASLT W/MOTOR VEH FAM/DAT V,True,2019-02-09 12:37:00,STREETS / HWY / ROAD / ALLEY,5506 ROSE HILL CIR,78745.0,5.0,DA,3,507.0,,False,2019-02-20 00:00:00,Aggravated Assault,30.21432975,-97.79421894,2019.0,2.0,6.0,9.0,12.0
2019-02-09 12:40:00,AGG ASSAULT,False,2019-02-09 12:46:00,STREETS / HWY / ROAD / ALLEY,1701 NELMS DR,78744.0,2.0,FR,8,516.0,24.19,False,2019-02-12 00:00:00,Aggravated Assault,30.19268653,-97.76547665,2019.0,2.0,6.0,9.0,12.0
2019-02-09 17:17:00,AGG ASSAULT FAM/DATE VIOLENCE,True,2019-02-09 17:17:00,RESIDENCE / HOME,2505 VILLAGE TRAIL CIR,78744.0,2.0,FR,5,493.0,24.11,True,2019-02-10 00:00:00,Aggravated Assault,30.19478601,-97.74599043,2019.0,2.0,6.0,9.0,17.0
2019-02-09 18:58:00,AGG ASSAULT,False,2019-02-09 18:58:00,STREETS / HWY / ROAD / ALLEY,2000 TILLERY ST,78723.0,1.0,CH,4,351.0,,False,2019-03-18 00:00:00,Aggravated Assault,30.28414669,-97.70207724,2019.0,2.0,6.0,9.0,18.0
2019-02-09 19:55:00,ROBBERY BY ASSAULT,False,2019-02-09 19:58:00,STREETS / HWY / ROAD / ALLEY,CAMERON RD / E ANDERSON LN SVRD WB,78754.0,4.0,ID,2,254.0,,False,2019-02-27 00:00:00,Robbery,30.33283643,-97.68617685,2019.0,2.0,6.0,9.0,19.0
2019-02-09 20:07:00,AGG ASSAULT,False,2019-02-09 20:07:00,STREETS / HWY / ROAD / ALLEY,1000 W 26TH ST,78705.0,9.0,BA,3,356.0,6.0,False,2019-04-05 00:00:00,Aggravated Assault,30.29113145,-97.74783204,2019.0,2.0,6.0,9.0,20.0
2019-02-09 20:10:00,AGG ASSAULT,False,2019-02-09 20:10:00,STREETS / HWY / ROAD / ALLEY,5429 N IH 35 SVRD NB,78723.0,4.0,ID,5,292.0,21.0,False,2019-02-25 00:00:00,Aggravated Assault,30.31365218,-97.70554274,2019.0,2.0,6.0,9.0,20.0
2019-02-09 22:15:00,AGG ROBBERY/DEADLY WEAPON,False,2019-02-09 22:15:00,PARKING LOTS / GARAGE,5700 CAMERON RD,78723.0,4.0,ID,5,292.0,21.0,False,2019-05-14 00:00:00,Robbery,30.31554109,-97.70229583,2019.0,2.0,6.0,9.0,22.0
2019-02-09 22:56:00,AGG ASSAULT FAM/DATE VIOLENCE,True,2019-02-10 01:46:00,RESTAURANTS,9516 N LAMAR BLVD,78758.0,4.0,ED,1,239.0,18.22,True,2019-02-10 00:00:00,Aggravated Assault,30.36532765,-97.69623711,2019.0,2.0,6.0,9.0,22.0
2019-02-10 00:15:00,AGG ROBBERY/DEADLY WEAPON,False,2019-02-10 01:07:00,RESIDENCE / HOME,12443 TECH RIDGE BLVD,78753.0,7.0,ED,6,206.0,18.39,False,2019-03-26 00:00:00,Robbery,30.39665647,-97.66375066,2019.0,2.0,6.0,10.0,0.0
2019-02-10 01:16:00,AGG ASLT STRANGLE/SUFFOCATE,True,2019-02-10 01:16:00,RESIDENCE / HOME,1108 VARGAS RD,78741.0,3.0,HE,5,444.0,23.12,True,2019-02-10 00:00:00,Aggravated Assault,30.23108738,-97.69622212,2019.0,2.0,6.0,10.0,1.0
2019-02-10 01:35:00,AGG ASSAULT,False,2019-02-10 12:49:00,HOTEL / MOTEL / ETC.,4800 N IH 35 SVRD SB,78751.0,9.0,BA,5,321.0,3.04,False,2019-02-12 00:00:00,Aggravated Assault,30.30604236,-97.71308802,2019.0,2.0,6.0,10.0,1.0
2019-02-10 02:00:00,RAPE OF A CHILD,False,2019-04-27 10:39:00,STREETS / HWY / ROAD / ALLEY,300 BLOCK BLOCK W RUNDBERG LN,78753.0,4.0,ED,1,240.0,,False,2019-07-23 00:00:00,Rape,,,2019.0,2.0,6.0,10.0,2.0
2019-02-10 02:35:00,ROBBERY BY ASSAULT,False,2019-02-10 02:35:00,PARKING LOTS / GARAGE,10015 LAKE CREEK PKWY,78729.0,6.0,AD,5,153.0,204.0,True,2019-02-10 00:00:00,Robbery,30.46721427,-97.78691923,2019.0,2.0,6.0,10.0,2.0
2019-02-10 08:00:00,RAPE,True,2019-05-30 18:08:00,RESIDENCE / HOME,8500 BLOCK BRODIE LN,78745.0,5.0,FR,1,98.0,17.29,False,2019-06-14 00:00:00,Rape,,,2019.0,2.0,6.0,10.0,8.0
2019-02-10 10:00:00,AGG ASSAULT,False,2020-04-21 18:36:00,STREETS / HWY / ROAD / ALLEY,213 BEAVER ST,78753.0,4.0,ED,1,250.0,18.0,False,2020-04-29 00:00:00,Aggravated Assault,30.35274663,-97.70155372,2019.0,2.0,6.0,10.0,10.0
2019-02-10 11:54:00,AGG ASSAULT,True,2019-02-10 11:54:00,RESIDENCE / HOME,6901 WENTWORTH DR,78724.0,1.0,CH,7,302.0,22.02,False,2019-03-08 00:00:00,Aggravated Assault,30.29494133,-97.62963344,2019.0,2.0,6.0,10.0,11.0
2019-02-10 13:44:00,AGG ASSAULT,False,2019-02-10 14:40:00,PARKING LOTS / GARAGE,2400 WICKERSHAM LN,78741.0,3.0,HE,4,458.0,23.14,False,2019-02-26 00:00:00,Aggravated Assault,30.22764855,-97.72330072,2019.0,2.0,6.0,10.0,13.0
2019-02-10 15:46:00,ROBBERY BY THREAT,False,2019-02-10 16:48:00,RESIDENCE / HOME,12300 HYMEADOW DR,78750.0,6.0,AD,6,827.0,204.05,False,2019-05-03 00:00:00,Robbery,30.45403435,-97.79788023,2019.0,2.0,6.0,10.0,15.0
2019-02-10 15:56:00,AGG ASLT STRANGLE/SUFFOCATE,True,2019-02-10 15:56:00,RESIDENCE / HOME,401 CHAPARRAL RD,78745.0,2.0,FR,3,528.0,24.22,False,2019-04-01 00:00:00,Aggravated Assault,30.1876551,-97.77682704,2019.0,2.0,6.0,10.0,15.0
2019-02-10 16:45:00,AGG ASSAULT,False,2019-02-10 17:04:00,PARKING LOTS / GARAGE,2410 E RIVERSIDE DR,78741.0,3.0,HE,2,441.0,23.0,True,2019-04-16 00:00:00,Aggravated Assault,30.23677947,-97.72423542,2019.0,2.0,6.0,10.0,16.0
2019-02-10 16:49:00,AGG ASSAULT,False,2019-02-10 16:49:00,GOVERNMENT / PUBLIC BUILDING,500 E 7TH ST,78701.0,9.0,GE,2,382.0,11.0,True,2019-02-11 00:00:00,Aggravated Assault,30.26797616,-97.737619,2019.0,2.0,6.0,10.0,16.0
2019-02-10 17:48:00,AGG ASLT STRANGLE/SUFFOCATE,True,2019-02-10 17:48:00,RESIDENCE / HOME,2414 VENTURA DR,78741.0,3.0,HE,2,482.0,23.07,True,2019-02-10 00:00:00,Aggravated Assault,30.21700291,-97.73524874,2019.0,2.0,6.0,10.0,17.0
2019-02-11 00:24:00,SEXUAL ASSAULT W/ OBJECT,False,2019-02-11 03:27:00,RESIDENCE / HOME,5200 BLOCK MATHRA DR,78617.0,2.0,HE,7,612.0,24.33,False,2019-04-05 00:00:00,Rape,,,2019.0,2.0,7.0,11.0,0.0
2019-02-11 10:20:00,ROBBERY BY ASSAULT,False,2019-02-11 10:25:00,TRANSPORTATION (AIR / BUS / TRAIN - TERMINALS),7100 BLOCK ROLAND JOHNSON DR,78752.0,4.0,ID,8,279.0,15.03,False,2019-02-16 00:00:00,Robbery,30.33203155,-97.70655136,2019.0,2.0,7.0,11.0,10.0
2019-02-11 11:34:00,AGG ASLT STRANGLE/SUFFOCATE,True,2019-02-11 11:34:00,RESIDENCE / HOME,5206 REGENCY CV,78724.0,1.0,CH,6,301.0,22.0,True,2019-02-11 00:00:00,Aggravated Assault,30.28732258,-97.66083549,2019.0,2.0,7.0,11.0,11.0
2019-02-11 12:05:00,AGG ROBBERY/DEADLY WEAPON,False,2019-02-11 12:05:00,PARKING LOTS / GARAGE,5510 S IH 35 SVRD SB,78745.0,3.0,DA,3,515.0,24.0,False,2019-03-14 00:00:00,Robbery,30.200441,-97.76444731,2019.0,2.0,7.0,11.0,12.0
2019-02-11 15:55:00,AGG ASSAULT WITH MOTOR VEH,False,2019-02-11 15:56:00,PARKING LOTS / GARAGE,11521 N FM 620 RD,78726.0,6.0,AD,8,739.0,17.14,False,2019-04-11 00:00:00,Aggravated Assault,30.45465335,-97.82589577,2019.0,2.0,7.0,11.0,15.0
2019-02-11 17:55:00,DEADLY CONDUCT,False,2019-02-12 18:05:00,GAS / SERVICE STATIONS,2125 W BEN WHITE BLVD SVRD EB,78745.0,5.0,DA,4,488.0,17.12,False,2019-02-19 00:00:00,Aggravated Assault,30.23096962,-97.79175125,2019.0,2.0,7.0,11.0,17.0
2019-02-11 18:15:00,AGG ASLT STRANGLE/SUFFOCATE,True,2019-02-11 18:15:00,RESIDENCE / HOME,2000 BURTON DR,78741.0,3.0,HE,2,457.0,23.15,False,2019-02-27 00:00:00,Aggravated Assault,30.23334836,-97.73227827,2019.0,2.0,7.0,11.0,18.0
2019-02-11 19:00:00,RAPE,True,2019-02-12 19:58:00,RESIDENCE / HOME,5100 BLOCK PURPLE SAGE DR,78724.0,1.0,CH,7,300.0,22.0,False,2019-02-28 00:00:00,Rape,,,2019.0,2.0,7.0,11.0,19.0
2019-02-12 09:09:00,ROBBERY BY THREAT,False,2019-02-12 09:09:00,BANKS / SAVINGS & LOAN,10900 RESEARCH BLVD SVRD SB,78759.0,10.0,AD,7,198.0,17.22,True,2019-02-12 00:00:00,Robbery,30.40149814,-97.74678232,2019.0,2.0,7.0,12.0,9.0
2019-02-12 17:59:00,ROBBERY BY ASSAULT,False,2019-02-12 19:05:00,CONVENIENCE STORE,1762 COLONY CREEK DR,78758.0,4.0,ED,2,235.0,18.2,True,2019-02-12 00:00:00,Robbery,30.36975218,-97.71526164,2019.0,2.0,7.0,12.0,17.0
2019-02-12 21:26:00,AGG ASSAULT FAM/DATE VIOLENCE,True,2019-02-12 21:26:00,RESIDENCE / HOME,8500 W SH 71,78735.0,8.0,DA,6,59.0,,False,2019-02-14 00:00:00,Aggravated Assault,30.24855683,-97.89008944,2019.0,2.0,7.0,12.0,21.0
2019-02-12 21:41:00,AGG ROBBERY/DEADLY WEAPON,False,2019-02-12 21:41:00,CONVENIENCE STORE,2800 W WILLIAM CANNON DR,78745.0,5.0,DA,4,504.0,17.5,False,2019-03-12 00:00:00,Robbery,30.20875901,-97.81797822,2019.0,2.0,7.0,12.0,21.0
2019-02-12 22:20:00,AGG ASSAULT FAM/DATE VIOLENCE,True,2019-02-12 22:20:00,RESIDENCE / HOME,4700 N CAPITAL OF TEXAS HWY SB,78746.0,10.0,BA,8,305.0,19.12,True,2019-02-13 00:00:00,Aggravated Assault,30.34522294,-97.80092091,2019.0,2.0,7.0,12.0,22.0
2019-02-13 00:23:00,AGG ROBBERY/DEADLY WEAPON,False,2019-02-13 00:23:00,RESIDENCE / HOME,7200 DUVAL ST,78752.0,4.0,ID,8,264.0,,False,2019-02-13 00:00:00,Robbery,30.33466159,-97.70725658,2019.0,2.0,7.0,13.0,0.0
2019-02-13 12:54:00,AGG ASSAULT,False,2019-02-13 12:54:00,RESIDENCE / HOME,1302 WILLOW ST,78702.0,3.0,CH,1,409.0,10.0,False,2019-02-18 00:00:00,Aggravated Assault,30.2589175,-97.7315641,2019.0,2.0,7.0,13.0,12.0
2019-02-13 13:00:00,ROBBERY BY ASSAULT,False,2019-02-13 17:28:00,RESIDENCE / HOME,2425 E RIVERSIDE DR,78741.0,3.0,HE,2,457.0,23.16,False,2019-04-12 00:00:00,Robbery,30.23532226,-97.72493362,2019.0,2.0,7.0,13.0,13.0
2019-02-13 14:57:00,AGG SEXUAL ASSAULT CHILD/OBJEC,True,2019-02-13 14:57:00,OTHER / UNKNOWN,700 BLOCK BLAIR AVE  BASTROP TX 78602,,,,,,,,,Rape,,,2019.0,2.0,7.0,13.0,14.0
2019-02-13 16:32:00,ROBBERY BY ASSAULT,False,2019-02-13 16:32:00,SPECIALTY  STORE (TV  FUR ETC.),11657 RESEARCH BLVD NB,78759.0,6.0,AD,2,199.0,,True,2019-06-17 00:00:00,Robbery,30.4165602,-97.74615602,2019.0,2.0,7.0,13.0,16.0
2019-02-13 17:34:00,ROBBERY BY ASSAULT,False,2019-02-13 17:34:00,CONVENIENCE STORE,613 CONGRESS AVE,78701.0,9.0,GE,2,381.0,11.0,True,2019-02-13 00:00:00,Robbery,30.268454,-97.7422037,2019.0,2.0,7.0,13.0,17.0
2019-02-13 21:00:00,ROBBERY BY ASSAULT,False,2019-02-15 10:07:00,STREETS / HWY / ROAD / ALLEY,7600 CAMERON RD,78752.0,4.0,ID,1,265.0,18.12,False,2019-03-28 00:00:00,Robbery,30.33111859,-97.68796466,2019.0,2.0,7.0,13.0,21.0
2019-02-13 21:30:00,SEXUAL ASSAULT W/ OBJECT,False,2019-02-16 15:03:00,PARKING LOTS / GARAGE,1100 BLOCK S LAMAR BLVD,78704.0,5.0,DA,1,451.0,13.0,False,2019-04-24 00:00:00,Rape,,,2019.0,2.0,7.0,13.0,21.0
2019-02-14 02:34:00,AGG ASLT STRANGLE/SUFFOCATE,True,2019-02-14 03:17:00,RESIDENCE / HOME,14201 N IH 35 SVRD NB,78660.0,7.0,ED,6,174.0,18.4,True,2019-03-12 00:00:00,Aggravated Assault,30.43270878,-97.66931266,2019.0,2.0,7.0,14.0,2.0
2019-02-14 04:14:00,AGG ASSAULT,False,2019-02-14 04:14:00,RESTAURANTS,13201 N FM 620 RD NB,78729.0,6.0,AD,5,153.0,204.0,,,Aggravated Assault,30.46793555,-97.79250733,2019.0,2.0,7.0,14.0,4.0
2019-02-14 06:15:00,AGG ASLT STRANGLE/SUFFOCATE,True,2019-02-14 06:15:00,RESIDENCE / HOME,6934 E BEN WHITE BLVD SVRD WB,78741.0,3.0,HE,5,459.0,,True,2019-02-14 00:00:00,Aggravated Assault,30.21566282,-97.70355009,2019.0,2.0,7.0,14.0,6.0
2019-02-14 11:30:00,AGG ASSAULT FAM/DATE VIOLENCE,True,2019-02-15 14:36:00,RESIDENCE / HOME,11015 FOUR POINTS DR,78726.0,6.0,AD,8,15,17.14,False,2019-02-21 00:00:00,Aggravated Assault,30.39908182,-97.84602228,2019.0,2.0,7.0,14.0,11.0
2019-02-14 12:00:00,RAPE,True,2019-02-14 17:10:00,RESIDENCE / HOME,12300 BLOCK METRIC BLVD,78758.0,7.0,AD,3,203.0,18.5,True,2019-03-21 00:00:00,Rape,,,2019.0,2.0,7.0,14.0,12.0
2019-02-14 13:11:00,ROBBERY BY THREAT,False,2019-02-14 13:11:00,PARKING LOTS / GARAGE,120 W SLAUGHTER LN,78748.0,2.0,FR,3,537.0,24.21,False,2019-06-07 00:00:00,Robbery,30.16746124,-97.7889142,2019.0,2.0,7.0,14.0,13.0
2019-02-14 19:08:00,AGG ASLT STRANGLE/SUFFOCATE,True,2019-02-14 19:08:00,RESIDENCE / HOME,1301 CROSSING PL,78741.0,3.0,HE,3,442.0,23.17,False,2019-04-05 00:00:00,Aggravated Assault,30.23653703,-97.71330141,2019.0,2.0,7.0,14.0,19.0
2019-02-14 22:41:00,ROBBERY BY ASSAULT,False,2019-02-14 22:41:00,OTHER / UNKNOWN,11902 N IH 35 NB,78753.0,7.0,ED,7,223.0,,True,2019-02-19 00:00:00,Robbery,30.38965315,-97.67231697,2019.0,2.0,7.0,14.0,22.0
2019-02-14 23:11:00,AGG ASLT STRANGLE/SUFFOCATE,True,2019-02-14 23:11:00,RESIDENCE / HOME,1088 PARK PLZ,78753.0,4.0,ED,3,251.0,18.13,True,2019-02-15 00:00:00,Aggravated Assault,30.34887091,-97.6852326,2019.0,2.0,7.0,14.0,23.0
2019-02-14 23:12:00,AGG ROBBERY/DEADLY WEAPON,False,2019-02-14 23:12:00,RESIDENCE / HOME,2515 ELMONT DR,78741.0,3.0,HE,2,441.0,23.0,True,2019-02-20 00:00:00,Robbery,30.23895008,-97.72075579,2019.0,2.0,7.0,14.0,23.0
2019-02-15 04:31:00,AGG ROBBERY/DEADLY WEAPON,False,2019-02-15 04:31:00,RESIDENCE / HOME,309 W WILLIAM CANNON DR,78745.0,2.0,FR,3,527.0,24.22,False,2019-02-16 00:00:00,Robbery,30.19448893,-97.7839662,2019.0,2.0,7.0,15.0,4.0
2019-02-15 15:21:00,AGG ASLT STRANGLE/SUFFOCATE,True,2019-02-15 15:21:00,RESIDENCE / HOME,2302 E WILLIAM CANNON DR,78744.0,2.0,FR,8,516.0,24.19,True,2019-02-15 00:00:00,Aggravated Assault,30.18669219,-97.75814874,2019.0,2.0,7.0,15.0,15.0
2019-02-15 18:00:00,AGG ASSAULT,False,2019-02-15 19:36:00,FIELD / WOODS,6100 SNEED CV,78744.0,2.0,FR,8,516.0,24.19,,,Aggravated Assault,30.19454094,-97.76386648,2019.0,2.0,7.0,15.0,18.0
2019-02-15 18:47:00,AGG ASSAULT,False,2019-02-15 18:50:00,STREETS / HWY / ROAD / ALLEY,1500 BLOCK N LAMAR BLVD,78701.0,9.0,BA,2,375.0,,False,2019-03-26 00:00:00,Aggravated Assault,30.28013324,-97.75071563,2019.0,2.0,7.0,15.0,18.0
2019-02-15 19:11:00,DEADLY CONDUCT,False,2019-02-15 19:11:00,RESIDENCE / HOME,4715 BLUEBERRY TRL,78723.0,1.0,CH,4,323.0,,False,2019-03-04 00:00:00,Aggravated Assault,30.29469225,-97.68515024,2019.0,2.0,7.0,15.0,19.0
2019-02-15 19:50:00,AGG ROBBERY/DEADLY WEAPON,False,2019-02-15 20:48:00,GAS / SERVICE STATIONS,9318 N IH 35 SVRD SB,78753.0,4.0,ED,1,250.0,18.0,False,2019-05-15 00:00:00,Robbery,30.35830469,-97.68883016,2019.0,2.0,7.0,15.0,19.0
2019-02-15 20:46:00,AGG ASSAULT FAM/DATE VIOLENCE,True,2019-02-15 20:46:00,RESIDENCE / HOME,1124 RUTLAND DR,78758.0,4.0,ED,1,239.0,,False,2019-02-16 00:00:00,Aggravated Assault,30.36871033,-97.70372535,2019.0,2.0,7.0,15.0,20.0
2019-02-15 22:00:00,AGG ASSAULT FAM/DATE VIOLENCE,True,2019-03-04 10:07:00,RESIDENCE / HOME,13730 N FM 620 RD SB,78717.0,6.0,AD,5,573.0,203.11,True,2019-03-10 00:00:00,Aggravated Assault,30.47675373,-97.77494682,2019.0,2.0,7.0,15.0,22.0
2019-02-15 22:11:00,DEADLY CONDUCT,False,2019-02-15 22:11:00,STREETS / HWY / ROAD / ALLEY,6010 W PARMER LN,78727.0,6.0,AD,3,711.0,17.85,False,2019-03-27 00:00:00,Aggravated Assault,30.44355222,-97.74125082,2019.0,2.0,7.0,15.0,22.0
2019-02-15 23:43:00,SEXUAL ASSAULT W/ OBJECT,True,2019-02-15 23:43:00,RESIDENCE / HOME,9300 BLOCK S 1ST ST,78748.0,5.0,FR,2,542.0,,False,2019-07-05 00:00:00,Rape,,,2019.0,2.0,7.0,15.0,23.0
2019-02-16 00:18:00,AGG ROBBERY BY ASSAULT,False,2019-02-16 00:50:00,HOTEL / MOTEL / ETC.,9909 N LAMAR BLVD,78753.0,4.0,ED,1,240.0,,False,2019-02-21 00:00:00,Robbery,30.36912497,-97.69338326,2019.0,2.0,7.0,16.0,0.0
2019-02-16 00:28:00,ROBBERY BY ASSAULT,False,2019-02-16 00:28:00,RESIDENCE / HOME,2311 WIRTZ AVE,78704.0,9.0,DA,1,471.0,13.05,False,2019-03-18 00:00:00,Robbery,30.24559738,-97.7674148,2019.0,2.0,7.0,16.0,0.0
2019-02-16 01:20:00,ROBBERY BY THREAT,False,2019-02-17 19:13:00,BAR / NIGHT CLUB,302 E 6TH ST,78701.0,9.0,GE,2,381.0,11.0,False,2019-03-04 00:00:00,Robbery,30.26761327,-97.74007168,2019.0,2.0,7.0,16.0,1.0
2019-02-16 02:28:00,ROBBERY BY ASSAULT,False,2019-02-16 03:57:00,PARKING LOTS / GARAGE,E 7TH ST / NECHES ST,78701.0,9.0,GE,2,382.0,11.0,True,2019-02-21 00:00:00,Robbery,30.26769906,-97.73792429,2019.0,2.0,7.0,16.0,2.0
2019-02-16 02:47:00,AGG ASSAULT FAM/DATE VIOLENCE,True,2019-02-16 02:47:00,STREETS / HWY / ROAD / ALLEY,5105 STAR LIGHT TER,78721.0,1.0,CH,5,397.0,,False,2019-03-04 00:00:00,Aggravated Assault,30.2736991,-97.68490542,2019.0,2.0,7.0,16.0,2.0
2019-02-16 03:30:00,AGG ASSAULT FAM/DATE VIOLENCE,True,2019-02-16 14:45:00,PARKING LOTS / GARAGE,9300 S IH 35 SVRD NB,78744.0,5.0,FR,7,543.0,24.25,False,2019-04-15 00:00:00,Aggravated Assault,30.16348297,-97.78718637,2019.0,2.0,7.0,16.0,3.0
2019-02-16 05:14:00,AGG ROBBERY/DEADLY WEAPON,False,2019-02-16 05:14:00,RESIDENCE / HOME,1781 SPYGLASS DR,78746.0,8.0,DA,4,464.0,,False,2019-02-26 00:00:00,Robbery,30.25836439,-97.79156238,2019.0,2.0,7.0,16.0,5.0
2019-02-16 05:49:00,RAPE,True,2019-02-16 05:49:00,RESIDENCE / HOME,6600 BLOCK LORETTA WHITE LN,78744.0,2.0,FR,6,520.0,,False,2019-03-25 00:00:00,Rape,,,2019.0,2.0,7.0,16.0,5.0
2019-02-16 09:51:00,AGG ASSAULT,False,2019-02-16 09:51:00,STREETS / HWY / ROAD / ALLEY,7400 BLOCK CHIMNEY CORNERS,78731.0,10.0,BA,8,256.0,17.51,False,2019-04-08 00:00:00,Aggravated Assault,30.36075034,-97.75819533,2019.0,2.0,7.0,16.0,9.0
2019-02-16 15:11:00,SEXUAL ASSAULT OF CHILD/OBJECT,True,2019-02-16 19:19:00,RESIDENCE / HOME,9700 BLOCK EASTWEND DR,78753.0,4.0,ED,1,240.0,18.23,False,2019-05-07 00:00:00,Rape,,,2019.0,2.0,7.0,16.0,15.0
2019-02-16 22:41:00,DEADLY CONDUCT,False,2019-02-16 22:41:00,RESIDENCE / HOME,12300 HARRIS BRANCH PKWY,78653.0,1.0,CH,8,226.0,18.56,False,2019-02-25 00:00:00,Aggravated Assault,30.36943348,-97.61375981,2019.0,2.0,7.0,16.0,22.0
2019-02-16 23:24:00,AGG ASSAULT FAM/DATE VIOLENCE,True,2019-02-16 23:24:00,RESIDENCE / HOME,5800 TECHNI CENTER DR,78721.0,1.0,CH,5,397.0,21.1,True,2019-03-17 00:00:00,Aggravated Assault,30.27877475,-97.67195423,2019.0,2.0,7.0,16.0,23.0
2019-02-17 02:44:00,ROBBERY BY ASSAULT,False,2019-02-17 02:44:00,STREETS / HWY / ROAD / ALLEY,200 BLOCK E 5TH ST,78701.0,9.0,GE,2,381.0,,True,2019-03-14 00:00:00,Robbery,30.26665833,-97.7412665,2019.0,2.0,7.0,17.0,2.0
2019-02-17 05:57:00,ROBBERY BY ASSAULT,False,2019-02-17 05:57:00,RESTAURANTS,1908 W BEN WHITE BLVD SVRD WB,78704.0,5.0,DA,2,468.0,20.0,True,2019-02-17 00:00:00,Robbery,30.2303278,-97.78713128,2019.0,2.0,7.0,17.0,5.0
2019-02-17 11:08:00,AGG ASSAULT FAM/DATE VIOLENCE,True,2019-02-17 11:08:00,STREETS / HWY / ROAD / ALLEY,3528 AUTUMN BAY DR,78744.0,2.0,HE,6,498.0,24.31,True,2019-02-17 00:00:00,Aggravated Assault,30.20046734,-97.69513598,2019.0,2.0,7.0,17.0,11.0
2019-02-17 18:53:00,AGG ROBBERY/DEADLY WEAPON,False,2019-02-17 18:53:00,HOTEL / MOTEL / ETC.,11901 PAVILION BLVD,78759.0,10.0,AD,7,190.0,,False,2019-02-27 00:00:00,Robbery,30.42460539,-97.75437566,2019.0,2.0,7.0,17.0,18.0
2019-02-17 20:00:00,DEADLY CONDUCT,False,2019-02-17 22:21:00,STREETS / HWY / ROAD / ALLEY,6700 LOYOLA LN,78724.0,1.0,CH,7,302.0,22.0,False,2019-03-13 00:00:00,Aggravated Assault,30.29929416,-97.64593012,2019.0,2.0,7.0,17.0,20.0
2019-02-17 20:47:00,ROBBERY BY THREAT,False,2019-02-17 20:47:00,DEPARTMENT / DISCOUNT STORE,7112 ED BLUESTEIN BLVD SVRD SB,78723.0,1.0,CH,4,299.0,21.0,False,2020-01-05 00:00:00,Robbery,30.31255869,-97.66380113,2019.0,2.0,7.0,17.0,20.0
