occurred_date,highest_offense_description,family_violence,report_date_time,location_type,address,zip_code,council_district,apd_sector,apd_district,clearance_status,clearance_date,latitude,longitude,year,month,week,day
2019-01-01,AGG ASSAULT,N,2019-01-01 03:34:00,OTHER / UNKNOWN,1934 RUTLAND DR,78758.0,4.0,ED,2,N,2019-01-27 00:00:00,30.37972058,-97.71302423,2019,1,1,1
2019-01-01,AGG ASSAULT,N,2019-01-01 15:50:00,STREETS / HWY / ROAD / ALLEY,1034 CLAYTON LN,78723.0,1.0,ID,5,N,2019-01-02 00:00:00,30.31954409,-97.70329309,2019,1,1,1
2019-01-01,RAPE,N,2019-01-03 21:42:00,RESIDENCE / HOME,8700 BLOCK W SH 71,78736.0,8.0,DA,6,N,2019-03-18 00:00:00,,,2019,1,1,1
2019-01-01,AGG ASSAULT,N,2019-01-01 10:16:00,RESIDENCE / HOME,1802 WEST AVE,78701.0,9.0,BA,2,N,2019-04-02 00:00:00,30.28224941,-97.74668193,2019,1,1,1
2019-01-01,AGG ASSAULT,N,2019-01-01 05:24:00,RESTAURANTS,707 E CESAR CHAVEZ ST,78701.0,9.0,GE,3,N,2019-01-22 00:00:00,30.2609912,-97.73739174,2019,1,1,1
2019-01-01,RAPE,Y,2019-01-01 11:22:00,HOTEL / MOTEL / ETC.,3900 BLOCK RED RIVER ST,78751.0,9.0,BA,5,N,2019-06-14 00:00:00,,,2019,1,1,1
2019-01-01,AGG ASSAULT,N,2019-01-01 10:53:00,STREETS / HWY / ROAD / ALLEY,4410 E RIVERSIDE DR,78741.0,3.0,HE,3,C,2019-03-27 00:00:00,30.23354856,-97.72116797,2019,1,1,1
2019-01-01,AGG ASSAULT,N,2019-01-01 16:34:00,STREETS / HWY / ROAD / ALLEY,301 E 5TH ST,78701.0,9.0,GE,2,N,2019-01-30 00:00:00,30.26613589,-97.74059297,2019,1,1,1
2019-01-02,AGG ASSAULT,N,2019-01-03 10:32:00,OTHER / UNKNOWN,4700 BLOCK MANOR RD,78723.0,9.0,BA,4,C,2019-07-01 00:00:00,,,2019,1,1,2
2019-01-02,RAPE,N,2019-01-02 20:45:00,STREETS / HWY / ROAD / ALLEY,500 BLOCK E 6TH ST,78701.0,9.0,GE,2,N,2019-01-05 00:00:00,,,2019,1,1,2
2019-01-02,AGG ASSAULT,N,2019-01-02 15:41:00,PARKING LOTS / GARAGE,12550 METRIC BLVD,78727.0,7.0,AD,3,N,2019-03-26 00:00:00,30.41447766,-97.69025622,2019,1,1,2
2019-01-03,AGG ROBBERY/DEADLY WEAPON,N,2019-01-03 10:07:00,AUTO DEALERSHIP NEW / USED,13300 N IH 35 SVRD SB,78753.0,7.0,ED,4,N,2019-03-12 00:00:00,30.41890776,-97.67371178,2019,1,1,3
2019-01-03,AGG ASSAULT,N,2019-01-03 19:42:00,STREETS / HWY / ROAD / ALLEY,214 HEARTWOOD DR,78745.0,3.0,DA,3,N,2019-03-01 00:00:00,30.21267107,-97.77307112,2019,1,1,3
2019-01-03,AGG ASSAULT,N,2019-01-03 19:18:00,STREETS / HWY / ROAD / ALLEY,7010 W SH 71,78735.0,8.0,DA,6,C,2019-02-12 00:00:00,30.23579838,-97.87599749,2019,1,1,3
2019-01-04,AGG ASSAULT,N,2019-01-04 12:27:00,STREETS / HWY / ROAD / ALLEY,1100 E CESAR CHAVEZ ST,78702.0,3.0,CH,1,N,2019-01-15 00:00:00,30.26047437,-97.7333344,2019,1,1,4
2019-01-04,RAPE,N,2019-03-08 22:26:00,RESIDENCE / HOME,2800 BLOCK S LAKELINE BLVD,78613.0,6.0,AD,6,C,2019-08-09 00:00:00,,,2019,1,1,4
2019-01-04,AGG ASSAULT,N,2019-01-04 13:04:00,STREETS / HWY / ROAD / ALLEY,300 N IH 35 NB,78753.0,7.0,CH,1,N,2019-04-11 00:00:00,30.26327483,-97.73553388,2019,1,1,4
2019-01-04,AGG ASSAULT,N,2019-01-04 00:32:00,RESIDENCE / HOME,2302 GRANBERRY DR,78745.0,5.0,FR,1,N,2019-02-04 00:00:00,30.20055311,-97.81257176,2019,1,1,4
2019-01-04,AGG ASSAULT,N,2019-01-04 13:03:00,PARKING LOTS / GARAGE,10815 FM 2222 RD,78730.0,6.0,AD,8,N,2019-02-27 00:00:00,30.39467528,-97.84755412,2019,1,1,4
2019-01-05,AGG ASSAULT,N,2019-01-05 17:41:00,HOTEL / MOTEL / ETC.,5526 N IH 35 SVRD SB,78751.0,4.0,ID,6,N,2019-01-08 00:00:00,30.31530425,-97.70845228,2019,1,1,5
2019-01-05,AGG ROBBERY/DEADLY WEAPON,N,2019-01-05 23:36:00,PARKING LOTS / GARAGE,12349 METRIC BLVD,78758.0,7.0,ED,4,C,2019-01-07 00:00:00,30.40977797,-97.69537019,2019,1,1,5
2019-01-05,RAPE,N,2019-01-07 00:28:00,RESIDENCE / HOME,3200 BLOCK W SLAUGHTER LN,78748.0,5.0,FR,1,N,2019-01-14 00:00:00,,,2019,1,1,5
2019-01-05,RAPE,N,2019-01-15 14:18:00,RESIDENCE / HOME,00 BLOCK UNKOWN,,,,,N,2019-04-15 00:00:00,,,2019,1,1,5
2019-01-05,AGG ASSAULT,N,2019-01-05 20:01:00,RESTAURANTS,2315 S CONGRESS AVE,78704.0,9.0,HE,1,N,2019-01-15 00:00:00,30.23935045,-97.75299097,2019,1,1,5
2019-01-05,AGG ROBBERY/DEADLY WEAPON,N,2019-01-05 01:42:00,PARKING LOTS / GARAGE,2211 W NORTH LOOP BLVD,78756.0,7.0,BA,6,N,2019-12-04 00:00:00,30.32478881,-97.74122979,2019,1,1,5
2019-01-05,AGG ROBBERY/DEADLY WEAPON,N,2019-01-05 23:47:00,PARKING LOTS / GARAGE,1301 CROSSING PL,78741.0,3.0,HE,3,N,2019-06-10 00:00:00,30.23653703,-97.71330141,2019,1,1,5
2019-01-05,AGG ROBBERY/DEADLY WEAPON,N,2019-01-05 23:15:00,STREETS / HWY / ROAD / ALLEY,1200 E 5TH ST,78702.0,3.0,CH,1,N,2019-04-22 00:00:00,30.26353937,-97.73081538,2019,1,1,5
2019-01-05,AGG ASSAULT,N,2019-01-05 02:17:00,BAR / NIGHT CLUB,10401 ANDERSON MILL RD,78750.0,6.0,AD,8,N,2019-01-21 00:00:00,30.44650265,-97.80562383,2019,1,1,5
2019-01-06,AGG ROBBERY/DEADLY WEAPON,N,2019-01-06 20:11:00,PARKING LOTS / GARAGE,1030 NORWOOD PARK BLVD,78753.0,4.0,ID,2,C,2019-02-20 00:00:00,30.3391525,-97.69116892,2019,1,1,6
2019-01-06,AGG ASSAULT,N,2019-01-06 01:18:00,PARKING LOTS / GARAGE,1934 RUTLAND DR,78758.0,4.0,ED,2,N,2019-03-18 00:00:00,30.37972058,-97.71302423,2019,1,1,6
2019-01-06,AGG ASSAULT,N,2019-01-06 11:46:00,RESIDENCE / HOME,200 CONGRESS AVE,78701.0,9.0,GE,4,C,2019-01-11 00:00:00,30.26459628,-97.74443007,2019,1,1,6
2019-01-06,AGG ROBBERY/DEADLY WEAPON,N,2019-01-06 22:44:00,PARKING LOTS / GARAGE,1113 RUTLAND DR,78758.0,4.0,ED,1,N,2019-02-13 00:00:00,30.36707309,-97.7016766,2019,1,1,6
2019-01-06,AGG ASSAULT,N,2019-01-06 02:42:00,STREETS / HWY / ROAD / ALLEY,60 EAST AVE,78701.0,9.0,GE,3,N,2019-01-17 00:00:00,30.25786889,-97.73830893,2019,1,1,6
2019-01-06,RAPE,N,2019-01-06 10:13:00,RESIDENCE / HOME,14300 BLOCK N IH 35 SVRD NB,78660.0,7.0,ED,6,C,2019-01-16 00:00:00,,,2019,1,1,6
2019-01-06,AGG ASSAULT,N,2019-01-06 22:42:00,STREETS / HWY / ROAD / ALLEY,9100 BLOCK NORTH PLZ,78753.0,4.0,ED,3,N,2019-01-09 00:00:00,30.35272161,-97.68670621,2019,1,1,6
2019-01-06,AGG ROBBERY/DEADLY WEAPON,N,2019-01-06 00:03:00,STREETS / HWY / ROAD / ALLEY,2500 AUDUBON PL,78741.0,3.0,HE,2,N,2019-01-06 00:00:00,30.23115284,-97.7407878,2019,1,1,6
2019-01-06,AGG ASSAULT,N,2019-01-06 21:21:00,RESIDENCE / HOME,5207 WOODLAND OAKS CT,78744.0,2.0,FR,5,N,2019-01-21 00:00:00,30.19510752,-97.74325578,2019,1,1,6
2019-01-06,AGG ROBBERY/DEADLY WEAPON,N,2019-01-06 11:07:00,CONVENIENCE STORE,1918 ROSEWOOD AVE,78702.0,1.0,CH,2,N,2019-06-26 00:00:00,30.27006915,-97.71827547,2019,1,1,6
2019-01-06,AGG ASSAULT,N,2019-01-06 07:10:00,HOTEL / MOTEL / ETC.,810 RED RIVER ST,78701.0,9.0,GE,1,N,2019-09-03 00:00:00,30.26915654,-97.73642123,2019,1,1,6
2019-01-07,AGG ROBBERY/DEADLY WEAPON,N,2019-01-07 05:57:00,PARKING LOTS / GARAGE,7033 E US 290 HWY SVRD EB,78723.0,1.0,ID,3,N,2019-02-13 00:00:00,30.32048257,-97.68608462,2019,1,2,7
2019-01-07,AGG ROBBERY/DEADLY WEAPON,N,2019-01-07 03:48:00,PARKING LOTS / GARAGE,1709 E SH 71 WB,78742.0,2.0,HE,8,N,2019-01-07 00:00:00,30.22110956,-97.67151624,2019,1,2,7
2019-01-07,AGG ROBBERY/DEADLY WEAPON,N,2019-01-07 01:44:00,STREETS / HWY / ROAD / ALLEY,7211 NORTHEAST DR,78723.0,1.0,ID,3,N,2019-02-13 00:00:00,30.32212322,-97.67923606,2019,1,2,7
2019-01-07,AGG ROBBERY/DEADLY WEAPON,N,2019-01-07 02:42:00,PARKING LOTS / GARAGE,6855 E US 290 HWY SVRD EB,78723.0,1.0,ID,3,C,2019-01-10 00:00:00,30.32066659,-97.68767105,2019,1,2,7
2019-01-07,AGG ASSAULT,N,2019-01-07 11:33:00,RESIDENCE / HOME,7204 INSPIRATION DR,78724.0,1.0,CH,7,N,2019-04-04 00:00:00,30.30959869,-97.65375505,2019,1,2,7
2019-01-08,AGG ROBBERY/DEADLY WEAPON,N,2019-01-08 21:05:00,RESTAURANTS,7110 CAMERON RD,78752.0,4.0,ID,1,N,2019-01-30 00:00:00,30.32600641,-97.6932061,2019,1,2,8
2019-01-09,AGG ASSAULT,N,2019-01-09 01:45:00,RESIDENCE / HOME,2102 NOGALES TRL,78744.0,2.0,FR,8,N,2019-01-15 00:00:00,30.18192002,-97.76620913,2019,1,2,9
2019-01-10,AGG ASSAULT,N,2019-01-10 05:35:00,RESIDENCE / HOME,2302 DURWOOD ST,78704.0,9.0,DA,1,N,2019-03-25 00:00:00,30.24193769,-97.7577335,2019,1,2,10
2019-01-10,AGG ASSAULT,N,2019-01-10 01:25:00,CONVENIENCE STORE,11724 RESEARCH BLVD SVRD SB,78759.0,10.0,AD,7,C,2019-01-10 00:00:00,30.41934013,-97.74789664,2019,1,2,10
2019-01-10,AGG ASSAULT,N,2019-01-10 16:17:00,STREETS / HWY / ROAD / ALLEY,SPRINGDALE RD / E US 290 HWY SVRD EB,78724.0,1.0,CH,7,N,2019-02-05 00:00:00,30.32816792,-97.65526531,2019,1,2,10
2019-01-10,AGG ROBBERY/DEADLY WEAPON,N,2019-01-10 13:01:00,RESIDENCE / HOME,8926 N LAMAR BLVD,78758.0,4.0,ED,1,N,2019-02-11 00:00:00,30.35875709,-97.69972149,2019,1,2,10
2019-01-11,AGG ASSAULT,N,2019-01-11 12:16:00,PARKING LOTS / GARAGE,13810 GEELONG DR,78660.0,,ED,8,C,2019-04-26 00:00:00,30.39618182,-97.61546741,2019,1,2,11
2019-01-12,RAPE,Y,2019-01-26 11:44:00,RESIDENCE / HOME,700 BLOCK TURTLE CREEK BLVD,78745.0,2.0,FR,4,,,,,2019,1,2,12
2019-01-12,RAPE,N,2019-01-13 20:07:00,PARKING LOTS / GARAGE,8800 BLOCK N IH 35 SVRD SB,78753.0,4.0,ED,1,N,2019-03-25 00:00:00,,,2019,1,2,12
2019-01-12,RAPE,Y,2019-02-12 17:14:00,RESIDENCE / HOME,200 BLOCK PEDERNALES ST,78702.0,3.0,CH,1,N,2019-02-14 00:00:00,,,2019,1,2,12
2019-01-12,AGG ASSAULT,N,2019-01-12 08:51:00,OTHER / UNKNOWN,7309 CAMERON RD,78752.0,4.0,ID,2,C,2019-01-12 00:00:00,30.32823802,-97.69018692,2019,1,2,12
2019-01-12,AGG ASSAULT,N,2019-01-12 07:30:00,CONVENIENCE STORE,8900 N LAMAR BLVD,78758.0,4.0,ED,1,N,2019-01-28 00:00:00,30.35828676,-97.70039084,2019,1,2,12
2019-01-12,AGG ASSAULT,N,2019-01-12 17:03:00,PARKING LOTS / GARAGE,814 E RUNDBERG LN,78753.0,4.0,ED,7,N,2019-01-17 00:00:00,30.35785478,-97.68661927,2019,1,2,12
2019-01-13,AGG ASSAULT,N,2019-01-13 07:11:00,STREETS / HWY / ROAD / ALLEY,2237 E RIVERSIDE DR,78741.0,3.0,HE,2,N,2019-01-13 00:00:00,30.23820652,-97.72624311,2019,1,2,13
2019-01-13,AGG ROBBERY/DEADLY WEAPON,N,2019-01-13 18:03:00,PARKING LOTS / GARAGE,7201 COLONY LOOP DR,78724.0,1.0,CH,7,N,2019-02-28 00:00:00,30.30039276,-97.63603557,2019,1,2,13
2019-01-13,AGG ROBBERY/DEADLY WEAPON,N,2019-01-13 20:57:00,PARK / PLAYGROUND,13858 N US 183 HWY SVRD SB,78750.0,6.0,AD,6,O,2019-01-15 00:00:00,30.46646105,-97.79749923,2019,1,2,13
2019-01-13,AGG ROBBERY/DEADLY WEAPON,N,2019-01-13 21:55:00,RESIDENCE / HOME,1124 RUTLAND DR,78758.0,4.0,ED,1,N,2019-03-19 00:00:00,30.36871033,-97.70372535,2019,1,2,13
2019-01-14,AGG ASSAULT,N,2019-01-14 08:43:00,STREETS / HWY / ROAD / ALLEY,E 6TH ST / TRINITY ST,78701.0,9.0,GE,2,C,2019-01-14 00:00:00,30.26706768,-97.73934174,2019,1,3,14
2019-01-14,AGG ROBBERY/DEADLY WEAPON,N,2019-01-14 01:15:00,PARKING LOTS / GARAGE,2207 WICKERSHAM LN,78741.0,3.0,HE,4,N,2019-01-14 00:00:00,30.22899132,-97.72063244,2019,1,3,14
2019-01-15,AGG ASSAULT,N,2019-01-15 14:55:00,STREETS / HWY / ROAD / ALLEY,5008 CAPE VERDE CV,78744.0,2.0,FR,5,N,2019-03-11 00:00:00,30.19353807,-97.74017927,2019,1,3,15
2019-01-15,RAPE,N,2019-04-22 13:26:00,RESIDENCE / HOME,2700 BLOCK SAN PEDRO ST,78705.0,9.0,BA,3,N,2019-05-17 00:00:00,,,2019,1,3,15
2019-01-15,AGG ASSAULT,N,2019-01-15 07:56:00,STREETS / HWY / ROAD / ALLEY,2210 SANTA ROSA ST,78702.0,3.0,CH,1,N,2019-03-04 00:00:00,30.25858374,-97.71841229,2019,1,3,15
2019-01-15,AGG ASSAULT,N,2019-01-15 07:20:00,PARK / PLAYGROUND,4800 COPPERBEND BLVD,78744.0,2.0,FR,5,N,2019-01-21 00:00:00,30.19901395,-97.73936421,2019,1,3,15
2019-01-15,RAPE,N,2019-01-17 14:41:00,RESIDENCE / HOME,1800 BLOCK HOLLY ST,78702.0,3.0,CH,1,N,2019-01-20 00:00:00,,,2019,1,3,15
2019-01-15,AGG ROBBERY/DEADLY WEAPON,N,2019-01-15 20:35:00,RESIDENCE / HOME,2305 RIO GRANDE ST,78705.0,9.0,BA,1,N,2019-04-10 00:00:00,30.287197,-97.7444894,2019,1,3,15
2019-01-16,AGG ASSAULT,N,2019-01-16 17:37:00,STREETS / HWY / ROAD / ALLEY,4361 S CONGRESS AVE,78745.0,3.0,DA,3,C,2019-01-16 00:00:00,30.21795096,-97.76657845,2019,1,3,16
2019-01-16,RAPE,N,2019-01-25 17:17:00,RESIDENCE / HOME,1000 BLOCK CLAYTON LN,78723.0,4.0,ID,5,N,2019-02-05 00:00:00,,,2019,1,3,16
2019-01-16,RAPE,N,2019-01-16 08:31:00,RESIDENCE / HOME,3100 BLOCK S IH 35 SVRD NB,78741.0,3.0,HE,2,N,2019-06-13 00:00:00,,,2019,1,3,16
2019-01-17,AGG ASSAULT,N,2019-01-17 23:41:00,STREETS / HWY / ROAD / ALLEY,1908 WAGON CROSSING PATH,78744.0,2.0,FR,5,C,2019-01-19 00:00:00,30.1949182,-97.75909778,2019,1,3,17
2019-01-17,RAPE,N,2019-01-20 04:15:00,RESIDENCE / HOME,600 BLOCK MASTERSON PASS,78753.0,4.0,ED,1,N,2019-05-29 00:00:00,,,2019,1,3,17
2019-01-17,RAPE,N,2019-01-17 12:12:00,RESIDENCE / HOME,4600 BLOCK W GUADALUPE ST,78751.0,9.0,BA,5,N,2019-02-13 00:00:00,,,2019,1,3,17
2019-01-18,RAPE,N,2019-01-19 07:40:00,RESIDENCE / HOME,11900 BLOCK ANDERSON MILL RD,78613.0,,88,88,N,2019-02-08 00:00:00,,,2019,1,3,18
2019-01-19,RAPE,Y,2019-02-06 14:12:00,PARK / PLAYGROUND,1300 BLOCK W 10TH ST,78703.0,9.0,BA,2,C,2019-04-04 00:00:00,,,2019,1,3,19
2019-01-19,AGG ASSAULT,N,2019-01-19 02:28:00,STREETS / HWY / ROAD / ALLEY,300 CONGRESS AVE,78701.0,9.0,GE,4,C,2019-01-29 00:00:00,30.26535591,-97.74391225,2019,1,3,19
2019-01-20,AGG ROBBERY/DEADLY WEAPON,N,2019-01-24 15:16:00,PARKING LOTS / GARAGE,8600 N FM 620 RD,78726.0,6.0,AD,8,N,2019-02-05 00:00:00,30.42518946,-97.84512323,2019,1,3,20
2019-01-20,CAPITAL MURDER,N,2019-01-20 22:00:00,RESIDENCE / HOME,9036 N LAMAR BLVD,78758.0,4.0,ED,1,,,30.36030464,-97.69887365,2019,1,3,20
2019-01-20,RAPE,N,2019-01-20 16:34:00,RESIDENCE / HOME,1100 BLOCK GARDNER CV,78721.0,3.0,CH,5,N,2019-03-06 00:00:00,,,2019,1,3,20
2019-01-20,AGG ROBBERY/DEADLY WEAPON,N,2019-01-20 19:35:00,PARKING LOTS / GARAGE,12800 TURTLE ROCK RD,78729.0,6.0,AD,4,N,2019-06-20 00:00:00,30.45157753,-97.7741391,2019,1,3,20
2019-01-20,RAPE,N,2019-01-22 12:45:00,RESIDENCE / HOME,500 BLOCK BATTLE BEND BLVD,78745.0,3.0,DA,3,C,2019-04-15 00:00:00,,,2019,1,3,20
2019-01-21,AGG ASSAULT,N,2019-01-21 23:46:00,PARKING LOTS / GARAGE,7610 CAMERON RD,78752.0,4.0,ID,1,N,2019-02-07 00:00:00,30.33173988,-97.6883503,2019,1,4,21
2019-01-21,AGG ROBBERY/DEADLY WEAPON,N,2019-01-21 01:39:00,PARKING LOTS / GARAGE,744 W WILLIAM CANNON DR,78745.0,2.0,FR,4,N,2019-01-22 00:00:00,30.19835668,-97.78926252,2019,1,4,21
2019-01-21,AGG ASSAULT,N,2019-01-21 18:10:00,STREETS / HWY / ROAD / ALLEY,5812 N IH 35 SVRD SB,78751.0,4.0,ID,6,N,2019-01-29 00:00:00,30.3198323,-97.70796135,2019,1,4,21
2019-01-21,AGG ROBBERY/DEADLY WEAPON,N,2019-01-21 22:44:00,GAS / SERVICE STATIONS,12800 PEARCE LN,78617.0,2.0,HE,7,C,2019-01-22 00:00:00,30.16925033,-97.62218829,2019,1,4,21
2019-01-22,RAPE,Y,2019-01-24 14:36:00,PARKING LOTS / GARAGE,4400 BLOCK E OLTORF ST,78741.0,3.0,HE,4,C,2019-04-04 00:00:00,,,2019,1,4,22
2019-01-22,RAPE,N,2019-01-22 19:49:00,RESIDENCE / HOME,7500 BLOCK EASTCREST DR,78752.0,4.0,ID,8,N,2019-01-23 00:00:00,,,2019,1,4,22
2019-01-22,AGG ASSAULT,N,2019-01-22 19:38:00,HOTEL / MOTEL / ETC.,6201 E US 290 HWY SVRD EB,78723.0,1.0,ID,5,N,2019-01-23 00:00:00,30.32143685,-97.70278181,2019,1,4,22
2019-01-23,RAPE,Y,2019-01-27 11:35:00,RESIDENCE / HOME,8200 BLOCK SAM RAYBURN DR,78753.0,4.0,ED,1,N,2019-04-04 00:00:00,,,2019,1,4,23
2019-01-23,AGG ASSAULT,N,2019-01-23 07:24:00,HOTEL / MOTEL / ETC.,400 E 4TH ST,78701.0,9.0,GE,2,N,2019-01-31 00:00:00,30.26521249,-97.73981298,2019,1,4,23
2019-01-24,AGG ASSAULT,N,2019-01-24 17:53:00,CONSTRUCTION SITE,2200 NUECES ST,78705.0,9.0,BA,1,,,30.28541375,-97.74416644,2019,1,4,24
2019-01-24,AGG ROBBERY/DEADLY WEAPON,N,2019-01-24 15:50:00,RESTAURANTS,9306 N LAMAR BLVD,78758.0,4.0,ED,1,C,2019-01-28 00:00:00,30.36254566,-97.69817811,2019,1,4,24
2019-01-24,AGG ASSAULT,N,2019-01-24 15:25:00,OTHER / UNKNOWN,2605 S IH 35 SVRD NB,78741.0,3.0,HE,2,C,2019-01-24 00:00:00,30.23001189,-97.74257626,2019,1,4,24
2019-01-25,CAPITAL MURDER,N,2019-01-25 17:55:00,STREETS / HWY / ROAD / ALLEY,8100 BLOCK SONNET AVE,78759.0,10.0,BA,8,C,2019-01-25 00:00:00,30.36601926,-97.74599571,2019,1,4,25
2019-01-25,AGG ROBBERY/DEADLY WEAPON,N,2019-01-25 09:51:00,DEPARTMENT / DISCOUNT STORE,2025 GUADALUPE ST,78705.0,9.0,BA,1,C,2019-01-25 00:00:00,30.28362462,-97.74164752,2019,1,4,25
2019-01-25,AGG ROBBERY/DEADLY WEAPON,N,2019-01-25 21:10:00,HOTEL / MOTEL / ETC.,6201 E US 290 HWY SVRD EB,78723.0,1.0,ID,5,N,2019-04-23 00:00:00,30.32143685,-97.70278181,2019,1,4,25
2019-01-26,AGG ASSAULT,N,2019-01-26 02:59:00,STREETS / HWY / ROAD / ALLEY,522 E 6TH ST,78701.0,9.0,GE,2,N,2019-04-11 00:00:00,30.26680379,-97.73731149,2019,1,4,26
2019-01-26,AGG ROBBERY/DEADLY WEAPON,N,2019-01-26 02:49:00,PARKING LOTS / GARAGE,12151 N IH 35 SVRD NB,78753.0,1.0,ED,7,N,2019-02-28 00:00:00,30.39438783,-97.67065387,2019,1,4,26
2019-01-26,AGG ASSAULT,N,2019-01-26 01:39:00,RESIDENCE / HOME,1708 RUTLAND DR,78758.0,4.0,ED,2,N,2019-02-13 00:00:00,30.37452301,-97.71049777,2019,1,4,26
2019-01-26,AGG ASSAULT,N,2019-01-29 13:54:00,PARKING LOTS / GARAGE,N IH 35 SVRD NB / E 7TH ST,78702.0,3.0,CH,1,N,2019-03-07 00:00:00,30.26656888,-97.73386417,2019,1,4,26
2019-01-26,AGG ROBBERY/DEADLY WEAPON,N,2019-01-26 15:50:00,STREETS / HWY / ROAD / ALLEY,6700 FELIX AVE,78741.0,3.0,HE,5,C,2019-06-06 00:00:00,30.23349736,-97.69264998,2019,1,4,26
2019-01-27,AGG ROBBERY/DEADLY WEAPON,N,2019-01-27 18:48:00,RESIDENCE / HOME,1730 E OLTORF ST,78741.0,9.0,HE,1,N,2019-01-27 00:00:00,30.23292142,-97.73739875,2019,1,4,27
2019-01-27,AGG ROBBERY/DEADLY WEAPON,N,2019-01-27 10:32:00,CONVENIENCE STORE,1600 OHLEN RD,78758.0,4.0,ED,2,N,2019-04-04 00:00:00,30.36436584,-97.71534125,2019,1,4,27
2019-01-27,AGG ASSAULT,N,2019-01-27 21:10:00,RESIDENCE / HOME,404 W STASSNEY LN,78745.0,3.0,DA,3,N,2019-02-01 00:00:00,30.20750887,-97.77899949,2019,1,4,27
2019-01-27,AGG ROBBERY/DEADLY WEAPON,Y,2019-01-27 22:25:00,RESIDENCE / HOME,744 W WILLIAM CANNON DR,78745.0,2.0,FR,4,C,2019-02-06 00:00:00,30.19835668,-97.78926252,2019,1,4,27
2019-01-27,RAPE,N,2019-01-29 20:13:00,HOTEL / MOTEL / ETC.,2700 BLOCK S IH 35 NB,78741.0,3.0,HE,2,N,2019-05-29 00:00:00,,,2019,1,4,27
2019-01-27,AGG ASSAULT,N,2019-01-29 19:18:00,RESIDENCE / HOME,2250 RIDGEPOINT DR,78754.0,1.0,ID,2,N,2019-03-12 00:00:00,30.33058555,-97.67615288,2019,1,4,27
2019-01-28,AGG ROBBERY/DEADLY WEAPON,N,2019-01-31 19:48:00,PARKING LOTS / GARAGE,12300 HYMEADOW DR,78750.0,6.0,AD,6,N,2019-03-19 00:00:00,30.45403435,-97.79788023,2019,1,5,28
2019-01-28,AGG ASSAULT,N,2019-01-28 15:30:00,STREETS / HWY / ROAD / ALLEY,12195 METRIC BLVD,78758.0,7.0,ED,4,C,2019-01-28 00:00:00,30.40720468,-97.69676063,2019,1,5,28
2019-01-28,AGG ASSAULT,N,2019-01-28 19:29:00,PARKING LOTS / GARAGE,1017 BARTON SPRINGS RD,78704.0,9.0,DA,1,C,2019-01-28 00:00:00,30.25994458,-97.75543457,2019,1,5,28
2019-01-29,AGG ASSAULT,N,2019-01-29 11:24:00,STREETS / HWY / ROAD / ALLEY,8610 N LAMAR BLVD,78758.0,4.0,ED,2,C,2019-01-30 00:00:00,30.3551549,-97.70364774,2019,1,5,29
2019-01-29,RAPE,N,2019-03-24 15:23:00,OTHER / UNKNOWN,2700 BLOCK RIO GRANDE ST,78705.0,9.0,BA,1,N,2019-06-11 00:00:00,,,2019,1,5,29
2019-01-29,AGG ASSAULT,N,2019-01-29 20:47:00,STREETS / HWY / ROAD / ALLEY,1126 TILLERY ST,78702.0,3.0,CH,2,N,2019-02-26 00:00:00,30.26830969,-97.70138722,2019,1,5,29
2019-01-29,AGG ASSAULT,Y,2019-01-29 23:54:00,HOTEL / MOTEL / ETC.,6603 N IH 35 SVRD NB,78752.0,4.0,ID,1,C,2019-01-30 00:00:00,30.3268287,-97.70297087,2019,1,5,29
2019-01-29,AGG ASSAULT,N,2019-01-29 19:30:00,RESIDENCE / HOME,2200 S PLEASANT VALLEY RD,78741.0,3.0,HE,2,N,2019-02-01 00:00:00,30.23154682,-97.7260523,2019,1,5,29
2019-01-29,AGG ROBBERY/DEADLY WEAPON,N,2019-01-29 11:55:00,STREETS / HWY / ROAD / ALLEY,900 BLACKSON AVE,78752.0,4.0,ID,1,N,2019-02-07 00:00:00,30.33418307,-97.69961549,2019,1,5,29
2019-01-30,AGG ASSAULT,N,2019-01-30 11:49:00,STREETS / HWY / ROAD / ALLEY,1300 PAYTON GIN RD,78758.0,4.0,ED,2,C,2019-02-25 00:00:00,30.36228164,-97.71012021,2019,1,5,30
2019-01-30,AGG ASSAULT,N,2019-01-30 09:30:00,PARKING LOTS / GARAGE,8610 N LAMAR BLVD,78758.0,4.0,ED,2,C,2019-01-30 00:00:00,30.3551549,-97.70364774,2019,1,5,30
2019-01-31,AGG ASSAULT,N,2019-01-31 17:00:00,STREETS / HWY / ROAD / ALLEY,5700 MESQUITE GROVE RD,78744.0,2.0,FR,6,,,30.19085648,-97.73475191,2019,1,5,31
2019-01-31,AGG ROBBERY/DEADLY WEAPON,N,2019-02-01 11:12:00,STREETS / HWY / ROAD / ALLEY,6600 BLOCK E RIVERSIDE DR,78741.0,3.0,HE,5,N,2019-03-15 00:00:00,30.2238152,-97.70035421,2019,1,5,31
2019-02-01,AGG ASSAULT,N,2019-02-01 23:22:00,PARKING LOTS / GARAGE,2224 E RIVERSIDE DR,78741.0,3.0,HE,2,N,2019-04-03 00:00:00,30.23883312,-97.72540895,2019,2,5,1
2019-02-01,AGG ASSAULT,N,2019-02-01 00:12:00,RESIDENCE / HOME,100 W NORTH LOOP BLVD,78751.0,9.0,ID,6,N,2019-03-11 00:00:00,30.31793144,-97.72221864,2019,2,5,1
2019-02-01,RAPE,N,2019-02-06 15:40:00,RESIDENCE / HOME,9100 BLOCK NORTHGATE BLVD,78758.0,4.0,ED,2,N,2019-03-14 00:00:00,,,2019,2,5,1
2019-02-01,AGG ROBBERY/DEADLY WEAPON,N,2019-02-01 23:59:00,PARKING LOTS / GARAGE,1088 PARK PLZ,78753.0,4.0,ED,3,N,2019-06-11 00:00:00,30.34887091,-97.6852326,2019,2,5,1
2019-02-01,AGG ASSAULT,N,2019-03-19 20:29:00,RESTAURANTS,7112 ED BLUESTEIN BLVD SB,78723.0,1.0,CH,4,,,30.31543977,-97.66334101,2019,2,5,1
2019-02-01,AGG ASSAULT,N,2019-02-01 23:56:00,RESIDENCE / HOME,1300 BLOCK CROSSING PL,78741.0,3.0,HE,3,N,2019-05-15 00:00:00,,,2019,2,5,1
2019-02-01,AGG ASSAULT,N,2019-02-01 04:17:00,STREETS / HWY / ROAD / ALLEY,600 E 6TH ST,78701.0,9.0,GE,2,N,2019-03-05 00:00:00,30.26658149,-97.73692775,2019,2,5,1
2019-02-01,AGG ROBBERY/DEADLY WEAPON,N,2019-02-01 00:10:00,RESIDENCE / HOME,12700 RIDGELINE BLVD,78613.0,6.0,AD,6,N,2019-03-04 00:00:00,30.46703805,-97.81031432,2019,2,5,1
2019-02-01,AGG ASSAULT,N,2019-02-01 21:29:00,STREETS / HWY / ROAD / ALLEY,202 WINCHESTER CT,78745.0,3.0,DA,3,N,2019-02-27 00:00:00,30.21212376,-97.76730012,2019,2,5,1
2019-02-02,AGG ASSAULT,N,2019-02-02 16:43:00,STREETS / HWY / ROAD / ALLEY,913 E 13TH ST,78702.0,1.0,CH,3,C,2019-02-02 00:00:00,30.27310776,-97.72918855,2019,2,5,2
2019-02-02,AGG ROBBERY/DEADLY WEAPON,N,2019-02-02 19:00:00,CONVENIENCE STORE,1719 E WILLIAM CANNON DR,78744.0,2.0,FR,8,N,2019-03-26 00:00:00,30.18856198,-97.76730535,2019,2,5,2
2019-02-02,AGG ASSAULT,N,2019-02-02 22:17:00,RESIDENCE / HOME,2516 GLEN SPRINGS WAY,78741.0,3.0,HE,2,N,2019-03-06 00:00:00,30.22904092,-97.73876678,2019,2,5,2
2019-02-02,RAPE,Y,2019-02-02 15:59:00,RESIDENCE / HOME,2200 BLOCK CHASEWYCH DR,78745.0,5.0,DA,4,N,2019-02-11 00:00:00,,,2019,2,5,2
2019-02-03,RAPE,N,2019-08-08 20:00:00,RESIDENCE / HOME,8800 BLOCK JODIE LN,78748.0,5.0,FR,1,N,2019-10-23 00:00:00,,,2019,2,5,3
2019-02-03,AGG ASSAULT,N,2019-02-03 01:37:00,STREETS / HWY / ROAD / ALLEY,500 E 7TH ST,78701.0,9.0,GE,2,C,2019-02-08 00:00:00,30.26797616,-97.737619,2019,2,5,3
2019-02-03,AGG ASSAULT,N,2019-02-03 22:35:00,RESIDENCE / HOME,8300 ROBIN CT,78758.0,4.0,ED,2,C,2019-03-05 00:00:00,30.35313434,-97.70906556,2019,2,5,3
2019-02-03,AGG ASSAULT,N,2019-02-03 09:53:00,RESIDENCE / HOME,5604 VALIANT CV,78749.0,8.0,DA,6,N,2019-03-05 00:00:00,30.23462216,-97.85292796,2019,2,5,3
2019-02-03,AGG ASSAULT,N,2019-02-03 23:02:00,STREETS / HWY / ROAD / ALLEY,404 KEMP ST,78741.0,3.0,HE,3,N,2019-03-17 00:00:00,30.24156798,-97.69470368,2019,2,5,3
2019-02-03,AGG ASSAULT,N,2019-02-03 21:08:00,STREETS / HWY / ROAD / ALLEY,8116 N FM 620 RD,78726.0,6.0,AD,8,N,2019-02-06 00:00:00,30.41729941,-97.84713888,2019,2,5,3
2019-02-04,RAPE,Y,2019-02-04 15:12:00,RESIDENCE / HOME,5700 BLOCK MANOR RD,78723.0,1.0,ID,4,N,2019-07-11 00:00:00,,,2019,2,6,4
2019-02-04,AGG ROBBERY/DEADLY WEAPON,N,2019-02-04 14:30:00,STREETS / HWY / ROAD / ALLEY,800 E RUNDBERG LN,78753.0,4.0,ED,7,C,2019-02-05 00:00:00,30.3579606,-97.68734899,2019,2,6,4
2019-02-04,AGG ASSAULT,N,2019-02-04 12:46:00,CONVENIENCE STORE,2241 S IH 35 SVRD NB,78741.0,9.0,HE,1,N,2019-02-27 00:00:00,30.23388841,-97.73992251,2019,2,6,4
2019-02-04,AGG ASSAULT,N,2019-02-04 16:56:00,PARKING LOTS / GARAGE,6503 BLUFF SPRINGS RD,78744.0,2.0,FR,8,N,2019-02-13 00:00:00,30.19031629,-97.76660024,2019,2,6,4
2019-02-04,RAPE,N,2019-02-04 18:17:00,RESIDENCE / HOME,3500 BLOCK BRECKENRIDGE DR,78744.0,2.0,HE,6,N,2019-05-10 00:00:00,,,2019,2,6,4
2019-02-04,AGG ASSAULT,N,2019-02-04 09:41:00,PARKING LOTS / GARAGE,15424 FM 1825 RD,78660.0,7.0,ED,6,N,2019-02-05 00:00:00,30.44908807,-97.66378377,2019,2,6,4
2019-02-05,RAPE,Y,2019-02-05 20:31:00,PARK / PLAYGROUND,2500 BLOCK DURWOOD ST,78704.0,3.0,DA,2,C,2019-02-06 00:00:00,,,2019,2,6,5
2019-02-05,AGG ROBBERY/DEADLY WEAPON,N,2019-02-05 15:42:00,SCHOOL - ELEMENTARY / SECONDARY,12400 MELLOW MEADOW DR,78750.0,6.0,AD,6,N,2019-02-26 00:00:00,30.45674409,-97.79805338,2019,2,6,5
2019-02-06,AGG ASSAULT,N,2019-02-06 13:53:00,RESIDENCE / HOME,4715 BLUEBERRY TRL,78723.0,1.0,CH,4,C,2019-03-25 00:00:00,30.29469225,-97.68515024,2019,2,6,6
2019-02-06,AGG ASSAULT,N,2019-02-06 23:39:00,STREETS / HWY / ROAD / ALLEY,4715 BLUEBERRY TRL,78723.0,1.0,CH,4,C,2019-02-07 00:00:00,30.29469225,-97.68515024,2019,2,6,6
2019-02-07,AGG ASSAULT,N,2019-02-07 01:39:00,PARKING LOTS / GARAGE,9629 RESEARCH BLVD SVRD NB,78759.0,7.0,AD,1,N,2019-02-14 00:00:00,30.38945289,-97.74343801,2019,2,6,7
2019-02-07,AGG ASSAULT,N,2019-02-07 19:28:00,STREETS / HWY / ROAD / ALLEY,8207 SAM RAYBURN DR,78753.0,4.0,ED,1,N,2019-03-01 00:00:00,30.34654094,-97.69950324,2019,2,6,7
2019-02-07,AGG ROBBERY/DEADLY WEAPON,N,2019-02-07 22:22:00,HOTEL / MOTEL / ETC.,4323 S IH 35 SVRD NB,78744.0,2.0,FR,5,C,2019-02-15 00:00:00,30.21164837,-97.75281261,2019,2,6,7
2019-02-07,AGG ASSAULT,N,2019-02-07 18:39:00,STREETS / HWY / ROAD / ALLEY,7403 TUMBLEWEED DR,78724.0,1.0,CH,7,N,2019-02-14 00:00:00,30.31240608,-97.65292897,2019,2,6,7
2019-02-08,RAPE,N,2019-02-08 10:23:00,RESIDENCE / HOME,1900 BLOCK RUTLAND DR,78758.0,4.0,ED,2,N,2019-06-21 00:00:00,,,2019,2,6,8
2019-02-08,AGG ROBBERY/DEADLY WEAPON,N,2019-02-08 00:52:00,GAS / SERVICE STATIONS,9704 GILES LN,78754.0,1.0,CH,8,C,2019-04-10 00:00:00,30.33162213,-97.6239636,2019,2,6,8
2019-02-08,AGG ROBBERY/DEADLY WEAPON,N,2019-02-08 20:10:00,CONVENIENCE STORE,6700 MANOR RD,78723.0,1.0,ID,3,C,2019-02-27 00:00:00,30.31056049,-97.66716903,2019,2,6,8
2019-02-08,AGG ASSAULT,Y,2019-02-08 03:58:00,PARKING LOTS / GARAGE,629 W BEN WHITE BLVD SVRD EB,78745.0,3.0,DA,3,N,2019-03-08 00:00:00,30.22591805,-97.77135811,2019,2,6,8
2019-02-08,AGG ROBBERY/DEADLY WEAPON,N,2019-02-08 00:15:00,CONVENIENCE STORE,8600 E US 290 HWY SVRD WB,78754.0,1.0,ED,3,C,2019-02-20 00:00:00,30.32898446,-97.65986218,2019,2,6,8
2019-02-08,AGG ROBBERY/DEADLY WEAPON,N,2019-02-08 23:52:00,CONVENIENCE STORE,2943 E 12TH ST,78702.0,1.0,CH,2,N,2019-04-11 00:00:00,30.27606253,-97.70417987,2019,2,6,8
2019-02-09,AGG ASSAULT,N,2019-02-09 20:07:00,STREETS / HWY / ROAD / ALLEY,1000 W 26TH ST,78705.0,9.0,BA,3,N,2019-04-05 00:00:00,30.29113145,-97.74783204,2019,2,6,9
2019-02-09,AGG ASSAULT,N,2019-02-09 18:58:00,STREETS / HWY / ROAD / ALLEY,2000 TILLERY ST,78723.0,1.0,CH,4,N,2019-03-18 00:00:00,30.28414669,-97.70207724,2019,2,6,9
2019-02-09,AGG ASSAULT,N,2019-02-09 12:46:00,STREETS / HWY / ROAD / ALLEY,1701 NELMS DR,78744.0,2.0,FR,8,N,2019-02-12 00:00:00,30.19268653,-97.76547665,2019,2,6,9
2019-02-09,RAPE,Y,2019-02-09 00:16:00,RESIDENCE / HOME,5900 BLOCK HIDDEN VALLEY TRL,78744.0,2.0,FR,5,N,2019-02-12 00:00:00,,,2019,2,6,9
2019-02-09,AGG ROBBERY/DEADLY WEAPON,N,2019-02-09 22:15:00,PARKING LOTS / GARAGE,5700 CAMERON RD,78723.0,4.0,ID,5,N,2019-05-14 00:00:00,30.31554109,-97.70229583,2019,2,6,9
2019-02-09,AGG ASSAULT,N,2019-02-09 20:10:00,STREETS / HWY / ROAD / ALLEY,5429 N IH 35 SVRD NB,78723.0,4.0,ID,5,N,2019-02-25 00:00:00,30.31365218,-97.70554274,2019,2,6,9
2019-02-10,AGG ROBBERY/DEADLY WEAPON,N,2019-02-10 01:07:00,RESIDENCE / HOME,12443 TECH RIDGE BLVD,78753.0,7.0,ED,6,N,2019-03-26 00:00:00,30.39665647,-97.66375066,2019,2,6,10
2019-02-10,AGG ASSAULT,N,2019-02-10 16:49:00,GOVERNMENT / PUBLIC BUILDING,500 E 7TH ST,78701.0,9.0,GE,2,C,2019-02-11 00:00:00,30.26797616,-97.737619,2019,2,6,10
2019-02-10,AGG ASSAULT,N,2019-02-10 17:04:00,PARKING LOTS / GARAGE,2410 E RIVERSIDE DR,78741.0,3.0,HE,2,C,2019-04-16 00:00:00,30.23677947,-97.72423542,2019,2,6,10
2019-02-10,AGG ASSAULT,N,2019-02-10 14:40:00,PARKING LOTS / GARAGE,2400 WICKERSHAM LN,78741.0,3.0,HE,4,N,2019-02-26 00:00:00,30.22764855,-97.72330072,2019,2,6,10
2019-02-10,RAPE,Y,2019-05-30 18:08:00,RESIDENCE / HOME,8500 BLOCK BRODIE LN,78745.0,5.0,FR,1,N,2019-06-14 00:00:00,,,2019,2,6,10
2019-02-10,AGG ASSAULT,Y,2019-02-10 11:54:00,RESIDENCE / HOME,6901 WENTWORTH DR,78724.0,1.0,CH,7,N,2019-03-08 00:00:00,30.29494133,-97.62963344,2019,2,6,10
2019-02-10,AGG ASSAULT,N,2020-04-21 18:36:00,STREETS / HWY / ROAD / ALLEY,213 BEAVER ST,78753.0,4.0,ED,1,N,2020-04-29 00:00:00,30.35274663,-97.70155372,2019,2,6,10
2019-02-10,AGG ASSAULT,N,2019-02-10 12:49:00,HOTEL / MOTEL / ETC.,4800 N IH 35 SVRD SB,78751.0,9.0,BA,5,N,2019-02-12 00:00:00,30.30604236,-97.71308802,2019,2,6,10
2019-02-11,RAPE,Y,2019-02-12 19:58:00,RESIDENCE / HOME,5100 BLOCK PURPLE SAGE DR,78724.0,1.0,CH,7,N,2019-02-28 00:00:00,,,2019,2,7,11
2019-02-11,AGG ROBBERY/DEADLY WEAPON,N,2019-02-11 12:05:00,PARKING LOTS / GARAGE,5510 S IH 35 SVRD SB,78745.0,3.0,DA,3,N,2019-03-14 00:00:00,30.200441,-97.76444731,2019,2,7,11
2019-02-12,AGG ROBBERY/DEADLY WEAPON,N,2019-02-12 21:41:00,CONVENIENCE STORE,2800 W WILLIAM CANNON DR,78745.0,5.0,DA,4,N,2019-03-12 00:00:00,30.20875901,-97.81797822,2019,2,7,12
2019-02-13,AGG ROBBERY/DEADLY WEAPON,N,2019-02-13 00:23:00,RESIDENCE / HOME,7200 DUVAL ST,78752.0,4.0,ID,8,N,2019-02-13 00:00:00,30.33466159,-97.70725658,2019,2,7,13
2019-02-13,AGG ASSAULT,N,2019-02-13 12:54:00,RESIDENCE / HOME,1302 WILLOW ST,78702.0,3.0,CH,1,N,2019-02-18 00:00:00,30.2589175,-97.7315641,2019,2,7,13
2019-02-14,RAPE,Y,2019-02-14 17:10:00,RESIDENCE / HOME,12300 BLOCK METRIC BLVD,78758.0,7.0,AD,3,C,2019-03-21 00:00:00,,,2019,2,7,14
2019-02-14,AGG ASSAULT,N,2019-02-14 04:14:00,RESTAURANTS,13201 N FM 620 RD NB,78729.0,6.0,AD,5,,,30.46793555,-97.79250733,2019,2,7,14
2019-02-14,AGG ROBBERY/DEADLY WEAPON,N,2019-02-14 23:12:00,RESIDENCE / HOME,2515 ELMONT DR,78741.0,3.0,HE,2,C,2019-02-20 00:00:00,30.23895008,-97.72075579,2019,2,7,14
2019-02-15,AGG ASSAULT,N,2019-02-15 19:36:00,FIELD / WOODS,6100 SNEED CV,78744.0,2.0,FR,8,,,30.19454094,-97.76386648,2019,2,7,15
2019-02-15,AGG ROBBERY/DEADLY WEAPON,N,2019-02-15 04:31:00,RESIDENCE / HOME,309 W WILLIAM CANNON DR,78745.0,2.0,FR,3,N,2019-02-16 00:00:00,30.19448893,-97.7839662,2019,2,7,15
2019-02-15,AGG ROBBERY/DEADLY WEAPON,N,2019-02-15 20:48:00,GAS / SERVICE STATIONS,9318 N IH 35 SVRD SB,78753.0,4.0,ED,1,N,2019-05-15 00:00:00,30.35830469,-97.68883016,2019,2,7,15
2019-02-15,AGG ASSAULT,N,2019-02-15 18:50:00,STREETS / HWY / ROAD / ALLEY,1500 BLOCK N LAMAR BLVD,78701.0,9.0,BA,2,N,2019-03-26 00:00:00,30.28013324,-97.75071563,2019,2,7,15
2019-02-16,AGG ASSAULT,N,2019-02-16 09:51:00,STREETS / HWY / ROAD / ALLEY,7400 BLOCK CHIMNEY CORNERS,78731.0,10.0,BA,8,N,2019-04-08 00:00:00,30.36075034,-97.75819533,2019,2,7,16
2019-02-16,AGG ROBBERY/DEADLY WEAPON,N,2019-02-16 05:14:00,RESIDENCE / HOME,1781 SPYGLASS DR,78746.0,8.0,DA,4,N,2019-02-26 00:00:00,30.25836439,-97.79156238,2019,2,7,16
2019-02-16,RAPE,Y,2019-02-16 05:49:00,RESIDENCE / HOME,6600 BLOCK LORETTA WHITE LN,78744.0,2.0,FR,6,N,2019-03-25 00:00:00,,,2019,2,7,16
2019-02-17,AGG ROBBERY/DEADLY WEAPON,N,2019-02-17 18:53:00,HOTEL / MOTEL / ETC.,11901 PAVILION BLVD,78759.0,10.0,AD,7,N,2019-02-27 00:00:00,30.42460539,-97.75437566,2019,2,7,17
2019-02-18,AGG ASSAULT,N,2019-02-18 22:35:00,PARKING LOTS / GARAGE,9133 NORTHGATE BLVD,78758.0,4.0,ED,2,N,2019-03-08 00:00:00,30.3711701,-97.71587339,2019,2,8,18
2019-02-18,AGG ROBBERY/DEADLY WEAPON,N,2019-02-18 11:50:00,RESIDENCE / HOME,1205 W RUNDBERG LN,78758.0,4.0,ED,1,N,2019-05-15 00:00:00,30.36690512,-97.70595994,2019,2,8,18
2019-02-18,AGG ASSAULT,N,2019-02-18 18:00:00,PARKING LOTS / GARAGE,512 W STASSNEY LN,78745.0,3.0,DA,3,N,2019-02-20 00:00:00,30.20824923,-97.78012937,2019,2,8,18
2019-02-18,AGG ASSAULT,N,2019-02-18 18:36:00,STREETS / HWY / ROAD / ALLEY,500 E 7TH ST,78701.0,9.0,GE,2,C,2019-02-19 00:00:00,30.26797616,-97.737619,2019,2,8,18
2019-02-18,AGG ASSAULT,N,2019-02-18 13:25:00,PARKING LOTS / GARAGE,11210 FM 2222 RD,78726.0,6.0,AD,8,N,2019-02-20 00:00:00,30.40000312,-97.85056416,2019,2,8,18
2019-02-18,AGG ASSAULT,Y,2019-02-18 20:45:00,RESIDENCE / HOME,1501 WARRIOR LN,78617.0,2.0,HE,8,C,2019-04-30 00:00:00,30.2218188,-97.665815,2019,2,8,18
2019-02-18,AGG ROBBERY/DEADLY WEAPON,N,2019-02-18 15:00:00,STREETS / HWY / ROAD / ALLEY,E 38TH HALF ST / N IH 35 SVRD SB,78751.0,9.0,BA,5,N,2019-02-19 00:00:00,30.29497956,-97.71978109,2019,2,8,18
2019-02-18,AGG ASSAULT,N,2019-02-18 18:50:00,STREETS / HWY / ROAD / ALLEY,6913 WENTWORTH DR,78724.0,1.0,CH,7,N,2019-03-18 00:00:00,30.29545905,-97.62836065,2019,2,8,18
2019-02-18,AGG ROBBERY/DEADLY WEAPON,N,2019-02-18 01:08:00,CONVENIENCE STORE,701 MASTERSON PASS,78753.0,4.0,ED,1,N,2019-04-24 00:00:00,30.37071617,-97.69185207,2019,2,8,18
2019-02-19,AGG ROBBERY/DEADLY WEAPON,N,2019-02-19 22:19:00,STREETS / HWY / ROAD / ALLEY,6800 BLOCK WENTWORTH DR,78724.0,1.0,CH,7,N,2019-07-23 00:00:00,30.29437652,-97.63102164,2019,2,8,19
2019-02-19,AGG ROBBERY/DEADLY WEAPON,N,2019-02-19 23:39:00,DRUG STORE / DR. OFFICE / HOSPITAL,2927 GUADALUPE ST,78705.0,9.0,BA,1,C,2019-03-06 00:00:00,30.29609745,-97.74192112,2019,2,8,19
2019-02-19,AGG ASSAULT,N,2019-02-19 14:16:00,STREETS / HWY / ROAD / ALLEY,800 E RUNDBERG LN,78753.0,4.0,ED,7,N,2019-02-21 00:00:00,30.3579606,-97.68734899,2019,2,8,19
2019-02-19,AGG ROBBERY/DEADLY WEAPON,N,2019-02-19 05:34:00,HOTEL / MOTEL / ETC.,5330 N IH 35 SVRD SB,78751.0,4.0,ID,6,N,2019-03-04 00:00:00,30.31255268,-97.70919917,2019,2,8,19
2019-02-20,AGG ASSAULT,N,2019-02-20 22:28:00,PARKING LOTS / GARAGE,9616 N LAMAR BLVD,78758.0,4.0,ED,1,N,2019-02-25 00:00:00,30.36679433,-97.69560388,2019,2,8,20
2019-02-20,AGG ASSAULT,N,2019-02-20 17:18:00,STREETS / HWY / ROAD / ALLEY,E OLTORF ST / PARKER LN,78741.0,3.0,HE,2,N,2019-02-25 00:00:00,30.2323144,-97.73689562,2019,2,8,20
2019-02-20,AGG ASSAULT,N,2019-02-20 14:18:00,STREETS / HWY / ROAD / ALLEY,50 BLOCK N IH 35 SVRD NB,78702.0,3.0,CH,1,C,2019-04-24 00:00:00,30.26050728,-97.73590616,2019,2,8,20
2019-02-20,AGG ASSAULT,N,2019-02-20 15:37:00,STREETS / HWY / ROAD / ALLEY,4300 N IH 35 SVRD NB,78722.0,9.0,CH,3,N,2019-02-25 00:00:00,30.30071344,-97.71570817,2019,2,8,20
2019-02-20,AGG ROBBERY/DEADLY WEAPON,N,2019-02-20 23:42:00,RESIDENCE / HOME,1105 FLANAGAN CV,78704.0,3.0,DA,2,N,2019-07-23 00:00:00,30.23947574,-97.7701907,2019,2,8,20
2019-02-21,AGG ROBBERY/DEADLY WEAPON,N,2019-02-21 05:07:00,PARKING LOTS / GARAGE,9091 RESEARCH BLVD NB,78758.0,7.0,AD,1,N,2019-03-20 00:00:00,30.37407786,-97.72792744,2019,2,8,21
2019-02-21,AGG ROBBERY/DEADLY WEAPON,N,2019-02-21 17:45:00,PARKING LOTS / GARAGE,411 W MARTIN LUTHER KING JR BLVD,78701.0,9.0,BA,1,C,2019-04-22 00:00:00,30.28129164,-97.74215698,2019,2,8,21
2019-02-21,AGG ASSAULT,N,2019-02-21 21:29:00,PARKING LOTS / GARAGE,917 N LAMAR BLVD,78703.0,9.0,GE,1,C,2019-02-21 00:00:00,30.2747032,-97.7520365,2019,2,8,21
2019-02-21,RAPE,Y,2019-03-15 12:00:00,RESIDENCE / HOME,2000 BLOCK RIO GRANDE ST,78705.0,9.0,BA,2,N,2019-07-08 00:00:00,,,2019,2,8,21
2019-02-22,AGG ASSAULT,N,2019-02-22 18:11:00,STREETS / HWY / ROAD / ALLEY,814 KING EDWARD PL,78745.0,2.0,FR,4,N,2019-03-26 00:00:00,30.20002656,-97.78983914,2019,2,8,22
2019-02-22,AGG ASSAULT,N,2019-02-22 20:50:00,RESIDENCE / HOME,6201 ADALEE AVE,78723.0,1.0,ID,4,C,2019-02-23 00:00:00,30.30869399,-97.67688881,2019,2,8,22
2019-02-22,AGG ASSAULT,N,2019-02-22 03:06:00,RESIDENCE / HOME,1305 VARGAS RD,78741.0,3.0,HE,5,N,2019-02-25 00:00:00,30.22922264,-97.69702368,2019,2,8,22
2019-02-23,AGG ASSAULT,N,2019-02-23 13:36:00,STREETS / HWY / ROAD / ALLEY,E 6TH ST / BRAZOS ST,78701.0,9.0,GE,2,C,2019-05-21 00:00:00,30.26768264,-97.74146079,2019,2,8,23
2019-02-23,AGG ASSAULT,N,2019-02-23 02:30:00,STREETS / HWY / ROAD / ALLEY,8801 PINEY POINT DR,78729.0,6.0,AD,4,C,2019-04-12 00:00:00,30.44918533,-97.77610096,2019,2,8,23
2019-02-23,AGG ASSAULT,N,2019-02-23 21:25:00,STREETS / HWY / ROAD / ALLEY,601 N IH 35 SVRD NB,78702.0,3.0,CH,1,C,2019-02-24 00:00:00,30.2657748,-97.73403764,2019,2,8,23
2019-02-23,AGG ASSAULT,N,2019-02-23 09:34:00,STREETS / HWY / ROAD / ALLEY,811 TRINITY ST,78701.0,9.0,GE,1,N,2019-04-11 00:00:00,30.26954298,-97.7381187,2019,2,8,23
2019-02-23,AGG ASSAULT,N,2019-02-27 12:48:00,FIELD / WOODS,7500 BLOCK S IH 35 SB,78745.0,2.0,FR,3,N,2019-03-06 00:00:00,30.18039239,-97.77755734,2019,2,8,23
2019-02-23,AGG ROBBERY/DEADLY WEAPON,N,2019-04-04 08:45:00,RESIDENCE / HOME,13021 LEGENDARY DR,78727.0,6.0,AD,3,N,2019-04-16 00:00:00,30.43529888,-97.7304018,2019,2,8,23
2019-02-24,AGG ASSAULT,N,2019-02-24 17:15:00,RESIDENCE / HOME,2801 LEEDS CV,78745.0,5.0,DA,4,N,2019-03-26 00:00:00,30.21576577,-97.81387215,2019,2,8,24
2019-02-24,MURDER,N,2019-02-25 00:24:00,RESIDENCE / HOME,8800 N IH 35 SVRD SB,78753.0,4.0,ED,1,C,2019-02-25 00:00:00,30.35225082,-97.69282075,2019,2,8,24
2019-02-24,AGG ASSAULT,N,2019-02-24 09:56:00,PARKING LOTS / GARAGE,909 E KOENIG LN SVRD EB,78751.0,4.0,ID,6,N,2019-04-10 00:00:00,30.32085631,-97.70934743,2019,2,8,24
2019-02-24,AGG ASSAULT,N,2019-02-24 15:38:00,STREETS / HWY / ROAD / ALLEY,3101 ALICE AVE,78617.0,2.0,HE,8,N,2019-03-05 00:00:00,30.20469065,-97.63763425,2019,2,8,24
2019-02-24,AGG ROBBERY/DEADLY WEAPON,N,2019-02-26 22:27:00,RESIDENCE / HOME,5808 TERI RD,78744.0,2.0,FR,6,N,2019-03-21 00:00:00,30.19165983,-97.73110837,2019,2,8,24
2019-02-24,AGG ASSAULT,N,2019-02-24 04:21:00,PARKING LOTS / GARAGE,11520 ROCK ROSE AVE,78758.0,7.0,AD,2,N,2019-02-28 00:00:00,30.40154535,-97.722632,2019,2,8,24
2019-02-25,RAPE,N,2019-02-25 13:44:00,RESIDENCE / HOME,11000 BLOCK JOLLYVILLE RD,78759.0,10.0,AD,7,N,2019-03-03 00:00:00,,,2019,2,9,25
2019-02-25,AGG ROBBERY/DEADLY WEAPON,N,2019-02-25 06:31:00,PARKING LOTS / GARAGE,1622 RUTLAND DR,78758.0,4.0,ED,2,N,2019-12-19 00:00:00,30.3726965,-97.7116957,2019,2,9,25
2019-02-26,AGG ASSAULT,N,2019-02-26 22:03:00,STREETS / HWY / ROAD / ALLEY,500 E 7TH ST,78701.0,9.0,GE,2,C,2019-02-27 00:00:00,30.26797616,-97.737619,2019,2,9,26
2019-02-27,AGG ASSAULT,N,2019-02-27 20:54:00,PARKING LOTS / GARAGE,1105 E CESAR CHAVEZ ST,78702.0,3.0,CH,1,N,2019-03-04 00:00:00,30.25988234,-97.73329965,2019,2,9,27
2019-02-28,AGG ASSAULT,N,2019-02-28 20:56:00,STREETS / HWY / ROAD / ALLEY,2530 S CONGRESS AVE,78704.0,3.0,DA,2,C,2019-03-05 00:00:00,30.23717637,-97.7552473,2019,2,9,28
2019-02-28,AGG ASSAULT,N,2019-02-28 21:24:00,RESTAURANTS,300 S LAMAR BLVD SB,78704.0,5.0,DA,1,N,2019-04-03 00:00:00,30.26286603,-97.75861046,2019,2,9,28
2019-02-28,AGG ASSAULT,N,2019-03-01 18:30:00,STREETS / HWY / ROAD / ALLEY,5616 ZACHARY SCOTT ST,78747.0,2.0,FR,7,N,2019-03-05 00:00:00,30.13948181,-97.7702694,2019,2,9,28
2019-03-01,AGG ROBBERY/DEADLY WEAPON,N,2019-03-08 16:38:00,PARKING LOTS / GARAGE,3401 RED RIVER ST,78705.0,9.0,BA,1,C,2019-03-08 00:00:00,30.29278757,-97.72518396,2019,3,9,1
2019-03-02,AGG ASSAULT,N,2019-03-02 15:20:00,STREETS / HWY / ROAD / ALLEY,1500 E STASSNEY LN,78744.0,2.0,FR,5,N,2019-07-12 00:00:00,30.19820141,-97.76344617,2019,3,9,2
2019-03-02,AGG ASSAULT,N,2019-03-02 10:45:00,CAMP / CAMPGROUND,7200 S IH 35 SB,78745.0,2.0,FR,3,N,2019-04-08 00:00:00,30.18319906,-97.77569764,2019,3,9,2
2019-03-02,AGG ASSAULT,N,2019-03-02 14:15:00,CONVENIENCE STORE,4501 E MARTIN LUTHER KING JR BLVD,78721.0,1.0,CH,4,C,2019-03-02 00:00:00,30.28523023,-97.68431648,2019,3,9,2
2019-03-02,AGG ASSAULT,N,2019-03-02 02:21:00,DEPARTMENT / DISCOUNT STORE,1801 E 51ST ST,78723.0,9.0,BA,4,,,30.30178356,-97.69867079,2019,3,9,2
2019-03-02,AGG ASSAULT,N,2019-03-02 10:09:00,STREETS / HWY / ROAD / ALLEY,700 N IH 35 SVRD NB,78702.0,1.0,CH,2,C,2019-03-05 00:00:00,30.26705637,-97.73376232,2019,3,9,2
2019-03-03,RAPE,N,2019-03-04 00:07:00,RESIDENCE / HOME,2900 BLOCK BARTON SKWY,78746.0,8.0,DA,4,N,2019-03-05 00:00:00,,,2019,3,9,3
2019-03-03,AGG ASSAULT,N,2019-03-03 03:20:00,RESIDENCE / HOME,9004 SEDGEMOOR TRL,78748.0,5.0,FR,1,N,2019-04-09 00:00:00,30.18322388,-97.82126097,2019,3,9,3
2019-03-03,AGG ASSAULT,N,2019-03-03 20:09:00,RESIDENCE / HOME,4613 E 12TH ST,78721.0,1.0,CH,4,N,2019-04-03 00:00:00,30.27838117,-97.6861491,2019,3,9,3
2019-03-03,AGG ROBBERY/DEADLY WEAPON,N,2019-03-03 22:09:00,CONVENIENCE STORE,4501 GUADALUPE ST,78751.0,9.0,BA,5,C,2019-04-22 00:00:00,30.31091385,-97.73270131,2019,3,9,3
2019-03-03,AGG ASSAULT,N,2019-03-03 18:33:00,AUTO DEALERSHIP NEW / USED,2311 REBEL RD,78704.0,9.0,HE,1,N,2019-03-15 00:00:00,30.2373487,-97.74987694,2019,3,9,3
2019-03-04,RAPE,N,2019-03-04 15:40:00,DAYCARE FACILITY,100 BLOCK CUMBERLAND RD,78704.0,3.0,DA,2,N,2019-04-18 00:00:00,,,2019,3,10,4
2019-03-04,AGG ROBBERY/DEADLY WEAPON,N,2019-03-04 09:21:00,BANKS / SAVINGS & LOAN,7900 SHOAL CREEK BLVD,78757.0,7.0,BA,6,C,2019-03-25 00:00:00,30.36171684,-97.74091288,2019,3,10,4
2019-03-04,RAPE,Y,2019-03-04 11:04:00,RESIDENCE / HOME,800 BLOCK E SLAUGHTER LN,78744.0,2.0,FR,7,C,2019-03-15 00:00:00,,,2019,3,10,4
2019-03-04,AGG ROBBERY/DEADLY WEAPON,N,2019-03-04 01:41:00,GAS / SERVICE STATIONS,11643 RESEARCH BLVD SVRD NB,78759.0,6.0,AD,2,N,2019-04-24 00:00:00,30.41641687,-97.74545854,2019,3,10,4
2019-03-05,AGG ASSAULT,N,2019-03-05 10:21:00,STREETS / HWY / ROAD / ALLEY,5500 MANCHACA RD,78745.0,5.0,DA,4,C,2019-03-18 00:00:00,30.21659949,-97.79731024,2019,3,10,5
2019-03-06,AGG ROBBERY/DEADLY WEAPON,N,2019-03-06 02:00:00,RESIDENCE / HOME,3012 S 4TH ST,78704.0,3.0,DA,2,C,2020-05-08 00:00:00,30.23559635,-97.76764568,2019,3,10,6
2019-03-06,AGG ASSAULT,N,2019-03-06 09:28:00,STREETS / HWY / ROAD / ALLEY,6800 E RIVERSIDE DR,78741.0,3.0,HE,5,N,2019-03-12 00:00:00,30.22283157,-97.69812924,2019,3,10,6
2019-03-07,AGG ASSAULT,N,2019-03-07 05:29:00,RESIDENCE / HOME,2336 DOUGLAS ST,78741.0,3.0,HE,2,N,2019-04-23 00:00:00,30.22823533,-97.73294807,2019,3,10,7
2019-03-07,AGG ROBBERY/DEADLY WEAPON,N,2019-03-07 07:16:00,PARKING LOTS / GARAGE,12113 METRIC BLVD,78758.0,7.0,ED,4,C,2019-12-19 00:00:00,30.4038883,-97.69799361,2019,3,10,7
2019-03-07,RAPE,Y,2019-03-12 12:00:00,RESIDENCE / HOME,00 BLOCK UNKNOWN,,,,,N,2019-04-03 00:00:00,,,2019,3,10,7
2019-03-07,AGG ASSAULT,N,2019-03-07 15:29:00,STREETS / HWY / ROAD / ALLEY,6607 S IH 35 SVRD NB,78744.0,2.0,FR,8,N,2019-04-08 00:00:00,30.18875113,-97.76892127,2019,3,10,7
2019-03-07,MURDER,Y,2019-03-07 19:50:00,RESIDENCE / HOME,40 N IH 35 SVRD SB,78701.0,9.0,GE,3,C,2019-03-07 00:00:00,30.25491476,-97.73802399,2019,3,10,7
2019-03-07,AGG ROBBERY/DEADLY WEAPON,N,2019-03-07 06:19:00,GAS / SERVICE STATIONS,3505 W WELLS BRANCH PKWY,78727.0,7.0,AD,3,N,2019-08-02 00:00:00,30.43974285,-97.69748609,2019,3,10,7
2019-03-08,AGG ASSAULT,N,2019-03-08 15:35:00,PARKING LOTS / GARAGE,PORTER ST / MONTOPOLIS DR,78741.0,3.0,HE,5,N,2019-03-13 00:00:00,30.23105459,-97.69957406,2019,3,10,8
2019-03-08,RAPE,N,2019-03-08 07:19:00,OTHER / UNKNOWN,2600 BLOCK EKTOM DR,78745.0,5.0,DA,4,N,2019-04-11 00:00:00,,,2019,3,10,8
2019-03-08,AGG ASSAULT,N,2019-03-08 19:32:00,GAS / SERVICE STATIONS,3401 N IH 35 SVRD NB,78722.0,9.0,CH,3,N,2019-03-13 00:00:00,30.29178072,-97.72098647,2019,3,10,8
2019-03-08,AGG ASSAULT,N,2019-03-08 21:08:00,STREETS / HWY / ROAD / ALLEY,4700 LOYOLA LN,78723.0,1.0,CH,4,C,2019-06-07 00:00:00,30.30965417,-97.66630649,2019,3,10,8
2019-03-08,AGG ASSAULT,N,2019-03-08 15:20:00,STREETS / HWY / ROAD / ALLEY,3700 GUADALUPE ST,78705.0,9.0,BA,3,C,2019-03-08 00:00:00,30.30216554,-97.73869948,2019,3,10,8
2019-03-09,AGG ASSAULT,N,2019-03-09 08:26:00,STREETS / HWY / ROAD / ALLEY,4509 E ST ELMO RD,78744.0,2.0,FR,5,C,2019-03-12 00:00:00,30.20549246,-97.73862345,2019,3,10,9
2019-03-09,RAPE,N,2019-03-12 02:10:00,RESIDENCE / HOME,00 BLOCK KERN RAMBLE,78722.0,9.0,CH,3,N,2019-05-09 00:00:00,,,2019,3,10,9
2019-03-09,AGG ASSAULT,N,2019-03-09 20:56:00,BAR / NIGHT CLUB,3701 N IH 35 SVRD NB,78722.0,9.0,CH,3,C,2019-05-15 00:00:00,30.29357147,-97.71992064,2019,3,10,9
2019-03-09,AGG ASSAULT,N,2019-03-09 08:40:00,STREETS / HWY / ROAD / ALLEY,500 E 7TH ST,78701.0,9.0,GE,2,C,2019-03-09 00:00:00,30.26797616,-97.737619,2019,3,10,9
2019-03-09,RAPE,N,2019-03-09 03:24:00,RESIDENCE / HOME,13500 BLOCK LYNDHURST ST,78717.0,6.0,AD,5,N,2019-03-26 00:00:00,,,2019,3,10,9
2019-03-09,AGG ROBBERY/DEADLY WEAPON,N,2019-03-09 07:25:00,STREETS / HWY / ROAD / ALLEY,100 BLOCK E 6TH ST,78701.0,9.0,GE,2,N,2019-04-11 00:00:00,30.26793792,-97.74211616,2019,3,10,9
2019-03-10,AGG ASSAULT,N,2019-03-10 06:16:00,STREETS / HWY / ROAD / ALLEY,110 W NORTH LOOP BLVD,78751.0,9.0,ID,6,N,2019-03-14 00:00:00,30.31822091,-97.72292727,2019,3,10,10
2019-03-10,RAPE,Y,2019-03-10 07:37:00,RESIDENCE / HOME,800 BLOCK E SLAUGHTER LN,78744.0,2.0,FR,7,N,2019-09-20 00:00:00,,,2019,3,10,10
2019-03-10,AGG ROBBERY/DEADLY WEAPON,N,2019-03-10 22:11:00,PARKING LOTS / GARAGE,5701 AINEZ DR,78744.0,2.0,FR,6,C,2019-12-12 00:00:00,30.18783075,-97.73934468,2019,3,10,10
2019-03-10,AGG ASSAULT,N,2019-03-10 15:10:00,STREETS / HWY / ROAD / ALLEY,3111 PARKER LN,78741.0,3.0,HE,2,N,2019-03-14 00:00:00,30.22356137,-97.74198286,2019,3,10,10
2019-03-10,AGG ROBBERY/DEADLY WEAPON,N,2019-03-10 00:34:00,PARKING LOTS / GARAGE,4600 MONTEREY OAKS BLVD,78749.0,8.0,DA,6,N,2019-03-13 00:00:00,30.23150211,-97.83743153,2019,3,10,10
2019-03-10,RAPE,N,2019-03-10 20:46:00,RESIDENCE / HOME,6200 BLOCK SNEED CV,78744.0,2.0,FR,8,N,2019-07-24 00:00:00,,,2019,3,10,10
2019-03-10,AGG ROBBERY/DEADLY WEAPON,N,2019-03-10 23:53:00,RESIDENCE / HOME,2601 SCOFIELD RIDGE PKWY,78727.0,7.0,AD,3,C,2019-03-11 00:00:00,30.4287284,-97.69699068,2019,3,10,10
2019-03-10,RAPE,Y,2019-03-10 20:10:00,RESIDENCE / HOME,12200 BLOCK TYSON CV,78758.0,7.0,AD,3,N,2019-04-22 00:00:00,,,2019,3,10,10
2019-03-11,AGG ROBBERY/DEADLY WEAPON,N,2019-03-11 02:42:00,CONVENIENCE STORE,5345 N IH 35 SVRD NB,78723.0,4.0,ID,5,N,2019-04-09 00:00:00,30.31271177,-97.70743231,2019,3,11,11
2019-03-11,AGG ROBBERY/DEADLY WEAPON,N,2019-04-16 20:44:00,RESIDENCE / HOME,12833 N FM 620 RD NB,78750.0,6.0,AD,6,C,2019-05-01 00:00:00,30.46627531,-97.80132683,2019,3,11,11
2019-03-11,AGG ROBBERY/DEADLY WEAPON,N,2019-03-11 16:25:00,SPECIALTY  STORE (TV  FUR ETC.),5445 N IH 35 SVRD NB,78723.0,4.0,ID,5,N,2019-08-20 00:00:00,30.31469537,-97.70746076,2019,3,11,11
2019-03-11,AGG ASSAULT,N,2019-03-11 17:41:00,DRUG STORE / DR. OFFICE / HOSPITAL,9900 S IH 35 SVRD SB,78748.0,5.0,FR,2,C,2019-03-27 00:00:00,30.15613529,-97.79236136,2019,3,11,11
2019-03-11,AGG ASSAULT,N,2019-03-11 00:02:00,PARKING LOTS / GARAGE,1401 S LAMAR BLVD,78704.0,5.0,DA,1,C,2019-03-11 00:00:00,30.25305015,-97.76285757,2019,3,11,11
2019-03-11,AGG ROBBERY/DEADLY WEAPON,N,2019-03-11 09:29:00,RESIDENCE / HOME,2927 ELLON RD,78617.0,2.0,HE,8,C,2019-11-07 00:00:00,30.20749498,-97.64137492,2019,3,11,11
2019-03-11,RAPE,N,2019-03-13 09:21:00,RESIDENCE / HOME,500 BLOCK W 10TH ST,78701.0,9.0,GE,1,N,2019-03-23 00:00:00,,,2019,3,11,11
2019-03-12,AGG ASSAULT,N,2019-03-12 02:54:00,RESIDENCE / HOME,1711 CHESTNUT AVE,78702.0,1.0,CH,3,N,2019-03-13 00:00:00,30.27913041,-97.71673708,2019,3,11,12
2019-03-12,AGG ASSAULT,N,2019-03-12 22:21:00,FIELD / WOODS,4970 W US 290 HWY WB,78735.0,8.0,DA,4,N,2019-03-27 00:00:00,30.23431486,-97.81882978,2019,3,11,12
2019-03-12,AGG ASSAULT,N,2019-03-12 20:07:00,RESIDENCE / HOME,204 BEAVER ST,78753.0,4.0,ED,1,C,2019-03-12 00:00:00,30.35277291,-97.7006904,2019,3,11,12
2019-03-12,AGG ROBBERY/DEADLY WEAPON,N,2019-03-13 12:47:00,STREETS / HWY / ROAD / ALLEY,2200 BLOCK BLUE MEADOW DR,78744.0,2.0,FR,8,C,2019-05-01 00:00:00,30.1812736,-97.76346268,2019,3,11,12
2019-03-13,AGG ASSAULT,N,2019-03-13 08:29:00,STREETS / HWY / ROAD / ALLEY,717 E 7TH ST,78701.0,9.0,GE,2,N,2019-03-28 00:00:00,30.26665421,-97.73508807,2019,3,11,13
2019-03-13,AGG ASSAULT,N,2019-03-13 18:47:00,GOVERNMENT / PUBLIC BUILDING,1301 SHOAL CREEK BLVD,78701.0,9.0,BA,2,C,2019-03-21 00:00:00,30.27804051,-97.74922839,2019,3,11,13
2019-03-13,AGG ASSAULT,N,2019-03-13 16:46:00,FIELD / WOODS,1301 W OLTORF ST,78704.0,3.0,DA,2,N,2019-04-01 00:00:00,30.24447955,-97.76900303,2019,3,11,13
2019-03-13,AGG ASSAULT,N,2019-03-13 16:56:00,RESIDENCE / HOME,9010 GALEWOOD DR,78758.0,4.0,ED,2,N,2019-03-15 00:00:00,30.36794153,-97.71508242,2019,3,11,13
2019-03-13,AGG ASSAULT,N,2019-03-13 01:37:00,STREETS / HWY / ROAD / ALLEY,RIVER ST / EAST AVE,78701.0,9.0,CH,1,N,2019-04-25 00:00:00,30.25758204,-97.73813288,2019,3,11,13
2019-03-13,AGG ASSAULT,N,2019-03-13 02:43:00,PARKING LOTS / GARAGE,601 N IH 35 SVRD NB,78702.0,3.0,CH,1,C,2019-03-13 00:00:00,30.2657748,-97.73403764,2019,3,11,13
2019-03-13,AGG ASSAULT,N,2019-03-13 22:44:00,STREETS / HWY / ROAD / ALLEY,600 SABINE ST,78701.0,9.0,GE,2,N,2019-03-29 00:00:00,30.26654729,-97.73619041,2019,3,11,13
2019-03-13,AGG ASSAULT,N,2019-03-13 18:33:00,STREETS / HWY / ROAD / ALLEY,700 RED RIVER ST,78701.0,9.0,GE,2,C,2019-03-13 00:00:00,30.26751257,-97.73686469,2019,3,11,13
2019-03-14,AGG ROBBERY/DEADLY WEAPON,N,2019-03-14 21:57:00,OTHER / UNKNOWN,730 W STASSNEY LN,78745.0,2.0,DA,3,C,2019-04-16 00:00:00,30.2098532,-97.78208826,2019,3,11,14
2019-03-14,AGG ROBBERY/DEADLY WEAPON,N,2019-03-14 12:24:00,RESIDENCE / HOME,2104 OAK MOTTE LN,78744.0,2.0,FR,8,C,2019-04-05 00:00:00,30.18286163,-97.76461392,2019,3,11,14
2019-03-14,AGG ASSAULT,N,2019-03-14 18:02:00,OTHER / UNKNOWN,9706 MIDDLE FISKVILLE RD,78753.0,4.0,ED,7,N,2019-03-15 00:00:00,30.36099911,-97.6843858,2019,3,11,14
2019-03-14,AGG ASSAULT,N,2019-03-14 22:48:00,PARKING LOTS / GARAGE,1711 RUTLAND DR,78758.0,4.0,ED,2,N,2019-08-27 00:00:00,30.37521409,-97.71174462,2019,3,11,14
2019-03-14,AGG ASSAULT,N,2019-03-14 18:42:00,STREETS / HWY / ROAD / ALLEY,E CESAR CHAVEZ ST / N IH 35 SVRD SB,78701.0,9.0,CH,1,C,2019-03-14 00:00:00,30.26122896,-97.73677387,2019,3,11,14
2019-03-15,AGG ASSAULT,N,2019-03-15 22:09:00,GAS / SERVICE STATIONS,12300 HARRIS BRANCH PKWY,78653.0,1.0,CH,8,N,2019-03-28 00:00:00,30.36943348,-97.61375981,2019,3,11,15
2019-03-15,AGG ASSAULT,N,2019-03-15 16:56:00,RESIDENCE / HOME,3010 ROYSTER AVE,78617.0,2.0,HE,8,C,2019-03-15 00:00:00,30.20602966,-97.63983564,2019,3,11,15
2019-03-15,AGG ASSAULT,N,2019-03-15 03:09:00,PARKING LOTS / GARAGE,701 WOODWARD ST,78704.0,3.0,DA,2,N,2019-03-27 00:00:00,30.22538095,-97.75214167,2019,3,11,15
2019-03-15,AGG ROBBERY/DEADLY WEAPON,N,2019-03-15 14:52:00,RESIDENCE / HOME,1009 RUTLAND DR,78758.0,4.0,ED,1,N,2019-05-14 00:00:00,30.3671276,-97.70366384,2019,3,11,15
2019-03-15,AGG ASSAULT,N,2019-03-15 04:56:00,STREETS / HWY / ROAD / ALLEY,1200 BLOCK GUADALUPE ST,78701.0,9.0,BA,1,N,2019-03-21 00:00:00,30.27532394,-97.74422476,2019,3,11,15
2019-03-15,RAPE,N,2019-04-22 12:44:00,RESIDENCE / HOME,2700 BLOCK SAN PEDRO ST,78705.0,9.0,BA,3,N,2019-05-17 00:00:00,,,2019,3,11,15
2019-03-16,AGG ASSAULT,N,2019-03-16 10:31:00,RESTAURANTS,7100 N IH 35 SVRD SB,78752.0,4.0,ID,8,C,2019-09-16 00:00:00,30.3324806,-97.70524551,2019,3,11,16
2019-03-16,AGG ASSAULT,N,2019-03-16 08:12:00,STREETS / HWY / ROAD / ALLEY,700 E 6TH ST,78701.0,9.0,GE,2,N,2019-05-23 00:00:00,30.26628759,-97.73586154,2019,3,11,16
2019-03-16,AGG ASSAULT,N,2019-03-16 23:37:00,STREETS / HWY / ROAD / ALLEY,2203 BITTER CREEK DR,78744.0,2.0,FR,8,N,2019-03-20 00:00:00,30.18419863,-97.7623022,2019,3,11,16
2019-03-16,AGG ASSAULT,N,2019-03-16 17:39:00,PARKING LOTS / GARAGE,1647 RUTLAND DR,78758.0,4.0,ED,2,N,2019-05-09 00:00:00,30.37378575,-97.71264307,2019,3,11,16
2019-03-16,AGG ASSAULT,N,2019-03-16 12:13:00,STREETS / HWY / ROAD / ALLEY,9021 CHINA ROSE DR,78724.0,1.0,CH,6,N,2019-04-16 00:00:00,30.28013869,-97.62755089,2019,3,11,16
2019-03-16,AGG ASSAULT,N,2019-03-16 02:44:00,PARKING LOTS / GARAGE,701 N IH 35 SVRD NB,78702.0,1.0,CH,2,N,2019-03-21 00:00:00,30.26671007,-97.73363857,2019,3,11,16
2019-03-16,AGG ROBBERY/DEADLY WEAPON,N,2019-03-16 06:00:00,RESIDENCE / HOME,1881 GROVE BLVD,78741.0,3.0,HE,3,N,2019-03-16 00:00:00,30.22863192,-97.70615517,2019,3,11,16
2019-03-16,AGG ASSAULT,N,2019-03-17 12:00:00,STREETS / HWY / ROAD / ALLEY,301 E 6TH ST,78701.0,9.0,GE,2,N,2019-04-15 00:00:00,30.26713154,-97.74032225,2019,3,11,16
2019-03-16,AGG ROBBERY/DEADLY WEAPON,N,2019-03-16 05:02:00,RESIDENCE / HOME,2505 LONGVIEW ST,78705.0,9.0,BA,3,C,2019-08-09 00:00:00,30.29006613,-97.75024068,2019,3,11,16
2019-03-16,AGG ROBBERY/DEADLY WEAPON,N,2019-03-16 07:01:00,RESIDENCE / HOME,5304 PONCIANA DR,78744.0,2.0,FR,5,C,2019-04-05 00:00:00,30.19976045,-97.75480827,2019,3,11,16
2019-03-16,AGG ASSAULT,N,2019-03-17 10:23:00,STREETS / HWY / ROAD / ALLEY,4000 N IH 35 SVRD NB,78722.0,9.0,CH,3,N,2019-05-21 00:00:00,30.29709571,-97.71794887,2019,3,11,16
2019-03-16,AGG ROBBERY/DEADLY WEAPON,N,2019-03-16 10:03:00,RESIDENCE / HOME,6015 CARNATION TER,78741.0,3.0,HE,3,N,2019-04-10 00:00:00,30.23164764,-97.70300397,2019,3,11,16
2019-03-16,AGG ASSAULT,N,2019-03-16 17:49:00,RESTAURANTS,704 E WILLIAM CANNON DR,78745.0,2.0,FR,4,,,30.19154543,-97.77221889,2019,3,11,16
2019-03-17,AGG ROBBERY/DEADLY WEAPON,N,2019-03-17 20:39:00,STREETS / HWY / ROAD / ALLEY,5200 E WILLIAM CANNON DR,78744.0,2.0,FR,8,N,2019-03-29 00:00:00,30.18028632,-97.74775889,2019,3,11,17
2019-03-17,AGG ROBBERY/DEADLY WEAPON,N,2019-03-17 11:34:00,SPECIALTY  STORE (TV  FUR ETC.),9828 GREAT HILLS TRL,78759.0,10.0,AD,7,N,2021-01-08 00:00:00,30.39447357,-97.74827473,2019,3,11,17
2019-03-17,AGG ROBBERY/DEADLY WEAPON,N,2019-03-18 00:05:00,PARKING LOTS / GARAGE,1430 FRONTIER VALLEY DR,78741.0,3.0,HE,5,N,2019-06-18 00:00:00,30.22645832,-97.69380842,2019,3,11,17
2019-03-17,AGG ASSAULT,N,2019-03-17 02:50:00,STREETS / HWY / ROAD / ALLEY,700 BLOCK E 7TH ST,78701.0,9.0,GE,2,,,30.26744445,-97.73553891,2019,3,11,17
2019-03-17,MURDER,Y,2019-03-17 18:35:00,OTHER / UNKNOWN,ONION CREEK DR / SPRINGVILLE LN,78744.0,2.0,FR,8,,,30.16959671,-97.74603177,2019,3,11,17
2019-03-17,AGG ASSAULT,N,2019-03-18 11:03:00,RESIDENCE / HOME,5305 LEDESMA RD,78721.0,3.0,CH,5,N,2019-04-16 00:00:00,30.27039866,-97.68251175,2019,3,11,17
2019-03-18,RAPE,Y,2019-03-18 09:27:00,HOTEL / MOTEL / ETC.,9100 BLOCK N IH 35 SVRD NB,78753.0,4.0,ED,3,N,2019-03-20 00:00:00,,,2019,3,12,18
2019-03-18,RAPE,N,2019-03-20 23:32:00,RESIDENCE / HOME,8600 BLOCK N FM 620 RD,78726.0,6.0,AD,8,N,2019-04-11 00:00:00,,,2019,3,12,18
2019-03-19,AGG ROBBERY/DEADLY WEAPON,N,2019-03-19 15:38:00,DEPARTMENT / DISCOUNT STORE,9500 S IH 35 SVRD SB,78748.0,5.0,FR,2,C,2019-03-19 00:00:00,30.16291061,-97.79312325,2019,3,12,19
2019-03-19,AGG ASSAULT,N,2019-03-19 23:07:00,RESIDENCE / HOME,2413 W SLAUGHTER LN,78748.0,5.0,FR,1,N,2019-04-08 00:00:00,30.1752951,-97.82969719,2019,3,12,19
2019-03-19,AGG ASSAULT,N,2019-03-19 22:24:00,PARKING LOTS / GARAGE,12509 N LAMAR BLVD,78753.0,7.0,ED,4,C,2019-05-23 00:00:00,30.40907805,-97.67770513,2019,3,12,19
2019-03-20,AGG ROBBERY/DEADLY WEAPON,N,2019-03-20 20:52:00,RESIDENCE / HOME,4700 E RIVERSIDE DR,78741.0,3.0,HE,3,N,2019-06-13 00:00:00,30.23289806,-97.71880686,2019,3,12,20
2019-03-20,AGG ASSAULT,N,2019-03-20 10:29:00,CONVENIENCE STORE,500 CONGRESS AVE,78701.0,9.0,GE,1,N,2019-05-14 00:00:00,30.26743058,-97.74354926,2019,3,12,20
2019-03-21,AGG ASSAULT,N,2019-03-21 18:49:00,STREETS / HWY / ROAD / ALLEY,2600 S MOPAC EXPY SVRD SB,78746.0,8.0,DA,5,C,2019-03-26 00:00:00,30.25513372,-97.80425631,2019,3,12,21
2019-03-22,AGG ROBBERY/DEADLY WEAPON,N,2019-03-22 07:28:00,GAS / SERVICE STATIONS,6000 FM 969 RD,78724.0,1.0,CH,6,C,2019-03-22 00:00:00,30.28612097,-97.66388581,2019,3,12,22
2019-03-22,AGG ROBBERY/DEADLY WEAPON,N,2019-03-22 21:27:00,RESIDENCE / HOME,5230 THUNDER CREEK RD,78759.0,6.0,AD,2,N,2019-06-17 00:00:00,30.41646595,-97.74461945,2019,3,12,22
2019-03-22,AGG ASSAULT,N,2019-03-22 10:14:00,STREETS / HWY / ROAD / ALLEY,7500 BLOCK N IH 35 NB,78752.0,4.0,ID,1,N,2019-04-02 00:00:00,30.33759505,-97.70102849,2019,3,12,22
2019-03-22,RAPE,Y,2019-03-22 05:14:00,RESIDENCE / HOME,500 BLOCK EBERHART LN,78745.0,2.0,FR,4,N,2019-03-26 00:00:00,,,2019,3,12,22
2019-03-23,AGG ASSAULT,N,2019-03-24 00:16:00,PARKING LOTS / GARAGE,1313 MONTOPOLIS DR,78741.0,3.0,HE,5,C,2019-03-24 00:00:00,30.23012463,-97.69969127,2019,3,12,23
2019-03-23,AGG ROBBERY/DEADLY WEAPON,N,2019-03-23 21:25:00,STREETS / HWY / ROAD / ALLEY,5400 MIDDLE FISKVILLE RD,78751.0,4.0,ID,6,N,2019-05-03 00:00:00,30.31624569,-97.71494762,2019,3,12,23
2019-03-23,MURDER,Y,2019-03-23 02:19:00,RESIDENCE / HOME,8012 BANNOCK LN,78747.0,2.0,FR,7,C,2019-03-23 00:00:00,30.1588329,-97.74281315,2019,3,12,23
2019-03-23,AGG ASSAULT,N,2019-03-23 22:33:00,GAS / SERVICE STATIONS,8906 BRODIE LN,78749.0,8.0,DA,7,N,2019-04-10 00:00:00,30.19519404,-97.84299195,2019,3,12,23
2019-03-24,AGG ASSAULT,N,2019-03-29 14:00:00,PARKING LOTS / GARAGE,2700 ESPERANZA XING,78758.0,7.0,AD,2,C,2019-05-23 00:00:00,30.39836343,-97.71737831,2019,3,12,24
2019-03-24,AGG ASSAULT,N,2019-03-24 06:32:00,RESIDENCE / HOME,9133 NORTHGATE BLVD,78758.0,4.0,ED,2,C,2019-03-24 00:00:00,30.3711701,-97.71587339,2019,3,12,24
2019-03-24,AGG ASSAULT,Y,2019-03-28 09:39:00,RESIDENCE / HOME,6903 WENTWORTH DR,78724.0,1.0,CH,7,N,2019-05-02 00:00:00,30.2950468,-97.62941813,2019,3,12,24
2019-03-24,CAPITAL MURDER,N,2019-03-24 00:29:00,RESIDENCE / HOME,1215 SOUTHPORT DR,78704.0,3.0,DA,2,C,2019-07-01 00:00:00,30.23174055,-97.77645505,2019,3,12,24
2019-03-25,AGG ROBBERY/DEADLY WEAPON,N,2019-03-25 03:28:00,GAS / SERVICE STATIONS,11587 JOLLYVILLE RD,78759.0,10.0,AD,7,N,2019-06-28 00:00:00,30.41633919,-97.74856421,2019,3,13,25
2019-03-25,AGG ASSAULT,N,2019-03-25 13:55:00,STREETS / HWY / ROAD / ALLEY,1000 E BEN WHITE BLVD SVRD EB,78745.0,3.0,DA,3,N,2019-04-08 00:00:00,30.21675423,-97.75410445,2019,3,13,25
2019-03-26,AGG ASSAULT,N,2019-03-26 23:56:00,PARKING LOTS / GARAGE,7950 BURNET RD,78757.0,7.0,BA,6,N,2019-04-22 00:00:00,30.35816593,-97.73085322,2019,3,13,26
2019-03-26,AGG ROBBERY/DEADLY WEAPON,N,2019-03-26 01:36:00,STREETS / HWY / ROAD / ALLEY,600 BLOCK RADAM LN,78745.0,3.0,DA,3,N,2019-06-05 00:00:00,30.22503605,-97.7723633,2019,3,13,26
2019-03-27,AGG ASSAULT,N,2019-03-27 18:01:00,PARKING LOTS / GARAGE,9133 NORTHGATE BLVD,78758.0,4.0,ED,2,N,2019-07-01 00:00:00,30.3711701,-97.71587339,2019,3,13,27
2019-03-27,RAPE,N,2019-04-10 14:50:00,HOTEL / MOTEL / ETC.,2900 BLOCK S IH 35 SVRD NB,78741.0,3.0,HE,2,N,2019-08-19 00:00:00,,,2019,3,13,27
2019-03-27,AGG ROBBERY/DEADLY WEAPON,N,2019-03-27 17:55:00,DEPARTMENT / DISCOUNT STORE,710 E BEN WHITE BLVD SVRD WB,78704.0,3.0,DA,2,C,2019-06-17 00:00:00,30.2200027,-97.75439457,2019,3,13,27
2019-03-27,AGG ASSAULT,N,2019-03-27 16:37:00,RESIDENCE / HOME,6014 PALM CIR,78741.0,3.0,HE,3,N,2019-04-19 00:00:00,30.23440096,-97.70100634,2019,3,13,27
2019-03-27,AGG ASSAULT,N,2019-03-27 17:52:00,STREETS / HWY / ROAD / ALLEY,E KOENIG LN / DUVAL ST,78752.0,4.0,ID,6,N,2019-04-24 00:00:00,30.32107489,-97.71667752,2019,3,13,27
2019-03-27,AGG ASSAULT,N,2019-03-27 14:36:00,RESIDENCE / HOME,421 THOMPSON LN,78742.0,3.0,HE,5,C,2019-03-27 00:00:00,30.23937836,-97.68283109,2019,3,13,27
2019-03-27,RAPE,Y,2019-03-27 14:11:00,RESIDENCE / HOME,4900 BLOCK S IH 35 SVRD NB,78744.0,2.0,FR,5,N,2020-07-29 00:00:00,,,2019,3,13,27
2019-03-28,RAPE,Y,2019-03-28 02:44:00,RESIDENCE / HOME,9400 BLOCK KISOBA TER,78749.0,8.0,DA,7,C,2019-03-28 00:00:00,,,2019,3,13,28
2019-03-28,AGG ASSAULT,N,2019-03-28 23:57:00,STREETS / HWY / ROAD / ALLEY,4404 E OLTORF ST,78741.0,3.0,HE,4,N,2019-04-30 00:00:00,30.22706496,-97.72624614,2019,3,13,28
2019-03-28,AGG ROBBERY/DEADLY WEAPON,N,2019-03-29 00:46:00,RESIDENCE / HOME,9505 BURNET RD,78758.0,7.0,AD,1,N,2019-06-28 00:00:00,30.37860918,-97.72461698,2019,3,13,28
2019-03-29,AGG ASSAULT,N,2019-03-29 18:51:00,STREETS / HWY / ROAD / ALLEY,S 1ST ST / BARTON SPRINGS RD,78704.0,9.0,DA,1,N,2019-04-16 00:00:00,30.2583817,-97.75007452,2019,3,13,29
2019-03-30,AGG ROBBERY/DEADLY WEAPON,N,2019-03-30 15:51:00,CONVENIENCE STORE,825 E RUNDBERG LN,78753.0,4.0,ED,3,N,2019-12-19 00:00:00,30.35643762,-97.68685162,2019,3,13,30
2019-03-30,AGG ROBBERY/DEADLY WEAPON,N,2019-03-30 04:46:00,GAS / SERVICE STATIONS,11643 RESEARCH BLVD NB,78759.0,6.0,AD,2,N,2019-06-28 00:00:00,30.41616263,-97.74608101,2019,3,13,30
2019-03-30,AGG ASSAULT,N,2019-03-30 10:25:00,STREETS / HWY / ROAD / ALLEY,2500 E 7TH ST,78702.0,3.0,CH,2,C,2019-04-09 00:00:00,30.26115743,-97.71340002,2019,3,13,30
2019-03-30,AGG ASSAULT,N,2019-03-30 15:57:00,BAR / NIGHT CLUB,83 RAINEY ST,78701.0,9.0,GE,3,N,2019-04-22 00:00:00,30.25939386,-97.73823626,2019,3,13,30
2019-03-31,AGG ASSAULT,N,2019-03-31 05:17:00,STREETS / HWY / ROAD / ALLEY,300 BLOCK BRAZOS ST,78701.0,9.0,GE,3,C,2019-06-04 00:00:00,30.26537505,-97.7424099,2019,3,13,31
2019-03-31,AGG ASSAULT,N,2019-03-31 00:17:00,PARKING LOTS / GARAGE,900 E BRAKER LN,78753.0,1.0,ED,7,N,2019-07-12 00:00:00,30.37685523,-97.67336164,2019,3,13,31
2019-03-31,RAPE,N,2019-03-31 23:13:00,RESIDENCE / HOME,7300 BLOCK BLUFF SPRINGS RD,78744.0,2.0,FR,8,N,2019-05-02 00:00:00,,,2019,3,13,31
2019-03-31,AGG ASSAULT,N,2019-03-31 12:40:00,STREETS / HWY / ROAD / ALLEY,2320 E RIVERSIDE DR,78741.0,3.0,HE,2,N,2019-04-02 00:00:00,30.23754203,-97.72521576,2019,3,13,31
2019-03-31,AGG ASSAULT,N,2019-03-31 21:30:00,BAR / NIGHT CLUB,7522 N IH 35 SVRD SB,78752.0,4.0,ID,8,C,2019-04-01 00:00:00,30.33847755,-97.70395965,2019,3,13,31
2019-03-31,AGG ROBBERY/DEADLY WEAPON,N,2019-03-31 19:48:00,CONVENIENCE STORE,13201 N FM 620 RD NB,78729.0,6.0,AD,5,C,2019-04-09 00:00:00,30.46793555,-97.79250733,2019,3,13,31
2019-03-31,RAPE,N,2019-03-31 00:55:00,CONVENIENCE STORE,6600 BLOCK S PLEASANT VALLEY RD,78744.0,2.0,FR,8,N,2019-04-10 00:00:00,,,2019,3,13,31
2019-04-01,RAPE,N,2020-05-01 14:48:00,FIELD / WOODS,GRO00 BLOCK BLVD / E RIVERSIDE DR,78741.0,3.0,HE,3,N,2020-06-11 00:00:00,,,2019,4,14,1
2019-04-01,RAPE,N,2019-04-13 03:08:00,PARKING LOTS / GARAGE,2100 BLOCK WICKERSHAM LN,78741.0,3.0,HE,4,N,2019-05-09 00:00:00,,,2019,4,14,1
2019-04-01,AGG ASSAULT,N,2019-04-04 10:25:00,HOTEL / MOTEL / ETC.,1024 E ANDERSON LN SVRD WB,78753.0,4.0,ID,2,N,2019-04-08 00:00:00,30.33677929,-97.69345666,2019,4,14,1
2019-04-01,RAPE,N,2019-09-14 08:32:00,RESIDENCE / HOME,2400 BLOCK LEON ST,78705.0,9.0,BA,3,N,2020-05-05 00:00:00,,,2019,4,14,1
2019-04-01,AGG ASSAULT,N,2019-04-01 02:44:00,STREETS / HWY / ROAD / ALLEY,3201 ESPERANZA XING,78758.0,7.0,AD,2,N,2019-04-22 00:00:00,30.3991689,-97.72357206,2019,4,14,1
2019-04-01,AGG ROBBERY/DEADLY WEAPON,N,2019-04-03 12:07:00,RESIDENCE / HOME,10303 GOLDEN MEADOW DR,78758.0,4.0,ED,2,N,2019-04-04 00:00:00,30.38023166,-97.71084688,2019,4,14,1
2019-04-01,AGG ASSAULT,N,2019-04-01 00:00:00,RESIDENCE / HOME,8412 TWIGGY LN,78747.0,2.0,FR,7,N,2019-04-11 00:00:00,30.15709129,-97.74835724,2019,4,14,1
2019-04-02,AGG ROBBERY/DEADLY WEAPON,N,2019-04-02 07:07:00,GAS / SERVICE STATIONS,13014 POND SPRINGS RD,78729.0,6.0,AD,4,C,2019-04-19 00:00:00,30.44090837,-97.77369554,2019,4,14,2
2019-04-02,AGG ASSAULT,N,2019-04-02 14:26:00,STREETS / HWY / ROAD / ALLEY,835 N PLEASANT VALLEY RD,78702.0,3.0,CH,2,N,2019-05-06 00:00:00,30.26467292,-97.70764897,2019,4,14,2
2019-04-02,AGG ASSAULT,N,2019-04-02 01:10:00,HOTEL / MOTEL / ETC.,9420 N IH 35 SVRD SB,78753.0,4.0,ED,1,N,2019-05-09 00:00:00,30.35979391,-97.688358,2019,4,14,2
2019-04-03,AGG ROBBERY/DEADLY WEAPON,N,2019-04-03 02:04:00,CONVENIENCE STORE,606 W SLAUGHTER LN,78748.0,2.0,FR,3,C,2019-04-11 00:00:00,30.1729276,-97.79966865,2019,4,14,3
2019-04-03,RAPE,N,2019-04-03 12:55:00,RESIDENCE / HOME,3200 BLOCK DUVAL RD,78759.0,7.0,AD,2,N,2019-06-10 00:00:00,,,2019,4,14,3
2019-04-03,AGG ASSAULT,N,2019-04-03 20:16:00,PARKING LOTS / GARAGE,1600 WICKERSHAM LN,78741.0,3.0,HE,3,N,2019-04-24 00:00:00,30.23597684,-97.71859364,2019,4,14,3
2019-04-04,RAPE,N,2019-04-04 23:57:00,RESIDENCE / HOME,6100 BLOCK MANOR RD,78723.0,1.0,ID,4,N,2019-05-27 00:00:00,,,2019,4,14,4
2019-04-04,AGG ROBBERY/DEADLY WEAPON,N,2019-04-04 13:06:00,PARKING LOTS / GARAGE,13021 LEGENDARY DR,78727.0,6.0,AD,3,N,2019-04-12 00:00:00,30.43529888,-97.7304018,2019,4,14,4
2019-04-04,AGG ASSAULT,N,2019-04-04 21:31:00,RESIDENCE / HOME,5511 MANOR RD,78723.0,1.0,ID,4,N,2019-04-10 00:00:00,30.30291996,-97.68268665,2019,4,14,4
2019-04-05,AGG ASSAULT,N,2019-04-05 04:21:00,STREETS / HWY / ROAD / ALLEY,8900 SHOAL CREEK BLVD,78757.0,7.0,BA,6,N,2019-05-17 00:00:00,30.37575454,-97.73356966,2019,4,14,5
2019-04-05,AGG ASSAULT,N,2019-04-05 21:17:00,STREETS / HWY / ROAD / ALLEY,S PLEASANT VALLEY RD / E OLTORF ST,78741.0,3.0,HE,4,N,2019-04-10 00:00:00,30.22745636,-97.72777483,2019,4,14,5
2019-04-05,AGG ASSAULT,N,2019-04-05 19:44:00,GAS / SERVICE STATIONS,9001 CAMERON RD,78754.0,1.0,ED,5,N,2019-04-17 00:00:00,30.34642097,-97.67688683,2019,4,14,5
2019-04-05,AGG ASSAULT,N,2019-04-05 21:55:00,STREETS / HWY / ROAD / ALLEY,W STASSNEY LN / S 1ST ST,78745.0,2.0,FR,4,N,2019-04-10 00:00:00,30.20846966,-97.78152949,2019,4,14,5
2019-04-05,AGG ROBBERY/DEADLY WEAPON,N,2019-04-05 13:51:00,PARKING LOTS / GARAGE,10212 BROWNIE DR,78753.0,4.0,ED,1,N,2019-05-10 00:00:00,30.36830039,-97.68487038,2019,4,14,5
2019-04-05,AGG ASSAULT,Y,2019-04-05 20:14:00,RESIDENCE / HOME,744 W WILLIAM CANNON DR,78745.0,2.0,FR,4,N,2019-04-11 00:00:00,30.19835668,-97.78926252,2019,4,14,5
2019-04-05,AGG ASSAULT,N,2019-04-05 23:12:00,PARKING LOTS / GARAGE,7206 ED BLUESTEIN BLVD SVRD SB,78723.0,1.0,CH,4,N,2019-06-06 00:00:00,30.31491301,-97.66353628,2019,4,14,5
2019-04-05,AGG ROBBERY/DEADLY WEAPON,N,2019-04-05 05:15:00,CONVENIENCE STORE,12000 N MOPAC EXPY SVRD SB,78759.0,7.0,AD,3,N,2019-06-28 00:00:00,30.409149,-97.71596233,2019,4,14,5
2019-04-06,AGG ROBBERY/DEADLY WEAPON,N,2019-04-06 22:43:00,PARKING LOTS / GARAGE,12151 N IH 35 SVRD NB,78753.0,1.0,ED,7,N,2019-05-15 00:00:00,30.39438783,-97.67065387,2019,4,14,6
2019-04-06,AGG ASSAULT,N,2019-04-08 01:20:00,STREETS / HWY / ROAD / ALLEY,407 E 7TH ST,78701.0,9.0,GE,2,N,2019-06-12 00:00:00,30.26764105,-97.73845499,2019,4,14,6
2019-04-06,AGG ROBBERY/DEADLY WEAPON,N,2019-04-06 00:53:00,PARKING LOTS / GARAGE,1088 PARK PLZ,78753.0,4.0,ED,3,N,2019-04-23 00:00:00,30.34887091,-97.6852326,2019,4,14,6
2019-04-06,AGG ROBBERY/DEADLY WEAPON,N,2019-04-06 23:09:00,STREETS / HWY / ROAD / ALLEY,1400 BLOCK E 2ND ST,78702.0,3.0,CH,1,N,2019-05-03 00:00:00,30.25983218,-97.72920444,2019,4,14,6
2019-04-06,RAPE,N,2019-04-06 01:20:00,STREETS / HWY / ROAD / ALLEY,800 BLOCK SAN MARCOS ST,78702.0,1.0,CH,2,N,2019-08-01 00:00:00,,,2019,4,14,6
2019-04-06,AGG ASSAULT,N,2019-04-06 23:11:00,STREETS / HWY / ROAD / ALLEY,6309 TOSCANA AVE,78724.0,1.0,CH,6,C,2019-06-10 00:00:00,30.29300317,-97.63999467,2019,4,14,6
2019-04-06,AGG ROBBERY/DEADLY WEAPON,N,2019-04-06 19:03:00,STREETS / HWY / ROAD / ALLEY,4300 BARROW AVE,78751.0,9.0,BA,5,N,2019-04-30 00:00:00,30.30589159,-97.72430363,2019,4,14,6
2019-04-06,AGG ASSAULT,N,2019-04-06 10:59:00,PARKING LOTS / GARAGE,4220 S IH 35 SVRD SB,78745.0,3.0,DA,3,N,2019-04-10 00:00:00,30.21451221,-97.75407881,2019,4,14,6
2019-04-06,AGG ASSAULT,N,2019-04-06 01:10:00,PARKING LOTS / GARAGE,1212 WESTHEIMER DR,78752.0,4.0,ID,1,N,2019-05-15 00:00:00,30.32578989,-97.69444533,2019,4,14,6
2019-04-06,RAPE,N,2019-04-06 06:43:00,OTHER / UNKNOWN,1800 BLOCK AIRPORT COMMERCE DR,78741.0,3.0,HE,5,N,2019-05-24 00:00:00,,,2019,4,14,6
2019-04-07,RAPE,N,2019-04-07 02:12:00,RESIDENCE / HOME,8500 BLOCK S IH 35 NB,78744.0,2.0,FR,7,N,2019-05-02 00:00:00,,,2019,4,14,7
2019-04-07,AGG ASSAULT,N,2019-04-07 03:47:00,RESIDENCE / HOME,4803 LOYOLA LN,78723.0,1.0,CH,4,N,2019-04-11 00:00:00,30.30849371,-97.66631637,2019,4,14,7
2019-04-07,RAPE,N,2019-04-07 00:16:00,FIELD / WOODS,1500 BLOCK BLOCK CROZIER LN,78617.0,2.0,HE,8,N,2019-06-18 00:00:00,,,2019,4,14,7
2019-04-07,AGG ROBBERY/DEADLY WEAPON,N,2019-04-07 07:55:00,HOTEL / MOTEL / ETC.,909 E KOENIG LN SVRD EB,78751.0,4.0,ID,6,N,2019-04-16 00:00:00,30.32085631,-97.70934743,2019,4,14,7
2019-04-08,RAPE,N,2019-04-08 02:29:00,BAR / NIGHT CLUB,3000 BLOCK W WILLIAM CANNON DR,78745.0,5.0,DA,4,N,2019-07-09 00:00:00,,,2019,4,15,8
2019-04-08,AGG ROBBERY/DEADLY WEAPON,N,2019-04-08 00:23:00,STREETS / HWY / ROAD / ALLEY,5305 SPRING MEADOW RD,78744.0,2.0,FR,6,N,2019-07-16 00:00:00,30.19650881,-97.73585685,2019,4,15,8
2019-04-08,AGG ASSAULT,N,2019-04-08 22:39:00,OTHER / UNKNOWN,501 E 8TH ST,78701.0,9.0,GE,2,C,2019-04-10 00:00:00,30.26835472,-97.73743455,2019,4,15,8
2019-04-08,AGG ASSAULT,N,2019-04-08 04:07:00,STREETS / HWY / ROAD / ALLEY,9601 S IH 35 SVRD NB,78744.0,5.0,FR,7,N,2019-04-23 00:00:00,30.16103508,-97.78787119,2019,4,15,8
2019-04-09,AGG ROBBERY/DEADLY WEAPON,N,2019-04-09 20:14:00,RESIDENCE / HOME,9133 NORTHGATE BLVD,78758.0,4.0,ED,2,C,2019-04-14 00:00:00,30.3711701,-97.71587339,2019,4,15,9
2019-04-09,MURDER,N,2019-04-09 22:44:00,PARK / PLAYGROUND,3911 E 12TH ST,78721.0,1.0,CH,4,C,2019-06-03 00:00:00,30.27825263,-97.69111511,2019,4,15,9
2019-04-10,AGG ASSAULT,N,2019-04-10 16:13:00,STREETS / HWY / ROAD / ALLEY,7906 RUNNING WATER DR,78747.0,2.0,FR,7,N,2019-04-15 00:00:00,30.15953636,-97.74142387,2019,4,15,10
2019-04-10,AGG ASSAULT,N,2019-04-10 22:36:00,STREETS / HWY / ROAD / ALLEY,613 CONGRESS AVE,78701.0,9.0,GE,2,C,2019-04-11 00:00:00,30.268454,-97.7422037,2019,4,15,10
2019-04-10,AGG ASSAULT,N,2019-04-10 18:20:00,TRANSPORTATION (AIR / BUS / TRAIN - TERMINALS),800 W RUNDBERG LN,78758.0,4.0,ED,1,N,2019-04-15 00:00:00,30.36326498,-97.6970452,2019,4,15,10
2019-04-10,AGG ROBBERY/DEADLY WEAPON,N,2019-04-10 03:53:00,PARKING LOTS / GARAGE,5812 N IH 35 SVRD SB,78751.0,4.0,ID,6,C,2019-05-14 00:00:00,30.3198323,-97.70796135,2019,4,15,10
2019-04-11,AGG ASSAULT,N,2019-04-11 18:32:00,PARK / PLAYGROUND,7000 DECKER LN,78724.0,1.0,CH,7,C,2019-05-28 00:00:00,30.29674707,-97.62618511,2019,4,15,11
2019-04-11,AGG ASSAULT,N,2019-04-11 21:06:00,PARKING LOTS / GARAGE,525 W SLAUGHTER LN,78748.0,5.0,FR,2,N,2019-04-15 00:00:00,30.17192026,-97.79949247,2019,4,15,11
2019-04-11,RAPE,Y,2019-04-17 21:53:00,RESIDENCE / HOME,7000 BLOCK DECKER LN,78724.0,1.0,CH,7,N,2019-06-24 00:00:00,,,2019,4,15,11
2019-04-11,AGG ROBBERY/DEADLY WEAPON,N,2019-04-11 15:28:00,PARKING LOTS / GARAGE,9106 N IH 35 SVRD SB,78753.0,4.0,ED,1,C,2019-04-18 00:00:00,30.35647202,-97.69052006,2019,4,15,11
2019-04-11,AGG ASSAULT,N,2019-04-11 22:40:00,PARKING LOTS / GARAGE,9009 N FM 620 RD,78726.0,6.0,AD,8,N,2019-05-31 00:00:00,30.4322866,-97.84065848,2019,4,15,11
2019-04-11,AGG ASSAULT,N,2019-04-11 21:09:00,PARK / PLAYGROUND,900 W 9TH ST,78701.0,9.0,GE,1,C,2019-04-16 00:00:00,30.27373748,-97.75133669,2019,4,15,11
2019-04-12,AGG ASSAULT,N,2019-04-13 01:23:00,RESIDENCE / HOME,3309 HARRIS PARK AVE,78705.0,9.0,BA,1,C,2019-04-13 00:00:00,30.2948371,-97.72967351,2019,4,15,12
2019-04-12,AGG ASSAULT,N,2019-04-12 15:07:00,STREETS / HWY / ROAD / ALLEY,E ANDERSON LN SVRD WB / N IH 35 SVRD NB,78753.0,4.0,ID,2,C,2019-04-12 00:00:00,30.3388549,-97.69956405,2019,4,15,12
2019-04-12,AGG ASSAULT,N,2019-04-12 15:43:00,OTHER / UNKNOWN,5806 EMERALD FOREST DR,78745.0,2.0,FR,4,N,2019-04-23 00:00:00,30.20851209,-97.78905207,2019,4,15,12
2019-04-12,AGG ASSAULT,N,2019-04-12 18:03:00,PARKING LOTS / GARAGE,1434 W WELLS BRANCH PKWY,78660.0,7.0,ED,6,C,2019-04-12 00:00:00,30.44268028,-97.66421205,2019,4,15,12
2019-04-12,AGG ASSAULT,Y,2019-04-12 03:56:00,RESIDENCE / HOME,1501 REAGAN HILL DR,78752.0,4.0,ID,2,C,2019-04-12 00:00:00,30.32628674,-97.6902594,2019,4,15,12
2019-04-12,AGG ASSAULT,N,2019-04-12 21:57:00,STREETS / HWY / ROAD / ALLEY,3800 S CONGRESS AVE,78704.0,3.0,DA,2,N,2019-05-15 00:00:00,30.22588366,-97.76236756,2019,4,15,12
2019-04-12,AGG ROBBERY/DEADLY WEAPON,N,2019-04-12 19:53:00,OTHER / UNKNOWN,1011 W 5TH ST,78703.0,9.0,BA,2,N,2020-01-05 00:00:00,30.27045392,-97.75558804,2019,4,15,12
2019-04-13,AGG ASSAULT,N,2019-04-13 00:05:00,PARKING LOTS / GARAGE,12151 N IH 35 SVRD NB,78753.0,1.0,ED,7,N,2019-04-19 00:00:00,30.39438783,-97.67065387,2019,4,15,13
2019-04-13,AGG ASSAULT,N,2019-04-13 11:54:00,STREETS / HWY / ROAD / ALLEY,901 W BEN WHITE BLVD SVRD EB,78745.0,3.0,DA,3,N,2019-04-15 00:00:00,30.22637546,-97.7744276,2019,4,15,13
2019-04-13,RAPE,N,2019-04-13 02:01:00,STREETS / HWY / ROAD / ALLEY,800 BLOCK E WILLIAM CANNON DR,78745.0,2.0,FR,3,N,2019-05-06 00:00:00,,,2019,4,15,13
2019-04-13,AGG ASSAULT,N,2019-04-13 05:18:00,RESIDENCE / HOME,4900 MUELLER BLVD,78723.0,9.0,BA,4,N,2019-04-17 00:00:00,30.30349794,-97.70621861,2019,4,15,13
2019-04-14,RAPE,N,2019-04-23 18:30:00,BAR / NIGHT CLUB,400 BLOCK COLORADO ST,78701.0,9.0,GE,1,N,2019-06-03 00:00:00,,,2019,4,15,14
2019-04-14,AGG ASSAULT,N,2019-04-14 02:07:00,RESTAURANTS,901 LITTLE TEXAS LN,78745.0,2.0,FR,4,N,2019-05-21 00:00:00,30.19818386,-97.76915533,2019,4,15,14
2019-04-14,RAPE,Y,2019-04-16 18:08:00,SCHOOL - ELEMENTARY / SECONDARY,1200 BLOCK PAYTON GIN RD,78758.0,4.0,ED,2,N,2019-07-01 00:00:00,,,2019,4,15,14
2019-04-14,AGG ROBBERY/DEADLY WEAPON,N,2019-04-14 17:20:00,OTHER / UNKNOWN,5433 S CONGRESS AVE,78745.0,3.0,DA,3,C,2019-04-19 00:00:00,30.20611435,-97.77389719,2019,4,15,14
2019-04-15,RAPE,N,2019-04-15 20:22:00,RESIDENCE / HOME,1800 BLOCK E STASSNEY LN,78744.0,2.0,FR,5,N,2019-05-09 00:00:00,,,2019,4,16,15
2019-04-15,AGG ASSAULT,N,2019-04-17 14:25:00,PARKING LOTS / GARAGE,2504 HUNTWICK DR,78741.0,3.0,HE,4,N,2019-07-08 00:00:00,30.22527133,-97.72757724,2019,4,16,15
2019-04-16,AGG ASSAULT,N,2019-04-16 00:58:00,RESIDENCE / HOME,1501 REAGAN HILL DR,78752.0,4.0,ID,2,N,2019-05-29 00:00:00,30.32628674,-97.6902594,2019,4,16,16
2019-04-16,AGG ASSAULT,N,2019-04-16 18:22:00,PARK / PLAYGROUND,6000 BLOCK MANCHACA RD,78745.0,5.0,DA,4,C,2019-04-17 00:00:00,,,2019,4,16,16
2019-04-16,AGG ASSAULT,N,2019-04-16 22:34:00,ABANDONED/CONDEMNED STRUCTURE,E 6TH ST / NECHES ST,78701.0,9.0,GE,2,N,2019-05-14 00:00:00,30.26678161,-97.73825313,2019,4,16,16
2019-04-16,AGG ASSAULT,N,2019-04-16 22:24:00,PARKING LOTS / GARAGE,10300 GOLDEN MEADOW DR,78758.0,4.0,ED,2,N,2019-04-23 00:00:00,30.38041081,-97.71140349,2019,4,16,16
2019-04-17,AGG ASSAULT,N,2019-04-17 13:41:00,STREETS / HWY / ROAD / ALLEY,2000 BLOCK CONESTOGA TRL,78744.0,2.0,FR,5,N,2019-05-01 00:00:00,30.19643292,-97.75783212,2019,4,16,17
2019-04-17,AGG ASSAULT,N,2019-04-17 18:18:00,GAS / SERVICE STATIONS,7200 CAMERON RD,78752.0,4.0,ID,1,N,2019-05-28 00:00:00,30.32668116,-97.69244891,2019,4,16,17
2019-04-18,RAPE,Y,2019-04-18 13:24:00,RESIDENCE / HOME,10700 BLOCK LAKE CREEK PKWY,78750.0,6.0,AD,6,N,2019-08-20 00:00:00,,,2019,4,16,18
2019-04-18,AGG ROBBERY/DEADLY WEAPON,N,2019-04-18 12:17:00,STREETS / HWY / ROAD / ALLEY,LAMBIE ST / EAST AVE,78701.0,9.0,GE,3,N,2020-02-24 00:00:00,30.25660993,-97.73847899,2019,4,16,18
2019-04-18,AGG ASSAULT,N,2019-04-18 22:53:00,GAS / SERVICE STATIONS,1601 E ST ELMO RD,78744.0,2.0,FR,5,N,2019-04-22 00:00:00,30.21227287,-97.7526851,2019,4,16,18
2019-04-18,AGG ASSAULT,N,2019-04-18 12:02:00,STREETS / HWY / ROAD / ALLEY,CHISOS PASS / RATON PASS,78724.0,1.0,CH,7,N,2019-04-23 00:00:00,30.31267051,-97.65940119,2019,4,16,18
2019-04-18,AGG ASSAULT,N,2019-04-18 13:50:00,STREETS / HWY / ROAD / ALLEY,13425 N FM 620 RD NB,78729.0,6.0,AD,5,N,2019-05-15 00:00:00,30.47109736,-97.78495912,2019,4,16,18
2019-04-19,AGG ROBBERY/DEADLY WEAPON,N,2019-04-19 00:11:00,STREETS / HWY / ROAD / ALLEY,306 W RUNDBERG LN,78753.0,4.0,ED,1,C,2019-04-25 00:00:00,30.36239452,-97.6945729,2019,4,16,19
2019-04-19,AGG ASSAULT,N,2019-04-19 15:46:00,PARKING LOTS / GARAGE,1190 AIRPORT BLVD,78702.0,1.0,CH,2,N,2019-04-29 00:00:00,30.27515329,-97.70102001,2019,4,16,19
2019-04-20,AGG ASSAULT,N,2019-04-20 17:33:00,PARKING LOTS / GARAGE,1105 W CESAR CHAVEZ ST,78703.0,9.0,BA,2,N,2019-04-24 00:00:00,30.26774295,-97.75836633,2019,4,16,20
2019-04-20,AGG ROBBERY/DEADLY WEAPON,N,2019-04-20 02:34:00,STREETS / HWY / ROAD / ALLEY,13604 CAMPESINA DR,78727.0,7.0,AD,3,C,2019-04-20 00:00:00,30.43051022,-97.68774717,2019,4,16,20
2019-04-20,AGG ROBBERY/DEADLY WEAPON,N,2019-04-20 20:22:00,RESIDENCE / HOME,9001 NORTHGATE BLVD,78758.0,4.0,ED,2,N,2019-07-12 00:00:00,30.3691692,-97.71701881,2019,4,16,20
2019-04-20,AGG ASSAULT,N,2019-04-20 22:35:00,PARKING LOTS / GARAGE,6307 CAMERON RD,78723.0,1.0,ID,5,N,2019-04-27 00:00:00,30.32022465,-97.6951872,2019,4,16,20
2019-04-20,RAPE,N,2019-05-23 14:45:00,RESIDENCE / HOME,12100 BLOCK LAVINIA LN,78753.0,1.0,ED,7,N,2019-06-13 00:00:00,,,2019,4,16,20
2019-04-21,RAPE,Y,2019-04-25 15:55:00,RESIDENCE / HOME,4500 BLOCK MAGIN MEADOW DR,78744.0,2.0,FR,8,N,2019-05-24 00:00:00,,,2019,4,16,21
2019-04-21,AGG ASSAULT,N,2019-04-21 09:14:00,STREETS / HWY / ROAD / ALLEY,5400 TIERRA ALTA CIR,78617.0,2.0,HE,7,N,2019-04-24 00:00:00,30.17360668,-97.62932774,2019,4,16,21
2019-04-22,AGG ROBBERY/DEADLY WEAPON,N,2019-04-22 11:22:00,LIQUOR STORE,6305 CAMERON RD,78723.0,1.0,ID,5,N,2019-07-12 00:00:00,30.32029813,-97.69541662,2019,4,17,22
2019-04-22,AGG ASSAULT,N,2019-04-22 23:54:00,STREETS / HWY / ROAD / ALLEY,1881 GROVE BLVD,78741.0,3.0,HE,3,N,2019-05-15 00:00:00,30.22863192,-97.70615517,2019,4,17,22
2019-04-22,AGG ASSAULT,N,2019-04-22 08:38:00,PARKING LOTS / GARAGE,500 CANYON RIDGE DR,78753.0,7.0,ED,6,C,2019-04-22 00:00:00,30.4052639,-97.67189559,2019,4,17,22
2019-04-22,AGG ASSAULT,N,2019-04-22 14:31:00,STREETS / HWY / ROAD / ALLEY,PACKSADDLE TO BEN WHIT EB RAMP / W BEN WHITE BLVD EB,78745.0,5.0,DA,3,N,2019-04-28 00:00:00,30.22930516,-97.78715507,2019,4,17,22
2019-04-22,AGG ASSAULT,N,2019-04-22 21:42:00,STREETS / HWY / ROAD / ALLEY,7100 KILDARE CV,78724.0,1.0,CH,7,N,2019-05-13 00:00:00,30.29863677,-97.64199595,2019,4,17,22
2019-04-22,AGG ASSAULT,Y,2019-04-22 21:50:00,RESIDENCE / HOME,707 E CESAR CHAVEZ ST,78701.0,9.0,GE,3,,,30.2609912,-97.73739174,2019,4,17,22
2019-04-22,AGG ROBBERY/DEADLY WEAPON,N,2019-04-22 09:06:00,STREETS / HWY / ROAD / ALLEY,1123 RUTLAND DR,78758.0,4.0,ED,1,N,2019-04-25 00:00:00,30.36605676,-97.70160601,2019,4,17,22
2019-04-24,AGG ROBBERY/DEADLY WEAPON,N,2019-04-24 20:18:00,CONVENIENCE STORE,209 E 6TH ST,78701.0,9.0,GE,2,C,2019-04-24 00:00:00,30.26731856,-97.74113787,2019,4,17,24
2019-04-24,AGG ASSAULT,N,2019-04-24 21:30:00,STREETS / HWY / ROAD / ALLEY,6000 E STASSNEY LN,78744.0,2.0,FR,6,N,2019-05-27 00:00:00,30.19574083,-97.72581228,2019,4,17,24
2019-04-24,AGG ROBBERY/DEADLY WEAPON,N,2019-04-24 13:20:00,CONVENIENCE STORE,7844 BURNET RD,78757.0,7.0,BA,6,C,2019-04-24 00:00:00,30.35604211,-97.73163995,2019,4,17,24
2019-04-24,AGG ASSAULT,N,2019-04-24 20:53:00,PARKING LOTS / GARAGE,102 W POWELL LN,78753.0,4.0,ED,1,N,2019-05-06 00:00:00,30.34801409,-97.70333819,2019,4,17,24
2019-04-24,AGG ASSAULT,N,2019-04-24 23:08:00,GAS / SERVICE STATIONS,6301 E RIVERSIDE DR,78741.0,3.0,HE,5,N,2019-05-22 00:00:00,30.22448991,-97.70334142,2019,4,17,24
2019-04-24,AGG ROBBERY/DEADLY WEAPON,N,2019-04-24 21:20:00,PARKING LOTS / GARAGE,5700 CAMERON RD,78723.0,4.0,ID,5,N,2019-07-24 00:00:00,30.31554109,-97.70229583,2019,4,17,24
2019-04-24,AGG ASSAULT,N,2019-04-24 17:21:00,COMMUNITY CENTER,500 E 7TH ST,78701.0,9.0,GE,2,C,2019-04-25 00:00:00,30.26797616,-97.737619,2019,4,17,24
2019-04-24,AGG ROBBERY/DEADLY WEAPON,N,2019-04-24 13:54:00,PARKING LOTS / GARAGE,1100 CENTER RIDGE DR,78753.0,7.0,ED,6,C,2019-05-01 00:00:00,30.41803967,-97.67124136,2019,4,17,24
2019-04-25,AGG ROBBERY/DEADLY WEAPON,N,2019-04-25 00:31:00,PARKING LOTS / GARAGE,7522 N IH 35 SVRD SB,78752.0,4.0,ID,8,C,2019-05-02 00:00:00,30.33847755,-97.70395965,2019,4,17,25
2019-04-26,AGG ASSAULT,N,2019-04-27 00:03:00,PARKING LOTS / GARAGE,7020 GRAND CANYON DR,78752.0,4.0,ID,1,N,2019-05-06 00:00:00,30.32619351,-97.69534738,2019,4,17,26
2019-04-26,AGG ASSAULT,N,2019-04-26 10:20:00,STREETS / HWY / ROAD / ALLEY,908 E CESAR CHAVEZ ST,78702.0,3.0,CH,1,N,2019-05-15 00:00:00,30.26097417,-97.73478786,2019,4,17,26
2019-04-26,RAPE,N,2019-04-26 07:21:00,STREETS / HWY / ROAD / ALLEY,800 BLOCK RED RIVER ST,78701.0,9.0,GE,1,N,2019-06-24 00:00:00,,,2019,4,17,26
2019-04-26,AGG ASSAULT,N,2019-04-30 16:15:00,OTHER / UNKNOWN,9300 S IH 35 SVRD SB,78748.0,5.0,FR,2,N,2019-05-16 00:00:00,30.16548757,-97.78952006,2019,4,17,26
2019-04-26,AGG ASSAULT,N,2019-04-26 19:54:00,PARKING LOTS / GARAGE,1105 E CESAR CHAVEZ ST,78702.0,3.0,CH,1,C,2019-04-26 00:00:00,30.25988234,-97.73329965,2019,4,17,26
2019-04-26,AGG ASSAULT,N,2019-04-26 17:45:00,STREETS / HWY / ROAD / ALLEY,2300 E 9TH ST,78702.0,1.0,CH,2,C,2019-04-26 00:00:00,30.26393077,-97.71681317,2019,4,17,26
2019-04-27,RAPE,N,2019-04-27 04:58:00,PARKING LOTS / GARAGE,600 BLOCK W WILLIAM CANNON DR,78745.0,2.0,FR,4,N,2019-05-20 00:00:00,,,2019,4,17,27
2019-04-27,AGG ASSAULT,N,2019-04-27 03:39:00,STREETS / HWY / ROAD / ALLEY,4808 CABOB ST,78744.0,2.0,FR,5,N,2019-05-09 00:00:00,30.1928681,-97.74267944,2019,4,17,27
2019-04-27,AGG ROBBERY/DEADLY WEAPON,N,2019-04-27 19:33:00,PARKING LOTS / GARAGE,10900 LAKELINE MALL DR,78717.0,6.0,AD,5,C,2019-05-08 00:00:00,30.47602416,-97.79653623,2019,4,17,27
2019-04-27,AGG ASSAULT,N,2019-04-27 23:11:00,CONVENIENCE STORE,2538 ELMONT DR,78741.0,3.0,HE,2,N,2019-04-27 00:00:00,30.23928876,-97.71983119,2019,4,17,27
2019-04-27,AGG ASSAULT,N,2019-04-27 04:58:00,STREETS / HWY / ROAD / ALLEY,E 7TH ST / RED RIVER ST,78701.0,9.0,GE,2,C,2019-04-27 00:00:00,30.26740172,-97.73682331,2019,4,17,27
2019-04-28,AGG ASSAULT,N,2019-04-28 22:25:00,PARKING LOTS / GARAGE,6500 SPRINGDALE RD,78723.0,1.0,ID,4,N,2019-05-01 00:00:00,30.30787722,-97.67000096,2019,4,17,28
2019-04-28,AGG ASSAULT,N,2019-04-28 18:05:00,STREETS / HWY / ROAD / ALLEY,E CESAR CHAVEZ ST / N IH 35 SVRD NB,78702.0,3.0,CH,1,C,2019-04-28 00:00:00,30.26099452,-97.73579167,2019,4,17,28
2019-04-28,AGG ASSAULT,N,2019-04-28 22:14:00,STREETS / HWY / ROAD / ALLEY,PROVENCIAL DR / REGENCY DR,78724.0,1.0,CH,6,N,2019-06-04 00:00:00,30.28578626,-97.66154989,2019,4,17,28
2019-04-28,AGG ASSAULT,N,2019-04-28 21:13:00,PARKING LOTS / GARAGE,9601 MIDDLE FISKVILLE RD,78753.0,4.0,ED,7,C,2019-04-28 00:00:00,30.35940846,-97.68500671,2019,4,17,28
2019-04-28,AGG ASSAULT,N,2019-04-28 02:19:00,STREETS / HWY / ROAD / ALLEY,5604 SAMUEL HUSTON AVE,78721.0,1.0,CH,5,N,2019-05-01 00:00:00,30.27978313,-97.67429047,2019,4,17,28
2019-04-28,AGG ASSAULT,N,2019-04-28 22:59:00,GAS / SERVICE STATIONS,3735 N IH 35 SVRD NB,78722.0,9.0,CH,3,C,2019-06-04 00:00:00,30.29439523,-97.71931516,2019,4,17,28
2019-04-28,AGG ASSAULT,N,2019-04-28 08:56:00,STREETS / HWY / ROAD / ALLEY,4411 TERI RD,78744.0,2.0,FR,5,N,2019-05-29 00:00:00,30.19739894,-97.745588,2019,4,17,28
2019-04-29,AGG ASSAULT,N,2019-04-29 04:34:00,RESIDENCE / HOME,4600 E CESAR CHAVEZ ST,78702.0,3.0,CH,1,N,2019-04-29 00:00:00,30.25212272,-97.70387815,2019,4,18,29
2019-04-29,RAPE,N,2019-04-29 03:23:00,RESIDENCE / HOME,6700 BLOCK N LAMAR BLVD,78752.0,4.0,ID,6,N,2019-08-06 00:00:00,,,2019,4,18,29
2019-04-29,AGG ROBBERY/DEADLY WEAPON,N,2019-04-29 01:21:00,RESIDENCE / HOME,1124 RUTLAND DR,78758.0,4.0,ED,1,N,2019-08-14 00:00:00,30.36871033,-97.70372535,2019,4,18,29
2019-04-30,AGG ROBBERY/DEADLY WEAPON,N,2019-05-01 05:06:00,HOTEL / MOTEL / ETC.,8210 N IH 35 SVRD SB,78753.0,4.0,ED,1,C,2019-05-20 00:00:00,30.34522549,-97.69705619,2019,4,18,30
2019-04-30,AGG ROBBERY/DEADLY WEAPON,N,2019-04-30 01:15:00,STREETS / HWY / ROAD / ALLEY,2800 LYONS RD,78702.0,3.0,CH,2,N,2019-05-01 00:00:00,30.2640271,-97.7075398,2019,4,18,30
2019-04-30,AGG ASSAULT,N,2019-04-30 16:01:00,GROCERY / SUPERMARKET,6929 AIRPORT BLVD,78752.0,4.0,ID,8,N,2019-05-20 00:00:00,30.33761222,-97.71759243,2019,4,18,30
2019-04-30,AGG ASSAULT,N,2019-04-30 13:21:00,PARKING LOTS / GARAGE,9010 GALEWOOD DR,78758.0,4.0,ED,2,N,2019-05-24 00:00:00,30.36794153,-97.71508242,2019,4,18,30
2019-05-01,AGG ROBBERY/DEADLY WEAPON,N,2019-05-01 23:49:00,PARKING LOTS / GARAGE,605 MASTERSON PASS,78753.0,4.0,ED,1,N,2019-08-01 00:00:00,30.36920586,-97.69116707,2019,5,18,1
2019-05-01,RAPE,Y,2019-05-01 21:31:00,RESIDENCE / HOME,600 BLOCK MAIRO ST,78748.0,2.0,FR,3,N,2019-05-03 00:00:00,,,2019,5,18,1
2019-05-01,AGG ASSAULT,N,2019-05-01 18:52:00,STREETS / HWY / ROAD / ALLEY,1600 WICKERSHAM LN,78741.0,3.0,HE,3,C,2019-05-02 00:00:00,30.23597684,-97.71859364,2019,5,18,1
2019-05-01,AGG ASSAULT,N,2019-05-01 16:33:00,GAS / SERVICE STATIONS,3906 S CONGRESS AVE,78704.0,3.0,DA,2,C,2019-05-01 00:00:00,30.22402698,-97.76386433,2019,5,18,1
2019-05-01,AGG ROBBERY/DEADLY WEAPON,N,2019-05-01 17:10:00,PARKING LOTS / GARAGE,1601 MONTOPOLIS DR,78741.0,3.0,HE,5,N,2020-02-08 00:00:00,30.22771552,-97.70117271,2019,5,18,1
2019-05-02,AGG ASSAULT,N,2019-05-10 17:58:00,STREETS / HWY / ROAD / ALLEY,RANGE VIEW DR / RIVER PLACE BLVD,78730.0,6.0,AD,8,N,2019-05-16 00:00:00,30.37004096,-97.86093335,2019,5,18,2
2019-05-02,AGG ASSAULT,N,2019-05-02 14:00:00,PARKING LOTS / GARAGE,6801 E RIVERSIDE DR,78741.0,3.0,HE,5,N,2019-06-10 00:00:00,30.22262734,-97.69903109,2019,5,18,2
2019-05-03,AGG ROBBERY/DEADLY WEAPON,N,2019-05-03 17:04:00,RESIDENCE / HOME,102 W POWELL LN,78753.0,4.0,ED,1,N,2019-08-01 00:00:00,30.34801409,-97.70333819,2019,5,18,3
2019-05-03,AGG ROBBERY/DEADLY WEAPON,N,2019-05-03 22:42:00,PARKING LOTS / GARAGE,1012 REINLI ST,78723.0,4.0,ID,5,N,2019-05-06 00:00:00,30.31820111,-97.70580245,2019,5,18,3
2019-05-03,AGG ROBBERY/DEADLY WEAPON,N,2019-05-03 05:00:00,CONVENIENCE STORE,1624 E HOWARD LN,78660.0,7.0,ED,6,C,2019-06-17 00:00:00,30.40415189,-97.6386473,2019,5,18,3
2019-05-03,RAPE,Y,2019-05-03 10:22:00,RESIDENCE / HOME,9500 BLOCK NIGHT STAR DR,78617.0,2.0,HE,8,N,2019-05-16 00:00:00,,,2019,5,18,3
2019-05-04,AGG ASSAULT,N,2019-05-04 20:35:00,PARKING LOTS / GARAGE,2300 BLOCK W BEN WHITE BLVD SVRD EB,78745.0,5.0,DA,4,N,2019-05-24 00:00:00,30.23192724,-97.793164,2019,5,18,4
2019-05-04,AGG ASSAULT,N,2019-05-04 18:24:00,STREETS / HWY / ROAD / ALLEY,7731 CAMERON RD,78752.0,1.0,ID,2,C,2019-05-04 00:00:00,30.3324904,-97.68633537,2019,5,18,4
2019-05-04,MURDER,N,2019-05-04 10:42:00,STREETS / HWY / ROAD / ALLEY,5400 BLOCK S PLEASANT VALLEY RD,78744.0,2.0,FR,5,C,2019-06-11 00:00:00,30.19355427,-97.74478548,2019,5,18,4
2019-05-04,AGG ASSAULT,N,2019-05-04 01:17:00,STREETS / HWY / ROAD / ALLEY,600 CHALMERS AVE,78702.0,3.0,CH,1,C,2019-05-08 00:00:00,30.26247354,-97.72452325,2019,5,18,4
2019-05-04,AGG ROBBERY/DEADLY WEAPON,N,2019-05-04 02:14:00,RESIDENCE / HOME,13601 ELM RIDGE LN,78727.0,7.0,AD,3,,,30.43403582,-97.69521088,2019,5,18,4
2019-05-05,AGG ASSAULT,N,2019-05-05 20:34:00,STREETS / HWY / ROAD / ALLEY,N IH 35 SVRD NB / E CESAR CHAVEZ ST,78702.0,3.0,CH,1,C,2019-05-06 00:00:00,30.26099452,-97.73579167,2019,5,18,5
2019-05-05,AGG ASSAULT,N,2019-05-05 22:32:00,PARKING LOTS / GARAGE,811 W SLAUGHTER LN,78748.0,5.0,FR,2,N,2019-05-14 00:00:00,30.17360514,-97.804725,2019,5,18,5
2019-05-05,AGG ROBBERY/DEADLY WEAPON,N,2019-05-06 13:54:00,PARKING LOTS / GARAGE,1625 E PARMER LN,78753.0,1.0,ED,7,N,2019-06-04 00:00:00,30.38674135,-97.64925411,2019,5,18,5
2019-05-05,RAPE,N,2019-05-08 00:47:00,STREETS / HWY / ROAD / ALLEY,00 BLOCK 6TH ST / SABINE ST,78701.0,9.0,GE,2,N,2019-07-16 00:00:00,,,2019,5,18,5
2019-05-05,AGG ASSAULT,N,2019-05-05 17:12:00,RESIDENCE / HOME,1170 OAK GROVE AVE,78702.0,1.0,CH,2,N,2019-06-06 00:00:00,30.27417812,-97.70255176,2019,5,18,5
2019-05-05,AGG ROBBERY/DEADLY WEAPON,N,2019-05-05 23:38:00,STREETS / HWY / ROAD / ALLEY,S 1ST ST / RADAM LN,78745.0,3.0,DA,3,N,2019-05-10 00:00:00,30.22426673,-97.77088885,2019,5,18,5
2019-05-05,AGG ASSAULT,N,2019-05-05 17:47:00,PARKING LOTS / GARAGE,9607 RESEARCH BLVD NB,78759.0,7.0,AD,1,N,2019-05-27 00:00:00,30.38772694,-97.74390948,2019,5,18,5
2019-05-05,MURDER,N,2019-05-05 21:32:00,HOTEL / MOTEL / ETC.,7928 GESSNER DR,78753.0,4.0,ED,1,C,2019-05-28 00:00:00,30.34375489,-97.70258862,2019,5,18,5
2019-05-05,RAPE,N,2019-05-05 01:33:00,RESIDENCE / HOME,1100 BLOCK REINLI ST,78723.0,4.0,ID,5,N,2019-05-20 00:00:00,,,2019,5,18,5
2019-05-05,AGG ASSAULT,N,2019-05-05 21:24:00,PARKING LOTS / GARAGE,1800 E STASSNEY LN,78744.0,2.0,FR,5,C,2019-05-06 00:00:00,30.19754361,-97.7608199,2019,5,18,5
2019-05-05,RAPE,N,2019-05-06 17:10:00,PARKING LOTS / GARAGE,1500 BLOCK GROVE BLVD,78741.0,3.0,HE,3,N,2019-06-11 00:00:00,,,2019,5,18,5
2019-05-06,AGG ASSAULT,N,2019-05-06 21:34:00,PARKING LOTS / GARAGE,9133 NORTHGATE BLVD,78758.0,4.0,ED,2,C,2019-05-30 00:00:00,30.3711701,-97.71587339,2019,5,19,6
2019-05-06,RAPE,N,2020-02-19 15:00:00,RESIDENCE / HOME,8600 BLOCK N FM 620 RD,78726.0,6.0,AD,8,N,2020-04-03 00:00:00,,,2019,5,19,6
2019-05-06,AGG ASSAULT,N,2019-05-06 02:31:00,RESIDENCE / HOME,1000 BAYLOR ST,78703.0,9.0,BA,2,N,2019-06-04 00:00:00,30.27548272,-97.75346061,2019,5,19,6
2019-05-06,AGG ASSAULT,N,2019-05-07 19:27:00,STREETS / HWY / ROAD / ALLEY,8419 RIVERSTONE DR,78724.0,1.0,CH,7,N,2019-05-17 00:00:00,30.29422893,-97.62728581,2019,5,19,6
2019-05-06,AGG ASSAULT,N,2019-05-06 15:53:00,STREETS / HWY / ROAD / ALLEY,MANOR RD / WHELESS LN,78723.0,1.0,ID,4,N,2019-06-04 00:00:00,30.30778515,-97.67855582,2019,5,19,6
2019-05-07,AGG ASSAULT,N,2019-05-07 14:24:00,STREETS / HWY / ROAD / ALLEY,10931 N MOPAC EXPY NB,78758.0,7.0,AD,1,N,2019-05-09 00:00:00,30.40010676,-97.73007009,2019,5,19,7
2019-05-07,AGG ASSAULT,N,2019-05-07 17:25:00,STREETS / HWY / ROAD / ALLEY,800 BLOCK E RUNDBERG LN,78753.0,4.0,ED,7,C,2019-05-14 00:00:00,30.35776524,-97.68694522,2019,5,19,7
2019-05-08,AGG ASSAULT,N,2019-05-08 06:13:00,STREETS / HWY / ROAD / ALLEY,8987 RESEARCH BLVD SVRD NB,78758.0,4.0,ED,2,N,2019-05-29 00:00:00,30.37205209,-97.72298317,2019,5,19,8
2019-05-08,RAPE,N,2019-05-18 14:09:00,RESIDENCE / HOME,1200 BLOCK W 38TH ST,78705.0,10.0,BA,3,N,2019-08-19 00:00:00,,,2019,5,19,8
2019-05-08,RAPE,N,2019-05-09 12:33:00,RESIDENCE / HOME,6700 BLOCK OLD QUARRY LN,78731.0,10.0,BA,8,C,2019-06-28 00:00:00,,,2019,5,19,8
2019-05-08,AGG ASSAULT,N,2019-05-08 13:38:00,PARKING LOTS / GARAGE,4311 SPRINGDALE RD,78723.0,1.0,CH,4,N,2019-05-24 00:00:00,30.28639929,-97.68192971,2019,5,19,8
2019-05-08,AGG ROBBERY/DEADLY WEAPON,N,2019-05-08 15:14:00,DEPARTMENT / DISCOUNT STORE,9600 S IH 35 SVRD SB,78748.0,5.0,FR,2,C,2019-05-29 00:00:00,30.16056764,-97.79244422,2019,5,19,8
2019-05-09,AGG ASSAULT,N,2019-05-09 17:45:00,STREETS / HWY / ROAD / ALLEY,700 W 6TH ST,78701.0,9.0,GE,1,C,2019-05-21 00:00:00,30.2702059,-97.74969159,2019,5,19,9
2019-05-09,AGG ROBBERY/DEADLY WEAPON,N,2019-05-09 13:16:00,STREETS / HWY / ROAD / ALLEY,4411 AIRPORT BLVD,78722.0,9.0,BA,4,N,2019-05-14 00:00:00,30.30116648,-97.71338205,2019,5,19,9
2019-05-09,AGG ASSAULT,N,2019-05-09 23:09:00,STREETS / HWY / ROAD / ALLEY,W WILLIAM CANNON DR / MANCHACA RD,78745.0,5.0,FR,1,N,2019-06-04 00:00:00,30.20291133,-97.80691213,2019,5,19,9
2019-05-09,AGG ASSAULT,N,2019-05-09 00:41:00,OTHER / UNKNOWN,2700 W ANDERSON LN,78757.0,7.0,BA,6,C,2019-05-29 00:00:00,30.35905882,-97.73460323,2019,5,19,9
2019-05-09,AGG ASSAULT,N,2019-05-09 03:25:00,STREETS / HWY / ROAD / ALLEY,300 E 6TH ST,78701.0,9.0,GE,2,N,2019-05-09 00:00:00,30.2676012,-97.74015438,2019,5,19,9
2019-05-09,AGG ROBBERY/DEADLY WEAPON,N,2019-05-09 03:32:00,PARKING LOTS / GARAGE,8926 N LAMAR BLVD,78758.0,4.0,ED,1,N,2019-08-12 00:00:00,30.35875709,-97.69972149,2019,5,19,9
2019-05-09,AGG ASSAULT,N,2019-05-09 01:00:00,PARKING LOTS / GARAGE,2301 DURWOOD ST,78704.0,9.0,DA,1,N,2019-05-31 00:00:00,30.24184309,-97.7575428,2019,5,19,9
2019-05-10,AGG ASSAULT,N,2019-05-10 13:43:00,STREETS / HWY / ROAD / ALLEY,400 E CESAR CHAVEZ ST,78701.0,9.0,GE,3,O,2019-05-21 00:00:00,30.26265937,-97.74072435,2019,5,19,10
2019-05-10,RAPE,N,2019-05-14 19:25:00,STREETS / HWY / ROAD / ALLEY,HARTL00 BLOCK CV / ZACHARYS WAY,78748.0,5.0,FR,1,N,2019-06-07 00:00:00,,,2019,5,19,10
2019-05-11,RAPE,Y,2019-05-13 22:18:00,RESIDENCE / HOME,9400 BLOCK N LAMAR BLVD,78758.0,4.0,ED,1,N,2019-05-27 00:00:00,,,2019,5,19,11
2019-05-11,AGG ASSAULT,N,2019-05-11 03:01:00,RESIDENCE / HOME,1071 CLAYTON LN,78723.0,4.0,ID,5,N,2019-05-14 00:00:00,30.3185291,-97.7034222,2019,5,19,11
2019-05-12,RAPE,Y,2019-05-23 16:52:00,HOTEL / MOTEL / ETC.,9100 BLOCK N IH 35 SVRD SB,78753.0,4.0,ED,1,N,2019-08-28 00:00:00,,,2019,5,19,12
2019-05-12,RAPE,N,2019-05-12 01:56:00,RESIDENCE / HOME,BALCON00 BLOCK WOODS DR / JOLLYVILLE RD,78759.0,10.0,AD,7,N,2019-05-15 00:00:00,,,2019,5,19,12
2019-05-12,AGG ASSAULT,N,2019-05-12 21:05:00,STREETS / HWY / ROAD / ALLEY,8400 GARCREEK CIR,78724.0,1.0,CH,7,N,2019-06-06 00:00:00,30.29441946,-97.62966708,2019,5,19,12
2019-05-13,AGG ROBBERY/DEADLY WEAPON,N,2019-05-13 00:17:00,STREETS / HWY / ROAD / ALLEY,LARCHMONT DR / FLEETWOOD DR,78704.0,5.0,DA,2,N,2019-06-03 00:00:00,30.23762352,-97.78128494,2019,5,20,13
2019-05-14,AGG ASSAULT,N,2019-05-14 19:04:00,RESIDENCE / HOME,6000 PINON VISTA DR,78724.0,1.0,CH,6,N,2019-07-10 00:00:00,30.29097187,-97.64450745,2019,5,20,14
2019-05-14,AGG ASSAULT,N,2019-05-14 17:36:00,RESIDENCE / HOME,902 WILLOW ST,78702.0,3.0,CH,1,C,2019-05-14 00:00:00,30.26020412,-97.73560382,2019,5,20,14
2019-05-14,AGG ASSAULT,N,2019-05-14 23:19:00,STREETS / HWY / ROAD / ALLEY,422 W RIVERSIDE DR,78704.0,9.0,DA,1,C,2019-05-15 00:00:00,30.25952831,-97.74869734,2019,5,20,14
2019-05-14,RAPE,N,2019-05-15 02:01:00,RESIDENCE / HOME,8100 BLOCK N MOPAC EXPY NB,78759.0,10.0,BA,8,N,2019-07-09 00:00:00,,,2019,5,20,14
2019-05-15,AGG ROBBERY/DEADLY WEAPON,N,2019-05-15 23:59:00,STREETS / HWY / ROAD / ALLEY,6300 CAMERON RD,78723.0,1.0,ID,5,N,2019-08-13 00:00:00,30.32005233,-97.69670412,2019,5,20,15
2019-05-15,AGG ROBBERY/DEADLY WEAPON,N,2019-05-16 00:33:00,OTHER / UNKNOWN,700 BLOCK TILLERY ST,78702.0,3.0,CH,2,N,2019-09-03 00:00:00,30.25932863,-97.70535158,2019,5,20,15
2019-05-15,RAPE,N,2019-05-15 18:15:00,RESIDENCE / HOME,5700 BLOCK ARCADIA CIR,78617.0,2.0,HE,7,N,2019-07-05 00:00:00,,,2019,5,20,15
2019-05-16,AGG ROBBERY/DEADLY WEAPON,N,2019-05-16 16:37:00,STREETS / HWY / ROAD / ALLEY,2121 E OLTORF ST,78741.0,3.0,HE,2,N,2019-05-23 00:00:00,30.23015315,-97.73258287,2019,5,20,16
2019-05-16,AGG ASSAULT,N,2019-05-16 18:36:00,STREETS / HWY / ROAD / ALLEY,914 W 9TH ST,78703.0,9.0,GE,1,N,2019-06-04 00:00:00,30.27390039,-97.75246039,2019,5,20,16
2019-05-16,AGG ASSAULT,N,2019-05-16 18:03:00,SPECIALTY  STORE (TV  FUR ETC.),2933 W ANDERSON LN,78757.0,7.0,BA,6,C,2019-12-10 00:00:00,30.35912418,-97.73905428,2019,5,20,16
2019-05-16,AGG ROBBERY/DEADLY WEAPON,N,2019-05-16 21:57:00,RESIDENCE / HOME,1115 W 9TH ST,78703.0,9.0,BA,2,N,2019-05-17 00:00:00,30.27443524,-97.75512049,2019,5,20,16
2019-05-17,AGG ASSAULT,N,2019-05-17 10:25:00,STREETS / HWY / ROAD / ALLEY,1000 E ANDERSON LN EB,78752.0,4.0,ID,2,C,2019-05-17 00:00:00,30.33082407,-97.68262707,2019,5,20,17
2019-05-17,AGG ASSAULT,N,2019-05-17 13:04:00,CONVENIENCE STORE,7112 ED BLUESTEIN BLVD SVRD SB,78723.0,1.0,CH,4,C,2019-05-17 00:00:00,30.31255869,-97.66380113,2019,5,20,17
2019-05-17,AGG ROBBERY/DEADLY WEAPON,N,2019-05-17 19:53:00,PARKING LOTS / GARAGE,6212 E RIVERSIDE DR,78741.0,3.0,HE,3,N,2019-08-21 00:00:00,30.22532924,-97.70403434,2019,5,20,17
2019-05-17,AGG ASSAULT,N,2019-05-17 04:55:00,GAS / SERVICE STATIONS,6707 CAMERON RD,78752.0,1.0,ID,2,N,2019-06-21 00:00:00,30.32233701,-97.69398812,2019,5,20,17
2019-05-17,RAPE,Y,2019-05-17 12:31:00,RESIDENCE / HOME,4600 BLOCK FRONTIER TRL,78745.0,5.0,DA,4,C,2020-10-01 00:00:00,,,2019,5,20,17
2019-05-17,AGG ASSAULT,N,2019-05-18 13:35:00,STREETS / HWY / ROAD / ALLEY,3713 MUNSON ST,78721.0,1.0,CH,4,N,2019-06-06 00:00:00,30.26975827,-97.69359097,2019,5,20,17
2019-05-18,AGG ASSAULT,N,2019-05-19 00:57:00,STREETS / HWY / ROAD / ALLEY,N MOPAC NB TO 5TH EB RAMP / W 5TH ST,78703.0,9.0,BA,2,N,2019-06-27 00:00:00,30.27648495,-97.76776308,2019,5,20,18
2019-05-18,AGG ASSAULT,N,2019-05-18 14:11:00,AUTO DEALERSHIP NEW / USED,6201 HUDSON ST,78721.0,1.0,CH,5,N,2019-06-03 00:00:00,30.26970228,-97.67187164,2019,5,20,18
2019-05-18,AGG ROBBERY/DEADLY WEAPON,N,2019-05-18 04:52:00,HOTEL / MOTEL / ETC.,8210 N IH 35 SVRD SB,78753.0,4.0,ED,1,N,2019-07-09 00:00:00,30.34522549,-97.69705619,2019,5,20,18
2019-05-18,AGG ROBBERY/DEADLY WEAPON,N,2019-05-18 12:45:00,GROCERY / SUPERMARKET,2525 W ANDERSON LN,78757.0,7.0,BA,6,C,2019-06-26 00:00:00,30.35547011,-97.73354236,2019,5,20,18
2019-05-18,AGG ASSAULT,N,2019-05-18 20:04:00,PARKING LOTS / GARAGE,2765 E 7TH ST,78702.0,3.0,CH,1,C,2019-05-21 00:00:00,30.25964883,-97.71037407,2019,5,20,18
2019-05-19,AGG ASSAULT,N,2019-05-20 03:01:00,HOTEL / MOTEL / ETC.,11105 N IH 35 SVRD NB,78753.0,1.0,ED,7,N,2019-05-31 00:00:00,30.37472693,-97.67683667,2019,5,20,19
2019-05-19,AGG ASSAULT,N,2019-05-19 13:28:00,RESIDENCE / HOME,126 W ALPINE RD,78704.0,3.0,DA,2,N,2019-05-21 00:00:00,30.22886535,-97.76211082,2019,5,20,19
2019-05-19,AGG ROBBERY/DEADLY WEAPON,N,2019-05-19 23:48:00,STREETS / HWY / ROAD / ALLEY,2600 WHELESS LN,78723.0,1.0,ID,4,N,2019-08-12 00:00:00,30.30943665,-97.68127456,2019,5,20,19
2019-05-19,RAPE,Y,2019-05-28 15:48:00,RESIDENCE / HOME,400 BLOCK E WILLIAM CANNON DR,78745.0,2.0,FR,3,N,2019-08-09 00:00:00,,,2019,5,20,19
2019-05-19,AGG ROBBERY/DEADLY WEAPON,N,2019-05-19 07:09:00,PARKING LOTS / GARAGE,2201 WILLOW CREEK DR,78741.0,3.0,HE,2,N,2019-06-04 00:00:00,30.23039867,-97.72977637,2019,5,20,19
2019-05-19,AGG ROBBERY/DEADLY WEAPON,N,2019-05-19 01:43:00,BAR / NIGHT CLUB,2237 E RIVERSIDE DR,78741.0,3.0,HE,2,N,2020-02-29 00:00:00,30.23820652,-97.72624311,2019,5,20,19
2019-05-19,RAPE,N,2019-05-19 12:43:00,HOTEL / MOTEL / ETC.,11900 BLOCK PAVILION BLVD,78759.0,10.0,AD,7,C,2019-06-11 00:00:00,,,2019,5,20,19
2019-05-20,AGG ASSAULT,N,2019-05-20 21:45:00,STREETS / HWY / ROAD / ALLEY,500 BLOCK E 7TH ST,78701.0,9.0,GE,2,N,2019-05-24 00:00:00,30.26797616,-97.737619,2019,5,21,20
2019-05-20,AGG ROBBERY/DEADLY WEAPON,N,2019-05-20 11:47:00,RESIDENCE / HOME,8207 SAM RAYBURN DR,78753.0,4.0,ED,1,N,2019-06-02 00:00:00,30.34654094,-97.69950324,2019,5,21,20
2019-05-21,AGG ASSAULT,N,2019-05-21 16:01:00,STREETS / HWY / ROAD / ALLEY,W RUNDBERG LN / NORTHGATE BLVD,78758.0,4.0,ED,2,C,2019-06-03 00:00:00,30.37197865,-97.71560086,2019,5,21,21
2019-05-21,AGG ASSAULT,N,2019-05-21 15:28:00,PARKING LOTS / GARAGE,10001 S 1ST ST,78748.0,5.0,FR,2,N,2019-06-18 00:00:00,30.16103971,-97.79919221,2019,5,21,21
2019-05-22,AGG ASSAULT,N,2019-05-22 23:15:00,TRANSPORTATION (AIR / BUS / TRAIN - TERMINALS),2337 S CONGRESS AVE,78704.0,9.0,HE,1,N,2019-06-10 00:00:00,30.23882483,-97.75338512,2019,5,21,22
2019-05-22,AGG ASSAULT,N,2019-05-22 16:52:00,STREETS / HWY / ROAD / ALLEY,109 MASTERSON PASS,78753.0,4.0,ED,1,C,2019-05-22 00:00:00,30.36979494,-97.68785533,2019,5,21,22
2019-05-22,AGG ROBBERY/DEADLY WEAPON,N,2019-05-22 08:37:00,RESTAURANTS,5630 CAMERON RD,78723.0,4.0,ID,5,N,2020-01-05 00:00:00,30.31457163,-97.70357127,2019,5,21,22
2019-05-22,AGG ROBBERY/DEADLY WEAPON,N,2019-05-22 23:25:00,PARKING LOTS / GARAGE,5516 N LAMAR BLVD,78756.0,7.0,ID,7,N,2019-06-03 00:00:00,30.32363654,-97.72834473,2019,5,21,22
2019-05-22,AGG ASSAULT,N,2019-05-22 05:25:00,RESIDENCE / HOME,9300 NORTHGATE BLVD,78758.0,4.0,ED,2,N,2019-05-22 00:00:00,30.37239143,-97.71561186,2019,5,21,22
2019-05-23,AGG ASSAULT,N,2019-05-23 19:25:00,RESIDENCE / HOME,6611 HERGOTZ LN,78742.0,3.0,HE,5,N,2019-05-27 00:00:00,30.24498038,-97.68400464,2019,5,21,23
2019-05-23,AGG ROBBERY/DEADLY WEAPON,N,2019-05-23 18:52:00,RESIDENCE / HOME,1500 W BRAKER LN,78758.0,7.0,ED,4,C,2019-05-29 00:00:00,30.3880019,-97.69865305,2019,5,21,23
2019-05-23,RAPE,Y,2019-05-23 02:29:00,RESIDENCE / HOME,8700 BLOCK DEVINE LN,78748.0,5.0,FR,3,N,2019-07-18 00:00:00,,,2019,5,21,23
2019-05-23,AGG ROBBERY/DEADLY WEAPON,N,2019-05-23 11:33:00,STREETS / HWY / ROAD / ALLEY,W 5TH ST / RIO GRANDE ST,78701.0,9.0,GE,1,C,2019-05-24 00:00:00,30.26899672,-97.74987604,2019,5,21,23
2019-05-23,AGG ROBBERY/DEADLY WEAPON,N,2019-05-23 16:02:00,PARK / PLAYGROUND,1500 ALAMEDA DR,78704.0,9.0,HE,1,N,2019-05-23 00:00:00,30.24669239,-97.74338002,2019,5,21,23
2019-05-23,RAPE,N,2019-05-23 21:16:00,STREETS / HWY / ROAD / ALLEY,14200 BLOCK THE LAKES BLVD,78660.0,7.0,ED,6,C,2019-08-05 00:00:00,,,2019,5,21,23
2019-05-24,AGG ASSAULT,N,2019-05-24 14:08:00,STREETS / HWY / ROAD / ALLEY,50 BLOCK N IH 35 NB,78702.0,3.0,CH,1,C,2019-05-28 00:00:00,30.2611256,-97.73615249,2019,5,21,24
2019-05-24,RAPE,Y,2019-05-30 14:17:00,RESIDENCE / HOME,8500 BLOCK BRODIE LN,78745.0,5.0,FR,1,N,2019-06-18 00:00:00,,,2019,5,21,24
2019-05-24,AGG ASSAULT,N,2019-05-24 20:53:00,STREETS / HWY / ROAD / ALLEY,1450 BASTROP HWY SB,78741.0,3.0,HE,5,N,2019-07-05 00:00:00,30.22306585,-97.68335792,2019,5,21,24
2019-05-24,AGG ASSAULT,N,2019-05-24 17:30:00,STREETS / HWY / ROAD / ALLEY,2310 RACHAEL CT,78748.0,5.0,FR,1,N,2019-06-17 00:00:00,30.17809247,-97.82816857,2019,5,21,24
2019-05-24,AGG ASSAULT,N,2019-05-24 21:38:00,RESIDENCE / HOME,5935 CHERRY LOOP,78745.0,2.0,FR,4,N,2019-07-24 00:00:00,30.20712465,-97.78898728,2019,5,21,24
2019-05-25,AGG ROBBERY/DEADLY WEAPON,N,2019-05-25 05:13:00,PARKING LOTS / GARAGE,2400 W ANDERSON LN,78757.0,7.0,BA,6,C,2019-06-06 00:00:00,30.35632037,-97.73098547,2019,5,21,25
2019-05-25,AGG ASSAULT,N,2019-05-25 17:24:00,RESIDENCE / HOME,7581 CHEVY CHASE DR,78752.0,4.0,ID,8,N,2019-06-17 00:00:00,30.33930286,-97.70517697,2019,5,21,25
2019-05-25,AGG ASSAULT,N,2019-05-26 00:23:00,RESTAURANTS,13770 N US 183 HWY SVRD SB,78750.0,6.0,AD,6,C,2019-06-04 00:00:00,30.46160884,-97.79537914,2019,5,21,25
2019-05-26,RAPE,N,2019-05-27 18:45:00,HOTEL / MOTEL / ETC.,700 BLOCK SAN JACINTO BLVD,78701.0,9.0,GE,2,N,2019-08-21 00:00:00,,,2019,5,21,26
