occurred_date,highest_offense_description,family_violence,report_date_time,location_type,address,zip_code,council_district,apd_sector,apd_district,clearance_status,clearance_date,latitude,longitude,year,month,week,day
2017-01-01,RAPE,Y,2018-07-28 02:38:00,,1500 BLOCK REAGAN HILL DR,78752.0,4.0,ID,2,N,2018-11-09 00:00:00,,,2017,1,52,1
2017-01-01,AGG ASSAULT,N,2017-01-01 17:30:00,PARKING LOTS / GARAGE,9329 NORTHGATE BLVD,78758.0,4.0,ED,2,N,2017-02-14 00:00:00,30.37310385,-97.71440302,2017,1,52,1
2017-01-01,AGG ASLT STRANGLE/SUFFOCATE,Y,2017-01-01 21:48:00,RESIDENCE / HOME,3404 BACH DR,78660.0,1.0,ED,8,C,2017-01-02 00:00:00,30.38937639,-97.61919351,2017,1,52,1
2017-01-01,AGG ASSAULT,N,2017-01-01 02:16:00,STREETS / HWY / ROAD / ALLEY,700 BRAZOS ST,78701.0,9.0,GE,2,N,2017-01-13 00:00:00,30.26884954,-97.74122668,2017,1,52,1
2017-01-01,AGG ASSAULT,N,2017-01-01 04:20:00,PARKING LOTS / GARAGE,1800 PATTON LN,78723.0,1.0,ID,3,N,2017-03-08 00:00:00,30.3186038,-97.68793685,2017,1,52,1
2017-01-01,AGG SEXUAL ASSAULT CHILD/OBJEC,Y,2017-01-06 10:24:00,RESIDENCE / HOME,4000 BLOCK DUVAL RD,78759.0,7.0,AD,2,N,2017-05-10 00:00:00,,,2017,1,52,1
2017-01-01,RAPE,N,2017-01-01 09:01:00,STREETS / HWY / ROAD / ALLEY,200 BLOCK E 10TH ST,78701.0,1.0,GE,1,N,2017-02-06 00:00:00,,,2017,1,52,1
2017-01-01,AGG ASSAULT FAM/DATE VIOLENCE,Y,2017-08-10 08:30:00,RESIDENCE / HOME,800 HUNTINGDON PL,78745.0,2.0,FR,3,O,2017-08-17 00:00:00,30.1960291,-97.79102086,2017,1,52,1
2017-01-01,RAPE,Y,2020-10-26 20:00:00,RESIDENCE / HOME,7900 BLOCK GAULT ST,78757.0,7.0,ID,7,N,2021-01-26 00:00:00,,,2017,1,52,1
2017-01-01,AGG ASLT STRANGLE/SUFFOCATE,Y,2017-01-01 11:58:00,HOTEL / MOTEL / ETC.,9420 N IH 35 SVRD SB,78753.0,4.0,ED,1,C,2017-01-10 00:00:00,30.35979391,-97.688358,2017,1,52,1
2017-01-01,RAPE,N,2018-09-11 13:41:00,PARKING LOTS / GARAGE,2900 BLOCK N QUINLAN PARK RD,78732.0,,88,88,N,2019-01-10 00:00:00,,,2017,1,52,1
2017-01-01,AGG ASLT STRANGLE/SUFFOCATE,Y,2017-01-01 21:52:00,PARKING LOTS / GARAGE,2601 S PLEASANT VALLEY RD,78741.0,3.0,HE,4,C,2017-01-05 00:00:00,30.22642499,-97.72791034,2017,1,52,1
2017-01-01,AGG ROBBERY/DEADLY WEAPON,N,2017-01-01 18:35:00,PARKING LOTS / GARAGE,1070 MEARNS MEADOW BLVD,78758.0,4.0,ED,1,C,2017-01-01 00:00:00,30.36948655,-97.69959977,2017,1,52,1
2017-01-01,AGG ASLT STRANGLE/SUFFOCATE,Y,2017-01-01 02:59:00,RESIDENCE / HOME,12800 TURTLE ROCK RD,78729.0,6.0,AD,4,C,2017-01-01 00:00:00,30.45157753,-97.7741391,2017,1,52,1
2017-01-01,AGG ASLT STRANGLE/SUFFOCATE,Y,2017-01-01 06:41:00,STREETS / HWY / ROAD / ALLEY,PEACEFUL HILL LN / RALPH ABLANEDO DR,78748.0,2.0,FR,3,C,2017-01-18 00:00:00,30.17427779,-97.79105814,2017,1,52,1
2017-01-01,AGG ASLT STRANGLE/SUFFOCATE,Y,2017-01-01 04:11:00,RESIDENCE / HOME,9211 E HUNTERS TRCE,78758.0,4.0,ED,2,C,2017-03-27 00:00:00,30.3668104,-97.70979721,2017,1,52,1
2017-01-01,RAPE,N,2017-01-01 19:31:00,RESIDENCE / HOME,2100 BLOCK E WILLIAM CANNON DR,78744.0,2.0,FR,8,O,2017-09-21 00:00:00,,,2017,1,52,1
2017-01-01,AGG ASSAULT,N,2017-01-01 00:07:00,STREETS / HWY / ROAD / ALLEY,600 BLOCK BRAZOS ST,78701.0,9.0,GE,2,,,30.26816195,-97.74136237,2017,1,52,1
2017-01-02,AGG ASSAULT,N,2017-01-05 11:19:00,PARK / PLAYGROUND,300 COMAL ST,78702.0,3.0,CH,1,N,2017-01-19 00:00:00,30.26053691,-97.72788327,2017,1,1,2
2017-01-02,AGG ASSAULT,N,2017-01-02 11:51:00,PARKING LOTS / GARAGE,519 E 7TH ST,78701.0,9.0,GE,2,C,2017-01-02 00:00:00,30.26725491,-97.73717896,2017,1,1,2
2017-01-02,AGG ASLT STRANGLE/SUFFOCATE,Y,2017-01-02 19:07:00,ABANDONED/CONDEMNED STRUCTURE,6855 E US 290 HWY EB,78723.0,1.0,ID,3,O,2017-01-06 00:00:00,30.32127898,-97.68802519,2017,1,1,2
2017-01-02,AGG ROBBERY/DEADLY WEAPON,N,2017-01-02 06:30:00,PARKING LOTS / GARAGE,1912 E WILLIAM CANNON DR,78744.0,2.0,FR,8,N,2018-09-15 00:00:00,30.18854877,-97.76458936,2017,1,1,2
2017-01-03,RAPE,N,2017-01-25 10:29:00,RESIDENCE / HOME,2400 BLOCK WESTERN TRAILS BLVD,78745.0,5.0,DA,4,N,2017-03-27 00:00:00,,,2017,1,1,3
2017-01-03,AGG ROBBERY/DEADLY WEAPON,N,2017-01-03 00:49:00,GAS / SERVICE STATIONS,408 E RUNDBERG LN,78753.0,4.0,ED,1,C,2017-01-09 00:00:00,30.35987625,-97.69035066,2017,1,1,3
2017-01-04,AGG ASSAULT,N,2017-01-04 17:36:00,RESIDENCE / HOME,9801 W PARMER LN,78717.0,6.0,AD,5,O,2017-01-09 00:00:00,30.48543801,-97.77170883,2017,1,1,4
2017-01-04,AGG ROBBERY/DEADLY WEAPON,N,2017-01-04 19:30:00,RESIDENCE / HOME,1881 GROVE BLVD,78741.0,3.0,HE,3,N,2017-04-05 00:00:00,30.22863192,-97.70615517,2017,1,1,4
2017-01-04,AGG ASLT STRANGLE/SUFFOCATE,Y,2017-01-04 04:36:00,RESIDENCE / HOME,2936 BARTON SKWY,78746.0,8.0,DA,1,,,30.26053307,-97.78844793,2017,1,1,4
2017-01-04,RAPE,Y,2017-01-25 14:53:00,RESIDENCE / HOME,2600 BLOCK SOL WILSON AVE,78702.0,1.0,CH,2,O,2017-02-13 00:00:00,,,2017,1,1,4
2017-01-04,AGG ASSAULT,N,2017-01-04 17:24:00,STREETS / HWY / ROAD / ALLEY,900 E 11TH ST,78702.0,1.0,CH,2,N,2017-01-17 00:00:00,30.27009178,-97.73127562,2017,1,1,4
2017-01-04,AGG ASLT STRANGLE/SUFFOCATE,Y,2017-01-04 22:54:00,RESIDENCE / HOME,6116 TINER TRL,78724.0,1.0,CH,6,N,2017-01-11 00:00:00,30.29016765,-97.63947796,2017,1,1,4
2017-01-04,RAPE,N,2017-01-04 14:53:00,COMMERCIAL / OFFICE BUILDING,2100 BLOCK BOCA RATON DR,78747.0,5.0,FR,7,O,2017-04-04 00:00:00,,,2017,1,1,4
2017-01-04,AGG ROBBERY/DEADLY WEAPON,N,2017-01-05 00:15:00,RESIDENCE / HOME,10610 MORADO CIR,78759.0,10.0,AD,7,N,2017-02-03 00:00:00,30.40390628,-97.75232436,2017,1,1,4
2017-01-04,AGG ASSAULT FAM/DATE VIOLENCE,Y,2017-01-04 12:19:00,RESIDENCE / HOME,2347 DOUGLAS ST,78741.0,3.0,HE,2,C,2017-04-04 00:00:00,30.22813323,-97.73117084,2017,1,1,4
2017-01-05,AGG ASSAULT,Y,2017-01-05 20:29:00,RESIDENCE / HOME,2302 DURWOOD ST,78704.0,9.0,DA,1,C,2017-01-06 00:00:00,30.24193769,-97.7577335,2017,1,1,5
2017-01-05,AGG ASLT STRANGLE/SUFFOCATE,Y,2017-01-05 20:55:00,RESIDENCE / HOME,1701 MATTHEWS LN,78745.0,5.0,FR,1,C,2017-01-05 00:00:00,30.19832122,-97.80454987,2017,1,1,5
2017-01-05,AGG ROBBERY/DEADLY WEAPON,N,2017-01-05 01:00:00,GAS / SERVICE STATIONS,3008 W SLAUGHTER LN,78748.0,5.0,FR,1,,,30.17932364,-97.8402354,2017,1,1,5
2017-01-05,AGG ASSAULT FAM/DATE VIOLENCE,Y,2017-01-05 17:30:00,STREETS / HWY / ROAD / ALLEY,N LAMAR BLVD / W BRAKER LN,78753.0,4.0,ED,4,C,2017-01-06 00:00:00,30.38193221,-97.68638032,2017,1,1,5
2017-01-05,AGG ASLT STRANGLE/SUFFOCATE,Y,2017-01-05 03:59:00,RESIDENCE / HOME,8515 S IH 35 SVRD NB,78744.0,2.0,FR,7,C,2017-01-05 00:00:00,30.17057316,-97.78193509,2017,1,1,5
2017-01-05,AGG ASSAULT,N,2017-01-05 23:04:00,RESTAURANTS,4619 BORAGE DR,78744.0,2.0,FR,8,N,2017-01-18 00:00:00,30.17426952,-97.75762512,2017,1,1,5
2017-01-05,AGG ASLT STRANGLE/SUFFOCATE,Y,2017-01-05 01:05:00,RESIDENCE / HOME,8401 GARCREEK CIR,78724.0,1.0,CH,7,C,2017-01-05 00:00:00,30.29392142,-97.62926583,2017,1,1,5
2017-01-06,RAPE,N,2017-01-07 08:21:00,BAR / NIGHT CLUB,6500 BLOCK N LAMAR BLVD,78757.0,7.0,ID,7,O,2017-02-21 00:00:00,,,2017,1,1,6
2017-01-06,AGG ROBBERY/DEADLY WEAPON,N,2017-01-06 20:57:00,RESIDENCE / HOME,4320 S CONGRESS AVE,78745.0,3.0,DA,3,N,2017-05-03 00:00:00,30.21903307,-97.76718941,2017,1,1,6
2017-01-06,AGG ASSAULT FAM/DATE VIOLENCE,Y,2017-01-06 23:28:00,RESIDENCE / HOME,11201 N MOPAC EXPY SVRD NB,78758.0,7.0,AD,2,C,2017-01-07 00:00:00,30.40083979,-97.72892075,2017,1,1,6
2017-01-07,AGG ROBBERY/DEADLY WEAPON,N,2017-01-07 17:52:00,PARKING LOTS / GARAGE,1015 RUTLAND DR,78758.0,4.0,ED,1,N,2017-07-03 00:00:00,30.3671238,-97.70414923,2017,1,1,7
2017-01-07,AGG ASSAULT,N,2017-01-07 04:41:00,RESIDENCE / HOME,9603 PARKFIELD DR,78758.0,4.0,ED,1,O,2017-01-09 00:00:00,30.37045116,-97.70438839,2017,1,1,7
2017-01-07,AGG ASLT STRANGLE/SUFFOCATE,Y,2017-01-07 11:24:00,RESIDENCE / HOME,2110 WIRTZ AVE,78704.0,9.0,DA,1,C,2017-01-11 00:00:00,30.24682362,-97.76574763,2017,1,1,7
2017-01-07,AGG ASLT STRANGLE/SUFFOCATE,Y,2017-01-07 04:02:00,RESIDENCE / HOME,2905 COLLINS CREEK DR,78741.0,3.0,HE,2,C,2017-01-10 00:00:00,30.22376334,-97.73119039,2017,1,1,7
2017-01-07,AGG ROBBERY/DEADLY WEAPON,N,2017-01-07 21:52:00,PARKING LOTS / GARAGE,8926 N LAMAR BLVD,78758.0,4.0,ED,1,N,2017-07-03 00:00:00,30.35875709,-97.69972149,2017,1,1,7
2017-01-07,AGG ROBBERY/DEADLY WEAPON,N,2017-01-08 00:22:00,PARKING LOTS / GARAGE,12349 METRIC BLVD,78758.0,7.0,ED,4,N,2017-07-03 00:00:00,30.40977797,-97.69537019,2017,1,1,7
2017-01-07,AGG ASSAULT FAM/DATE VIOLENCE,Y,2017-01-07 12:09:00,RESIDENCE / HOME,2510 EUCLID AVE,78704.0,3.0,DA,2,O,2017-01-20 00:00:00,30.23806629,-97.75778607,2017,1,1,7
2017-01-08,AGG ASSAULT,N,2017-01-08 23:06:00,DEPARTMENT / DISCOUNT STORE,1030 NORWOOD PARK BLVD,78753.0,4.0,ID,2,N,2017-02-06 00:00:00,30.3391525,-97.69116892,2017,1,1,8
2017-01-08,AGG ROBBERY/DEADLY WEAPON,N,2017-01-10 14:12:00,PARKING LOTS / GARAGE,2200 S PLEASANT VALLEY RD,78741.0,3.0,HE,2,N,2017-05-15 00:00:00,30.23154682,-97.7260523,2017,1,1,8
2017-01-08,AGG ASLT STRANGLE/SUFFOCATE,Y,2017-01-08 10:05:00,RESIDENCE / HOME,1515 GROVE BLVD,78741.0,3.0,HE,3,C,2017-01-10 00:00:00,30.2309895,-97.70564444,2017,1,1,8
2017-01-08,AGG ASSAULT FAM/DATE VIOLENCE,Y,2017-01-09 11:10:00,RESIDENCE / HOME,6017 ATWOOD ST,78741.0,3.0,HE,3,O,2017-01-12 00:00:00,30.23977511,-97.69832892,2017,1,1,8
2017-01-08,AGG ROBBERY/DEADLY WEAPON,N,2017-01-08 02:19:00,RESIDENCE / HOME,2200 S PLEASANT VALLEY RD,78741.0,3.0,HE,2,N,2017-05-15 00:00:00,30.23154682,-97.7260523,2017,1,1,8
2017-01-08,AGG ASLT STRANGLE/SUFFOCATE,Y,2017-01-08 23:42:00,RESIDENCE / HOME,4646 MUELLER BLVD,78723.0,9.0,BA,4,C,2017-01-09 00:00:00,30.29986863,-97.70708128,2017,1,1,8
2017-01-08,AGG ASSAULT,N,2017-01-08 10:22:00,RESIDENCE / HOME,3105 S IH 35 SVRD NB,78741.0,3.0,HE,2,N,2017-01-17 00:00:00,30.22525037,-97.74417353,2017,1,1,8
2017-01-08,AGG ASLT STRANGLE/SUFFOCATE,Y,2017-01-08 03:12:00,PARKING LOTS / GARAGE,1700 TERI RD,78744.0,2.0,FR,5,C,2017-01-15 00:00:00,30.20524259,-97.75566571,2017,1,1,8
2017-01-08,AGG ASLT STRANGLE/SUFFOCATE,Y,2017-01-08 01:47:00,RESIDENCE / HOME,3200 S LAMAR BLVD,78704.0,5.0,DA,4,C,2017-01-13 00:00:00,30.24196938,-97.7853102,2017,1,1,8
2017-01-08,AGG ASSAULT,N,2017-01-08 20:35:00,RESIDENCE / HOME,11607 SIERRA NEVADA,78759.0,10.0,AD,7,N,2017-02-24 00:00:00,30.42085628,-97.75504086,2017,1,1,8
2017-01-09,AGG ROBBERY/DEADLY WEAPON,N,2017-01-09 23:11:00,PARKING LOTS / GARAGE,8532 N LAMAR BLVD,78758.0,4.0,ED,2,N,2017-07-03 00:00:00,30.35525522,-97.70666419,2017,1,2,9
2017-01-09,AGG ROBBERY/DEADLY WEAPON,N,2017-01-10 12:34:00,PARKING LOTS / GARAGE,1212 WESTHEIMER DR,78752.0,4.0,ID,1,N,2017-07-03 00:00:00,30.32578989,-97.69444533,2017,1,2,9
2017-01-09,AGG ASLT STRANGLE/SUFFOCATE,Y,2017-01-11 03:42:00,RESIDENCE / HOME,2300 BLOCK DURWOOD ST,78704.0,9.0,DA,1,N,2017-01-18 00:00:00,,,2017,1,2,9
2017-01-09,AGG ROBBERY/DEADLY WEAPON,N,2017-01-09 22:53:00,PARKING LOTS / GARAGE,2201 MONTOPOLIS DR,78741.0,3.0,HE,5,N,2017-05-15 00:00:00,30.22249725,-97.70447881,2017,1,2,9
2017-01-09,AGG ROBBERY/DEADLY WEAPON,N,2017-01-09 22:10:00,PARKING LOTS / GARAGE,8532 N LAMAR BLVD,78758.0,4.0,ED,2,N,2017-07-03 00:00:00,30.35525522,-97.70666419,2017,1,2,9
2017-01-09,AGG ROBBERY/DEADLY WEAPON,N,2017-01-10 18:46:00,STREETS / HWY / ROAD / ALLEY,1212 WESTHEIMER DR,78752.0,4.0,ID,1,N,2017-07-03 00:00:00,30.32578989,-97.69444533,2017,1,2,9
2017-01-09,AGG ASSAULT,N,2017-01-09 03:18:00,STREETS / HWY / ROAD / ALLEY,9034 N IH 35 SVRD SB,78753.0,4.0,ED,1,N,2017-01-17 00:00:00,30.35587055,-97.69042871,2017,1,2,9
2017-01-10,AGG ROBBERY/DEADLY WEAPON,N,2017-01-10 13:15:00,FIELD / WOODS,5200 N CAPITAL OF TEXAS HWY NB,78746.0,10.0,BA,7,N,2017-10-03 00:00:00,30.3499399,-97.79689336,2017,1,2,10
2017-01-10,AGG ASSAULT,N,2017-01-10 03:29:00,PARKING LOTS / GARAGE,739 W WILLIAM CANNON DR,78745.0,2.0,FR,3,N,2017-01-16 00:00:00,30.1974094,-97.78989537,2017,1,2,10
2017-01-10,AGG ASSAULT FAM/DATE VIOLENCE,Y,2017-01-10 16:25:00,RESIDENCE / HOME,7033 E US 290 HWY SVRD EB,78723.0,1.0,ID,3,C,2017-01-11 00:00:00,30.32048257,-97.68608462,2017,1,2,10
2017-01-10,AGG ASLT STRANGLE/SUFFOCATE,Y,2017-01-10 09:58:00,RESIDENCE / HOME,2804 E 2ND ST,78702.0,3.0,CH,1,C,2017-01-10 00:00:00,30.25389036,-97.71188961,2017,1,2,10
2017-01-10,AGG ASSAULT FAM/DATE VIOLENCE,N,2017-01-10 18:36:00,RESIDENCE / HOME,6909 WENTWORTH DR,78724.0,1.0,CH,7,C,2017-01-10 00:00:00,30.29531461,-97.62881477,2017,1,2,10
2017-01-10,AGG ROBBERY/DEADLY WEAPON,N,2017-01-10 12:02:00,PARK / PLAYGROUND,5200 N CAPITAL OF TEXAS HWY SB,78746.0,10.0,BA,8,N,2018-02-08 00:00:00,30.35004118,-97.79700803,2017,1,2,10
2017-01-10,RAPE,N,2017-01-10 00:10:00,HOTEL / MOTEL / ETC.,800 BLOCK E ANDERSON LN SVRD WB,78753.0,4.0,ID,2,C,2017-01-10 00:00:00,,,2017,1,2,10
2017-01-10,AGG ASSAULT,N,2017-01-10 15:31:00,STREETS / HWY / ROAD / ALLEY,4124 N IH 35 UPPER DECK SB,78705.0,9.0,BA,1,N,2017-05-11 00:00:00,30.29822826,-97.71778505,2017,1,2,10
2017-01-11,AGG ASLT ENHANC STRANGL/SUFFOC,Y,2017-01-11 21:34:00,STREETS / HWY / ROAD / ALLEY,9616 N LAMAR BLVD,78758.0,4.0,ED,1,N,2017-01-16 00:00:00,30.36679433,-97.69560388,2017,1,2,11
2017-01-11,AGG SEXUAL ASSAULT W OBJECT,N,2017-01-11 21:53:00,RESIDENCE / HOME,4400 BLOCK E OLTORF ST,78741.0,3.0,HE,4,O,2017-01-30 00:00:00,,,2017,1,2,11
2017-01-11,AGG ASLT STRANGLE/SUFFOCATE,Y,2017-01-12 06:01:00,RESIDENCE / HOME,2810 HEMPHILL PARK,78705.0,9.0,BA,1,O,2017-01-31 00:00:00,30.29404313,-97.74125049,2017,1,2,11
2017-01-11,AGG ASSAULT,N,2017-01-11 15:01:00,STREETS / HWY / ROAD / ALLEY,E 51ST ST / BERKMAN DR,78723.0,4.0,ID,4,N,2017-02-09 00:00:00,30.30390569,-97.69888228,2017,1,2,11
2017-01-11,AGG ASSAULT FAM/DATE VIOLENCE,Y,2017-01-11 21:52:00,RESIDENCE / HOME,7302 DECKER LN,78724.0,1.0,CH,7,C,2017-01-11 00:00:00,30.30033237,-97.62326354,2017,1,2,11
2017-01-11,AGG ASSAULT,N,2017-01-11 20:32:00,PARKING LOTS / GARAGE,1705 S LAKESHORE BLVD,78741.0,3.0,HE,2,N,2017-03-27 00:00:00,30.24450788,-97.72963988,2017,1,2,11
2017-01-11,AGG ROBBERY/DEADLY WEAPON,N,2017-01-11 05:25:00,PARKING LOTS / GARAGE,2000 CEDAR BEND DR,78758.0,7.0,AD,3,N,2017-04-19 00:00:00,30.40934374,-97.69873297,2017,1,2,11
2017-01-11,AGG ASSAULT,N,2017-01-12 05:56:00,PARKING LOTS / GARAGE,7208 CAMERON RD,78752.0,4.0,ID,1,N,2017-01-17 00:00:00,30.32638003,-97.69251739,2017,1,2,11
2017-01-12,AGG ASSAULT FAM/DATE VIOLENCE,Y,2017-01-12 09:59:00,RESIDENCE / HOME,1071 CLAYTON LN,78723.0,4.0,ID,5,N,2017-02-03 00:00:00,30.3185291,-97.7034222,2017,1,2,12
2017-01-12,AGG ASSAULT FAM/DATE VIOLENCE,Y,2017-01-12 09:22:00,RESIDENCE / HOME,3310 PLANTATION RD,78745.0,5.0,FR,1,C,2017-01-18 00:00:00,30.19980572,-97.83421345,2017,1,2,12
2017-01-12,AGG ASSAULT,N,2017-01-12 13:42:00,STREETS / HWY / ROAD / ALLEY,E RIVERSIDE DR / S PLEASANT VALLEY RD,78741.0,3.0,HE,3,C,2017-01-18 00:00:00,30.2341129,-97.72281244,2017,1,2,12
2017-01-12,AGG ROBBERY/DEADLY WEAPON,N,2017-01-12 05:50:00,PARKING LOTS / GARAGE,8630 RESEARCH BLVD SVRD SB,78757.0,7.0,ID,7,C,2017-02-27 00:00:00,30.36273234,-97.71791339,2017,1,2,12
2017-01-12,AGG ROBBERY/DEADLY WEAPON,N,2017-01-12 20:08:00,FIELD / WOODS,600 BARWOOD PARK,78753.0,4.0,ED,1,N,2017-01-31 00:00:00,30.34950001,-97.69667616,2017,1,2,12
2017-01-12,AGG ASSAULT,N,2017-01-12 19:45:00,STREETS / HWY / ROAD / ALLEY,S LAMAR BLVD SVRD NB / W BEN WHITE BLVD SVRD EB,78745.0,5.0,DA,4,N,2017-01-24 00:00:00,30.23367988,-97.79666852,2017,1,2,12
2017-01-12,AGG ASSAULT,N,2017-01-12 16:42:00,STREETS / HWY / ROAD / ALLEY,HUDSON ST / DARBY ST,78721.0,1.0,CH,5,C,2017-01-16 00:00:00,30.26943017,-97.67082082,2017,1,2,12
2017-01-12,AGG ASLT STRANGLE/SUFFOCATE,Y,2017-01-12 14:58:00,RESIDENCE / HOME,2347 DOUGLAS ST,78741.0,3.0,HE,2,C,2017-01-12 00:00:00,30.22813323,-97.73117084,2017,1,2,12
2017-01-13,AGG ASSAULT,N,2017-01-13 22:27:00,RESIDENCE / HOME,807 E 14TH ST,78702.0,1.0,CH,3,C,2017-01-13 00:00:00,30.27383738,-97.73085146,2017,1,2,13
2017-01-13,AGG ROBBERY/DEADLY WEAPON,N,2017-01-17 11:50:00,STREETS / HWY / ROAD / ALLEY,600 SAN JACINTO BLVD,78701.0,9.0,GE,2,N,2017-01-17 00:00:00,30.26750487,-97.74042313,2017,1,2,13
2017-01-13,AGG ASLT STRANGLE/SUFFOCATE,Y,2017-01-13 23:54:00,HOTEL / MOTEL / ETC.,6201 E US 290 HWY SVRD EB,78723.0,1.0,ID,5,C,2017-01-17 00:00:00,30.32143685,-97.70278181,2017,1,2,13
2017-01-13,AGG RAPE OF A CHILD,N,2017-01-13 12:28:00,HOTEL / MOTEL / ETC.,2100 BLOCK S LAKELINE BLVD,78613.0,,88,88,N,2017-05-12 00:00:00,,,2017,1,2,13
2017-01-13,AGG ASLT STRANGLE/SUFFOCATE,Y,2017-01-13 03:53:00,RESIDENCE / HOME,12217 DUNDEE DR,78759.0,10.0,AD,6,N,2017-01-17 00:00:00,30.43239217,-97.76840229,2017,1,2,13
2017-01-13,AGG ROBBERY/DEADLY WEAPON,N,2017-01-13 04:44:00,PARKING LOTS / GARAGE,2201 WILLOW CREEK DR,78741.0,3.0,HE,2,N,2017-04-27 00:00:00,30.23039867,-97.72977637,2017,1,2,13
2017-01-13,AGG ASSAULT,N,2017-01-13 16:37:00,RESIDENCE / HOME,6409 SPRINGDALE RD,78723.0,1.0,CH,4,C,2017-02-03 00:00:00,30.30714138,-97.66939998,2017,1,2,13
2017-01-14,AGG ASLT STRANGLE/SUFFOCATE,Y,2017-01-14 15:10:00,RESIDENCE / HOME,6103 MANOR RD,78723.0,1.0,ID,4,C,2017-01-23 00:00:00,30.30755468,-97.67805181,2017,1,2,14
2017-01-14,AGG ASSAULT,N,2017-01-14 04:38:00,STREETS / HWY / ROAD / ALLEY,1625 E PARMER LN,78753.0,1.0,ED,7,N,2017-01-24 00:00:00,30.38674135,-97.64925411,2017,1,2,14
2017-01-14,AGG ASSAULT,N,2017-01-14 01:08:00,BAR / NIGHT CLUB,10401 ANDERSON MILL RD,78750.0,6.0,AD,8,O,2017-03-28 00:00:00,30.44650265,-97.80562383,2017,1,2,14
2017-01-14,AGG ASSAULT,N,2017-01-14 03:38:00,STREETS / HWY / ROAD / ALLEY,710 W 6TH ST,78701.0,9.0,GE,1,N,2017-05-25 00:00:00,30.27025454,-97.75005784,2017,1,2,14
2017-01-14,RAPE,N,2017-01-14 14:56:00,RESIDENCE / HOME,2300 BLOCK RIO GRANDE ST,78705.0,9.0,BA,1,O,2017-08-01 00:00:00,,,2017,1,2,14
2017-01-14,AGG ASSAULT FAM/DATE VIOLENCE,Y,2017-01-14 04:58:00,RESIDENCE / HOME,1705 FRONTIER VALLEY DR,78741.0,3.0,HE,5,C,2017-01-14 00:00:00,30.22478271,-97.69497855,2017,1,2,14
2017-01-14,AGG ASSAULT,N,2017-01-14 23:34:00,SPECIALTY  STORE (TV  FUR ETC.),1715 HILLCREST LN,78721.0,1.0,CH,5,,,30.27877288,-97.67610557,2017,1,2,14
2017-01-15,RAPE,Y,2017-01-15 16:01:00,RESIDENCE / HOME,2300 BLOCK DURWOOD ST,78704.0,9.0,DA,1,O,2017-01-31 00:00:00,,,2017,1,2,15
2017-01-15,AGG ASSAULT,N,2017-01-15 22:56:00,PARKING LOTS / GARAGE,2424 S CONGRESS AVE,78704.0,3.0,DA,2,C,2017-01-16 00:00:00,30.23778057,-97.75479405,2017,1,2,15
2017-01-15,AGG ASSAULT,N,2017-01-18 10:59:00,STREETS / HWY / ROAD / ALLEY,1200 BLOCK WEBBERVILLE RD,78721.0,1.0,CH,4,N,2017-03-21 00:00:00,30.27826788,-97.68505893,2017,1,2,15
2017-01-15,AGG ASSAULT,N,2017-01-15 06:26:00,RESIDENCE / HOME,8613 CAPITOL VIEW DR,78747.0,2.0,FR,7,N,2017-01-24 00:00:00,30.15168704,-97.74482438,2017,1,2,15
2017-01-15,AGG ASLT STRANGLE/SUFFOCATE,Y,2017-01-15 13:57:00,RESIDENCE / HOME,6605 JOHNNY MORRIS CV,78724.0,1.0,CH,7,C,2017-01-17 00:00:00,30.30537521,-97.64409029,2017,1,2,15
2017-01-15,AGG ASSAULT,N,2017-01-16 21:30:00,PARKING LOTS / GARAGE,1301 SHOAL CREEK BLVD,78701.0,9.0,BA,2,N,2017-02-21 00:00:00,30.27804051,-97.74922839,2017,1,2,15
2017-01-15,AGG ASLT STRANGLE/SUFFOCATE,Y,2017-01-17 13:20:00,RESIDENCE / HOME,1109 ESTES AVE,78721.0,3.0,CH,5,C,2017-01-24 00:00:00,30.26819702,-97.68444166,2017,1,2,15
2017-01-15,AGG ASSAULT FAM/DATE VIOLENCE,Y,2017-01-15 01:44:00,RESIDENCE / HOME,8917 EDMUNDSBURY DR,78747.0,2.0,FR,7,N,2017-02-16 00:00:00,30.1478294,-97.74025676,2017,1,2,15
2017-01-15,AGG ASSAULT,N,2017-01-15 23:43:00,OTHER / UNKNOWN,4400 E RIVERSIDE DR,78741.0,3.0,HE,3,O,2017-02-01 00:00:00,30.23376292,-97.72223909,2017,1,2,15
2017-01-15,RAPE,Y,2017-01-17 21:34:00,RESIDENCE / HOME,6100 BLOCK FAIRWAY ST,78741.0,3.0,HE,3,O,2017-01-27 00:00:00,,,2017,1,2,15
2017-01-16,RAPE,N,2017-01-20 10:24:00,RESIDENCE / HOME,2700 BLOCK RIO GRANDE ST,78705.0,9.0,BA,3,C,2017-05-08 00:00:00,,,2017,1,3,16
2017-01-16,AGG ASSAULT,N,2017-01-16 00:14:00,RESIDENCE / HOME,2503 E OLTORF ST,78741.0,3.0,HE,2,N,2017-02-01 00:00:00,30.22745335,-97.72857305,2017,1,3,16
2017-01-16,AGG ROBBERY/DEADLY WEAPON,N,2017-01-16 17:49:00,GAS / SERVICE STATIONS,1801 E STASSNEY LN,78744.0,2.0,FR,8,C,2017-02-15 00:00:00,30.1968042,-97.76111504,2017,1,3,16
2017-01-16,AGG ASSAULT,N,2017-01-16 23:24:00,HOTEL / MOTEL / ETC.,5330 N IH 35 SVRD SB,78751.0,4.0,ID,6,N,2017-03-28 00:00:00,30.31255268,-97.70919917,2017,1,3,16
2017-01-16,AGG ASLT STRANGLE/SUFFOCATE,Y,2017-01-16 16:29:00,RESIDENCE / HOME,7213 THANNAS WAY,78744.0,2.0,FR,8,O,2017-02-15 00:00:00,30.17791342,-97.75856946,2017,1,3,16
2017-01-16,AGG ASSAULT,N,2017-01-16 22:08:00,PARK / PLAYGROUND,1616 E 3RD ST,78702.0,3.0,CH,1,N,2017-02-06 00:00:00,30.2602435,-97.72711496,2017,1,3,16
2017-01-17,AGG ASSAULT,N,2017-01-17 01:22:00,STREETS / HWY / ROAD / ALLEY,COLORADO ST / W 6TH ST,78701.0,9.0,GE,1,N,2017-01-18 00:00:00,30.26841602,-97.74413436,2017,1,3,17
2017-01-18,RAPE,N,2017-01-20 03:03:00,RESIDENCE / HOME,2300 BLOCK TOWN LAKE CIR,78741.0,3.0,HE,2,O,2017-08-09 00:00:00,,,2017,1,3,18
2017-01-18,AGG ASSAULT FAM/DATE VIOLENCE,Y,2017-01-18 01:57:00,PARKING LOTS / GARAGE,1054 SPRINGDALE RD,78721.0,1.0,CH,4,C,2017-01-18 00:00:00,30.27185395,-97.69305203,2017,1,3,18
2017-01-18,AGG ASSAULT,N,2017-01-18 18:41:00,STREETS / HWY / ROAD / ALLEY,7900 THAXTON RD,78747.0,2.0,FR,7,C,2017-01-18 00:00:00,30.15825967,-97.74574658,2017,1,3,18
2017-01-18,AGG ASLT STRANGLE/SUFFOCATE,Y,2017-01-18 00:02:00,RESIDENCE / HOME,10320 BOULDER LN,78726.0,6.0,AD,8,C,2017-01-18 00:00:00,30.42818784,-97.83863491,2017,1,3,18
2017-01-18,MURDER,N,2017-01-18 20:50:00,PARKING LOTS / GARAGE,1701 E RIVERSIDE DR,78741.0,9.0,HE,1,C,2017-01-23 00:00:00,30.24437848,-97.73058102,2017,1,3,18
2017-01-18,AGG ASLT STRANGLE/SUFFOCATE,Y,2017-01-18 22:04:00,RESIDENCE / HOME,3111 PARKER LN,78741.0,3.0,HE,2,C,2017-01-19 00:00:00,30.22356137,-97.74198286,2017,1,3,18
2017-01-18,AGG ASSAULT,N,2017-01-18 15:27:00,COMMUNITY CENTER,1000 E 41ST ST,78751.0,9.0,BA,5,N,2017-02-23 00:00:00,30.30046112,-97.71965166,2017,1,3,18
2017-01-18,AGG ASSAULT,N,2017-01-19 06:52:00,STREETS / HWY / ROAD / ALLEY,12500 N IH 35 SVRD NB,78753.0,7.0,ED,6,C,2017-01-30 00:00:00,30.4067542,-97.67439612,2017,1,3,18
2017-01-18,AGG ASLT STRANGLE/SUFFOCATE,Y,2017-01-19 08:51:00,RESIDENCE / HOME,12312 LAGUARDIA LN,78617.0,2.0,HE,7,C,2017-01-20 00:00:00,30.17187659,-97.62906277,2017,1,3,18
2017-01-18,AGG ASSAULT,N,2017-01-18 04:44:00,DRUG STORE / DR. OFFICE / HOSPITAL,DECKER LN / LOYOLA LN,78724.0,1.0,CH,6,N,2017-02-10 00:00:00,30.29122388,-97.62799126,2017,1,3,18
2017-01-19,AGG ASSAULT FAM/DATE VIOLENCE,Y,2017-01-19 20:56:00,RESIDENCE / HOME,10000 ROCKING HORSE RD,78748.0,5.0,FR,1,O,2017-02-01 00:00:00,30.18126025,-97.84605448,2017,1,3,19
2017-01-19,AGG ASSAULT,N,2017-01-19 01:55:00,PARKING LOTS / GARAGE,863 AIRPORT BLVD,78721.0,3.0,CH,5,N,2017-01-30 00:00:00,30.25926124,-97.69324431,2017,1,3,19
2017-01-19,AGG ASSAULT FAM/DATE VIOLENCE,Y,2017-01-21 01:50:00,RESIDENCE / HOME,701 W LONGSPUR BLVD,78753.0,4.0,ED,1,C,2017-01-31 00:00:00,30.36652912,-97.69300709,2017,1,3,19
2017-01-19,AGG ASSAULT FAM/DATE VIOLENCE,Y,2017-01-19 16:19:00,RESIDENCE / HOME,1300 GREENWOOD AVE,78721.0,1.0,CH,4,N,2017-01-27 00:00:00,30.27838559,-97.69650176,2017,1,3,19
2017-01-20,AGG ASSAULT FAM/DATE VIOLENCE,Y,2017-01-20 01:49:00,RESIDENCE / HOME,711 GREAT BRITAIN BLVD,78748.0,2.0,FR,3,C,2017-01-20 00:00:00,30.17955126,-97.7990233,2017,1,3,20
2017-01-20,AGG ASLT STRANGLE/SUFFOCATE,Y,2017-01-20 19:37:00,RESIDENCE / HOME,709 LAMAR PL,78752.0,4.0,ID,6,C,2017-01-24 00:00:00,30.33096528,-97.72207832,2017,1,3,20
2017-01-20,AGG ASSAULT,N,2017-01-20 22:16:00,STREETS / HWY / ROAD / ALLEY,753 MONTOPOLIS DR,78741.0,3.0,HE,5,N,2017-01-26 00:00:00,30.23636375,-97.69574545,2017,1,3,20
2017-01-20,AGG ASLT STRANGLE/SUFFOCATE,Y,2017-01-21 00:48:00,RESIDENCE / HOME,9520 SPECTRUM DR,78717.0,6.0,AD,5,N,2017-01-31 00:00:00,30.48156935,-97.76914426,2017,1,3,20
2017-01-20,AGG ASSAULT FAM/DATE VIOLENCE,Y,2017-01-20 18:15:00,RESIDENCE / HOME,6118 FAIRWAY ST,78741.0,3.0,HE,3,N,2017-01-31 00:00:00,30.22900387,-97.70310447,2017,1,3,20
2017-01-20,AGG ASSAULT,N,2017-01-20 19:12:00,RESIDENCE / HOME,5605 BERKMAN DR,78723.0,4.0,ID,4,N,2017-01-20 00:00:00,30.31102666,-97.69408191,2017,1,3,20
2017-01-20,AGG ASLT STRANGLE/SUFFOCATE,Y,2017-01-20 17:38:00,RESIDENCE / HOME,12500 LAMPLIGHT VILLAGE AVE,78727.0,7.0,AD,3,C,2017-01-20 00:00:00,30.41631418,-97.69596881,2017,1,3,20
2017-01-20,RAPE,N,2017-01-20 21:07:00,RESIDENCE / HOME,1200 BLOCK MEARNS MEADOW BLVD,78758.0,4.0,ED,1,N,2017-03-29 00:00:00,,,2017,1,3,20
2017-01-20,AGG ASLT STRANGLE/SUFFOCATE,Y,2017-01-20 18:19:00,OTHER / UNKNOWN,1906 S 1ST ST,78704.0,9.0,DA,1,N,2017-01-25 00:00:00,30.24602566,-97.7569624,2017,1,3,20
2017-01-21,AGG ASSAULT FAM/DATE VIOLENCE,Y,2017-01-21 03:44:00,RESIDENCE / HOME,1173 HARVEY ST,78702.0,1.0,CH,2,O,2017-01-26 00:00:00,30.27529193,-97.70241366,2017,1,3,21
2017-01-21,RAPE,N,2017-01-21 01:19:00,DRUG STORE / DR. OFFICE / HOSPITAL,4800 BLOCK MANOR RD,78723.0,9.0,BA,4,N,2017-02-03 00:00:00,,,2017,1,3,21
2017-01-21,AGG ASSAULT FAM/DATE VIOLENCE,Y,2017-01-23 07:59:00,RESIDENCE / HOME,3201 NORWOOD HILL RD,78723.0,1.0,ID,4,C,2017-02-06 00:00:00,30.29798029,-97.67949747,2017,1,3,21
2017-01-21,AGG ASLT STRANGLE/SUFFOCATE,Y,2017-01-21 03:08:00,RESIDENCE / HOME,5910 ALSACE TRL,78724.0,1.0,CH,6,C,2017-01-27 00:00:00,30.29024105,-97.64611881,2017,1,3,21
2017-01-21,AGG ASSAULT,N,2017-01-23 18:06:00,STREETS / HWY / ROAD / ALLEY,15000 N IH 35 SVRD SB,78728.0,7.0,ED,6,N,2017-01-29 00:00:00,30.44318467,-97.66849929,2017,1,3,21
2017-01-21,AGG ASSAULT,N,2017-01-21 22:19:00,RESIDENCE / HOME,12440 ALAMEDA TRACE CIR,78727.0,6.0,AD,3,N,2017-01-22 00:00:00,30.42948175,-97.74372078,2017,1,3,21
2017-01-21,AGG ASSAULT WITH MOTOR VEH,N,2017-01-21 17:17:00,PARKING LOTS / GARAGE,1319 MC KIE DR,78752.0,4.0,ID,1,N,2017-03-06 00:00:00,30.32925333,-97.69127515,2017,1,3,21
2017-01-21,RAPE,N,2017-01-27 16:11:00,RESIDENCE / HOME,1000 BLOCK E 40TH ST,78751.0,9.0,BA,5,N,2017-02-21 00:00:00,,,2017,1,3,21
2017-01-21,AGG ROBBERY/DEADLY WEAPON,N,2017-01-21 02:54:00,RESIDENCE / HOME,2800 LYONS RD,78702.0,3.0,CH,2,,,30.2640271,-97.7075398,2017,1,3,21
2017-01-21,AGG ASSAULT,N,2017-01-21 16:43:00,STREETS / HWY / ROAD / ALLEY,1111 MONTOPOLIS DR,78741.0,3.0,HE,5,N,2017-04-04 00:00:00,30.23232221,-97.69808883,2017,1,3,21
2017-01-22,AGG ROBBERY/DEADLY WEAPON,N,2017-01-22 03:37:00,PARKING LOTS / GARAGE,12820 N LAMAR BLVD,78753.0,7.0,ED,4,N,2017-02-08 00:00:00,30.41431827,-97.67840489,2017,1,3,22
2017-01-22,AGG ASSAULT,N,2017-01-22 08:04:00,HOTEL / MOTEL / ETC.,12401 N LAMAR BLVD,78753.0,7.0,ED,4,N,2017-06-06 00:00:00,30.40652653,-97.67748032,2017,1,3,22
2017-01-22,AGG ASSAULT FAM/DATE VIOLENCE,Y,2017-01-22 03:46:00,RESIDENCE / HOME,5603 MANOR RD,78723.0,1.0,ID,4,C,2017-02-01 00:00:00,30.30357658,-97.68198713,2017,1,3,22
2017-01-22,AGG ASLT STRANGLE/SUFFOCATE,Y,2017-01-22 04:33:00,RESIDENCE / HOME,11006 PRAIRIE DOVE CIR,78758.0,4.0,ED,4,C,2017-01-22 00:00:00,30.38715121,-97.70639173,2017,1,3,22
2017-01-22,AGG ROBBERY/DEADLY WEAPON,N,2017-01-22 05:12:00,CONVENIENCE STORE,8900 N LAMAR BLVD,78758.0,4.0,ED,1,,,30.35828676,-97.70039084,2017,1,3,22
2017-01-22,AGG ASLT STRANGLE/SUFFOCATE,Y,2017-01-22 00:03:00,RESIDENCE / HOME,2620 GWENDOLYN LN,78748.0,5.0,FR,1,N,2017-01-24 00:00:00,30.17504905,-97.83624964,2017,1,3,22
2017-01-22,AGG ASSAULT,N,2017-01-22 10:24:00,PARKING LOTS / GARAGE,8912 N LAMAR BLVD,78758.0,4.0,ED,1,O,2017-03-15 00:00:00,30.35850639,-97.69996937,2017,1,3,22
2017-01-22,AGG ASLT STRANGLE/SUFFOCATE,Y,2017-01-22 23:23:00,RESIDENCE / HOME,4501 E RIVERSIDE DR,78741.0,3.0,HE,4,C,2017-01-25 00:00:00,30.23258831,-97.72209348,2017,1,3,22
2017-01-22,AGG ASLT STRANGLE/SUFFOCATE,Y,2017-01-22 21:53:00,HOTEL / MOTEL / ETC.,6603 N IH 35 SVRD NB,78752.0,4.0,ID,1,C,2017-01-27 00:00:00,30.3268287,-97.70297087,2017,1,3,22
2017-01-23,AGG ASSAULT,N,2017-04-14 16:12:00,RESIDENCE / HOME,4700 E RIVERSIDE DR,78741.0,3.0,HE,3,N,2017-08-10 00:00:00,30.23289806,-97.71880686,2017,1,4,23
2017-01-23,AGG ASSAULT FAM/DATE VIOLENCE,Y,2017-01-23 20:00:00,RESIDENCE / HOME,6934 E BEN WHITE BLVD SVRD WB,78741.0,3.0,HE,5,C,2017-02-08 00:00:00,30.21566282,-97.70355009,2017,1,4,23
2017-01-23,AGG ASSAULT,N,2017-01-23 08:30:00,HOTEL / MOTEL / ETC.,2700 S IH 35 SVRD SB,78704.0,9.0,DA,2,N,2017-02-21 00:00:00,30.22962946,-97.74447421,2017,1,4,23
2017-01-24,AGG ROBBERY/DEADLY WEAPON,N,2017-01-24 04:49:00,RESIDENCE / HOME,1215 W SLAUGHTER LN,78748.0,5.0,FR,2,C,2017-03-16 00:00:00,30.17309049,-97.81433268,2017,1,4,24
2017-01-24,AGG ASSAULT,N,2017-01-24 17:07:00,PARKING LOTS / GARAGE,907 THOMPSON ST,78702.0,1.0,CH,2,N,2017-05-01 00:00:00,30.27070373,-97.7088221,2017,1,4,24
2017-01-24,AGG ASSAULT FAM/DATE VIOLENCE,Y,2017-01-24 19:17:00,RESIDENCE / HOME,4411 AIRPORT BLVD,78722.0,9.0,BA,4,C,2017-01-24 00:00:00,30.30116648,-97.71338205,2017,1,4,24
2017-01-24,AGG ASLT STRANGLE/SUFFOCATE,Y,2017-01-24 04:20:00,OTHER / UNKNOWN,6911 N IH 35 SVRD NB,78752.0,4.0,ID,1,O,2017-01-30 00:00:00,30.32979046,-97.70496368,2017,1,4,24
2017-01-24,AGG ASSAULT,N,2017-01-24 15:30:00,PARK / PLAYGROUND,2205 S CONGRESS AVE,78704.0,9.0,HE,1,N,2017-02-01 00:00:00,30.24139619,-97.75241998,2017,1,4,24
2017-01-24,AGG ASLT ENHANC STRANGL/SUFFOC,Y,2017-01-24 05:11:00,RESIDENCE / HOME,6307 BLUFF SPRINGS RD,78744.0,2.0,FR,8,C,2017-01-24 00:00:00,30.19139271,-97.76555536,2017,1,4,24
2017-01-24,AGG ASLT STRANGLE/SUFFOCATE,Y,2017-01-24 03:44:00,RESIDENCE / HOME,212 W LOLA DR,78753.0,4.0,ED,1,C,2017-01-25 00:00:00,30.34797024,-97.70508987,2017,1,4,24
2017-01-25,AGG ROBBERY/DEADLY WEAPON,N,2017-01-25 22:15:00,RESIDENCE / HOME,2207 WICKERSHAM LN,78741.0,3.0,HE,4,N,2017-02-07 00:00:00,30.22899132,-97.72063244,2017,1,4,25
2017-01-25,AGG ASSAULT FAM/DATE VIOLENCE,Y,2017-01-25 17:23:00,RESIDENCE / HOME,3307 CHINA GROVE,78745.0,5.0,FR,1,C,2017-02-01 00:00:00,30.19995502,-97.83369033,2017,1,4,25
2017-01-25,AGG ROBBERY/DEADLY WEAPON,N,2017-01-25 22:30:00,STREETS / HWY / ROAD / ALLEY,900 W 9TH ST,78701.0,9.0,GE,1,N,2017-04-27 00:00:00,30.27373748,-97.75133669,2017,1,4,25
2017-01-25,AGG ROBBERY/DEADLY WEAPON,N,2017-01-30 20:05:00,RESIDENCE / HOME,3309 BLUMIE ST,78745.0,5.0,FR,1,C,2017-03-02 00:00:00,30.20304906,-97.83284402,2017,1,4,25
2017-01-25,AGG ASSAULT,N,2017-01-25 21:52:00,RESIDENCE / HOME,5935 CHERRY LOOP,78745.0,2.0,FR,4,N,2017-02-02 00:00:00,30.20712465,-97.78898728,2017,1,4,25
2017-01-25,AGG ASSAULT FAM/DATE VIOLENCE,Y,2017-01-25 18:53:00,RESIDENCE / HOME,1806 VICTORIA DR,78721.0,1.0,CH,4,C,2017-02-16 00:00:00,30.28435419,-97.68997518,2017,1,4,25
2017-01-25,AGG ASLT STRANGLE/SUFFOCATE,Y,2017-01-25 22:11:00,RESIDENCE / HOME,115 SANDRA MURAIDA WAY,78703.0,9.0,GE,1,C,2017-01-26 00:00:00,30.26785073,-97.7551094,2017,1,4,25
2017-01-25,AGG ASSAULT,N,2017-01-25 01:04:00,OTHER / UNKNOWN,8500 SHOAL CREEK BLVD,78757.0,7.0,BA,6,O,2017-02-14 00:00:00,30.37003781,-97.73811364,2017,1,4,25
2017-01-25,AGG ASLT STRANGLE/SUFFOCATE,Y,2017-01-25 18:09:00,RESIDENCE / HOME,8604 FURNESS DR,78753.0,4.0,ED,3,C,2017-01-25 00:00:00,30.34600164,-97.68706816,2017,1,4,25
2017-01-25,AGG ASSAULT,N,2017-01-25 13:24:00,STREETS / HWY / ROAD / ALLEY,700 RED RIVER ST,78701.0,9.0,GE,2,N,2017-02-23 00:00:00,30.26751257,-97.73686469,2017,1,4,25
2017-01-26,AGG ASSAULT,Y,2017-01-26 22:58:00,RESIDENCE / HOME,5213 PARK AT WOODLANDS DR,78724.0,1.0,CH,6,C,2017-02-10 00:00:00,30.27456309,-97.63234948,2017,1,4,26
2017-01-26,AGG ASLT STRANGLE/SUFFOCATE,Y,2017-01-26 01:30:00,STREETS / HWY / ROAD / ALLEY,6121 N IH 35 SVRD NB,78752.0,4.0,ID,1,C,2017-01-30 00:00:00,30.32368743,-97.70496507,2017,1,4,26
2017-01-26,AGG ASSAULT,N,2017-01-26 02:20:00,STREETS / HWY / ROAD / ALLEY,10200 RESEARCH BLVD NB,78759.0,10.0,AD,1,N,2017-01-27 00:00:00,30.39443803,-97.74637525,2017,1,4,26
2017-01-26,AGG ASLT STRANGLE/SUFFOCATE,Y,2017-01-26 00:08:00,RESIDENCE / HOME,12707 POND WOODS RD,78729.0,6.0,AD,5,C,2017-01-30 00:00:00,30.45803818,-97.78964438,2017,1,4,26
2017-01-26,AGG ROBBERY/DEADLY WEAPON,N,2017-01-26 07:33:00,STREETS / HWY / ROAD / ALLEY,9111 S 1ST ST,78748.0,5.0,FR,2,C,2017-03-16 00:00:00,30.17145549,-97.80018837,2017,1,4,26
2017-01-26,AGG ROBBERY/DEADLY WEAPON,N,2017-01-26 21:40:00,PARKING LOTS / GARAGE,8312 N IH 35 SVRD SB,78753.0,4.0,ED,1,N,2017-01-31 00:00:00,30.34664576,-97.69657342,2017,1,4,26
2017-01-26,AGG ASLT STRANGLE/SUFFOCATE,Y,2017-01-26 01:43:00,RESIDENCE / HOME,11511 METRIC BLVD,78758.0,7.0,ED,4,C,2017-01-26 00:00:00,30.39472708,-97.70618849,2017,1,4,26
2017-01-27,RAPE,Y,2017-01-27 04:52:00,RESIDENCE / HOME,4600 BLOCK SARA DR,78721.0,3.0,CH,5,O,2017-03-15 00:00:00,,,2017,1,4,27
2017-01-27,AGG ASSAULT FAM/DATE VIOLENCE,Y,2017-01-27 22:50:00,RESIDENCE / HOME,1700 TERI RD,78744.0,2.0,FR,5,C,2017-02-07 00:00:00,30.20524259,-97.75566571,2017,1,4,27
2017-01-27,AGG ASSAULT,N,2017-01-27 19:32:00,CAMP / CAMPGROUND,6607 S IH 35 SVRD NB,78744.0,2.0,FR,8,N,2017-02-07 00:00:00,30.18875113,-97.76892127,2017,1,4,27
2017-01-28,AGG ROBBERY/DEADLY WEAPON,N,2017-01-28 19:50:00,PARKING LOTS / GARAGE,4501 E RIVERSIDE DR,78741.0,3.0,HE,4,N,2017-03-01 00:00:00,30.23258831,-97.72209348,2017,1,4,28
2017-01-28,AGG ROBBERY/DEADLY WEAPON,N,2017-01-28 18:55:00,PARKING LOTS / GARAGE,1845 BURTON DR,78741.0,3.0,HE,2,N,2017-03-06 00:00:00,30.2344291,-97.72969939,2017,1,4,28
2017-01-28,AGG ASSAULT FAM/DATE VIOLENCE,Y,2017-01-28 22:58:00,RESIDENCE / HOME,434 BASTROP HWY SB,78741.0,3.0,HE,5,O,2017-02-01 00:00:00,30.23569493,-97.68891876,2017,1,4,28
2017-01-28,AGG ASSAULT,N,2017-01-28 16:54:00,RESIDENCE / HOME,1009 W 26TH ST,78705.0,9.0,BA,3,N,2017-02-03 00:00:00,30.29058845,-97.74818253,2017,1,4,28
2017-01-29,AGG ASSAULT FAM/DATE VIOLENCE,Y,2017-01-29 03:35:00,RESIDENCE / HOME,2800 S LAKELINE BLVD,78613.0,6.0,AD,6,C,2017-01-29 00:00:00,30.47571756,-97.81084908,2017,1,4,29
2017-01-29,RAPE,N,2017-01-29 02:13:00,RESIDENCE / HOME,900 BLOCK E 32ND ST,78705.0,9.0,BA,1,O,2017-09-26 00:00:00,,,2017,1,4,29
2017-01-29,AGG ASSAULT FAM/DATE VIOLENCE,Y,2017-01-29 17:45:00,STREETS / HWY / ROAD / ALLEY,707 BEDFORD ST,78702.0,1.0,CH,2,C,2017-02-01 00:00:00,30.27039387,-97.70712264,2017,1,4,29
2017-01-29,AGG ASSAULT,N,2017-01-29 21:14:00,FIELD / WOODS,7114 N IH 35 SVRD SB,78752.0,4.0,ID,8,C,2017-01-30 00:00:00,30.33277823,-97.70500594,2017,1,4,29
2017-01-29,AGG ROBBERY/DEADLY WEAPON,N,2017-01-29 23:59:00,PARKING LOTS / GARAGE,1622 RUTLAND DR,78758.0,4.0,ED,2,N,2017-05-24 00:00:00,30.3726965,-97.7116957,2017,1,4,29
2017-01-29,RAPE,Y,2017-01-29 22:49:00,PARKING LOTS / GARAGE,3400 BLOCK W WILLIAM CANNON DR,78745.0,5.0,FR,1,O,2017-02-28 00:00:00,,,2017,1,4,29
2017-01-29,AGG ASSAULT FAM/DATE VIOLENCE,Y,2017-01-29 17:50:00,STREETS / HWY / ROAD / ALLEY,1300 RADCLIFF DR,78752.0,4.0,ID,1,N,2017-03-02 00:00:00,30.32795059,-97.69252196,2017,1,4,29
2017-01-29,RAPE,N,2017-01-29 00:37:00,RESIDENCE / HOME,1600 BLOCK COLONY CREEK DR,78758.0,4.0,ED,2,O,2017-02-23 00:00:00,,,2017,1,4,29
2017-01-29,AGG ASLT STRANGLE/SUFFOCATE,Y,2017-01-29 23:52:00,RESIDENCE / HOME,3603 WILSON ST,78704.0,3.0,DA,2,C,2017-01-30 00:00:00,30.22881721,-97.76368621,2017,1,4,29
2017-01-29,AGG ASSAULT FAM/DATE VIOLENCE,Y,2017-01-29 19:16:00,PARKING LOTS / GARAGE,500 E ST JOHNS AVE,78752.0,4.0,ID,8,N,2017-02-01 00:00:00,30.33449602,-97.70642402,2017,1,4,29
2017-01-29,AGG ASLT STRANGLE/SUFFOCATE,Y,2017-01-29 22:30:00,RESIDENCE / HOME,1137 GUNTER ST,78721.0,1.0,CH,4,C,2017-02-21 00:00:00,30.26922352,-97.69513602,2017,1,4,29
2017-01-29,AGG ASLT STRANGLE/SUFFOCATE,Y,2017-01-29 14:04:00,STREETS / HWY / ROAD / ALLEY,1100 EDGEWOOD AVE,78722.0,9.0,CH,3,O,2017-02-07 00:00:00,30.29084288,-97.72179784,2017,1,4,29
2017-01-29,AGG ASSAULT,N,2017-01-29 23:37:00,RESIDENCE / HOME,3706 GOODWIN AVE,78721.0,1.0,CH,4,N,2017-04-07 00:00:00,30.26846273,-97.69545466,2017,1,4,29
2017-01-29,RAPE,N,2017-01-29 11:53:00,RESIDENCE / HOME,4000 BLOCK VICTORY DR,78704.0,5.0,DA,4,N,2017-01-31 00:00:00,,,2017,1,4,29
2017-01-29,AGG ASLT STRANGLE/SUFFOCATE,Y,2017-01-29 12:05:00,RESIDENCE / HOME,5623 WOODROW AVE,78756.0,7.0,ID,7,O,2017-02-07 00:00:00,30.32841261,-97.73261644,2017,1,4,29
2017-01-30,AGG ASSAULT,N,2017-01-30 19:59:00,INDUSTRIAL SITE,12201 DORSETT RD,78727.0,7.0,AD,3,C,2017-01-30 00:00:00,30.42099047,-97.7281827,2017,1,5,30
2017-01-30,AGG ASLT STRANGLE/SUFFOCATE,Y,2017-01-30 19:19:00,RESIDENCE / HOME,2302 E WILLIAM CANNON DR,78744.0,2.0,FR,8,C,2017-01-30 00:00:00,30.18669219,-97.75814874,2017,1,5,30
2017-01-30,AGG ASSAULT,N,2017-01-30 20:24:00,RESIDENCE / HOME,5900 TRACY LYNN LN,78721.0,3.0,CH,5,C,2018-02-05 00:00:00,30.25579562,-97.68697108,2017,1,5,30
2017-01-30,AGG ASSAULT FAM/DATE VIOLENCE,Y,2017-01-30 06:33:00,RESIDENCE / HOME,2124 BURTON DR,78741.0,3.0,HE,2,C,2017-01-30 00:00:00,30.23178517,-97.73358414,2017,1,5,30
2017-01-30,AGG ROBBERY/DEADLY WEAPON,N,2017-01-30 17:08:00,RESIDENCE / HOME,4501 E RIVERSIDE DR,78741.0,3.0,HE,4,N,2017-05-25 00:00:00,30.23258831,-97.72209348,2017,1,5,30
2017-01-31,AGG ASLT STRANGLE/SUFFOCATE,Y,2017-02-01 00:53:00,PARKING LOTS / GARAGE,2400 WICKERSHAM LN,78741.0,3.0,HE,4,C,2017-02-01 00:00:00,30.22764855,-97.72330072,2017,1,5,31
2017-01-31,AGG ASSAULT FAM/DATE VIOLENCE,Y,2017-01-31 15:15:00,RESIDENCE / HOME,114 METEOR DR,78745.0,2.0,FR,3,O,2017-02-02 00:00:00,30.19083532,-97.78155832,2017,1,5,31
2017-01-31,AGG ASLT W/MOTOR VEH FAM/DAT V,Y,2017-01-31 22:51:00,RESTAURANTS,1500 FARO DR,78741.0,3.0,HE,3,O,2017-02-02 00:00:00,30.23433705,-97.71398825,2017,1,5,31
2017-01-31,AGG ASLT STRANGLE/SUFFOCATE,Y,2017-01-31 23:13:00,RESIDENCE / HOME,1300 CROSSING PL,78741.0,3.0,HE,3,O,2017-02-03 00:00:00,30.23783535,-97.71317433,2017,1,5,31
2017-01-31,AGG ASSAULT,N,2017-01-31 22:00:00,STREETS / HWY / ROAD / ALLEY,8200 BLOCK S 1ST ST,78748.0,2.0,FR,3,N,2017-04-27 00:00:00,30.18027592,-97.79548097,2017,1,5,31
2017-01-31,AGG ASSAULT,N,2017-01-31 06:20:00,RESIDENCE / HOME,9121 NORTH PLZ,78753.0,4.0,ED,3,C,2017-01-31 00:00:00,30.35393862,-97.68583874,2017,1,5,31
2017-01-31,AGG ASLT STRANGLE/SUFFOCATE,Y,2017-02-07 22:54:00,STREETS / HWY / ROAD / ALLEY,1919 S PLEASANT VALLEY RD,78741.0,3.0,HE,3,N,2017-02-08 00:00:00,30.23402135,-97.72209908,2017,1,5,31
2017-01-31,AGG ASSAULT,N,2017-01-31 02:57:00,HOTEL / MOTEL / ETC.,2700 GRACY FARMS LN,78758.0,7.0,AD,2,C,2017-01-31 00:00:00,30.4067171,-97.71296949,2017,1,5,31
2017-02-01,AGG ROBBERY/DEADLY WEAPON,N,2017-02-01 23:00:00,PARKING LOTS / GARAGE,1124 RUTLAND DR,78758.0,4.0,ED,1,,,30.36871033,-97.70372535,2017,2,5,1
2017-02-01,AGG ASSAULT FAM/DATE VIOLENCE,Y,2017-02-01 16:23:00,RESIDENCE / HOME,10204 DOC HOLLIDAY TRL,78753.0,4.0,ED,1,C,2017-02-01 00:00:00,30.36794991,-97.68614557,2017,2,5,1
2017-02-01,AGG ASSAULT WITH MOTOR VEH,N,2017-02-01 14:18:00,RESIDENCE / HOME,1006 BANISTER LN,78704.0,3.0,DA,2,C,2017-02-01 00:00:00,30.22957415,-97.77443153,2017,2,5,1
2017-02-01,RAPE,Y,2017-03-20 02:24:00,RESIDENCE / HOME,6900 BLOCK GRANGER DR,78744.0,2.0,FR,8,O,2017-03-27 00:00:00,,,2017,2,5,1
2017-02-02,AGG ASSAULT,N,2017-02-02 17:04:00,RESIDENCE / HOME,5321 DOWNS DR,78721.0,1.0,CH,5,N,2017-03-06 00:00:00,30.27893227,-97.67848738,2017,2,5,2
2017-02-02,AGG ROBBERY/DEADLY WEAPON,N,2017-02-02 19:34:00,PARKING LOTS / GARAGE,2425 E RIVERSIDE DR,78741.0,3.0,HE,2,,,30.23532226,-97.72493362,2017,2,5,2
2017-02-02,AGG ROBBERY/DEADLY WEAPON,N,2017-02-02 03:41:00,RESTAURANTS,13450 N US 183 HWY SVRD SB,78750.0,6.0,AD,6,N,2017-03-07 00:00:00,30.44751497,-97.7908713,2017,2,5,2
2017-02-02,AGG ASSAULT FAM/DATE VIOLENCE,Y,2017-02-02 12:48:00,RESIDENCE / HOME,4801 CARSONHILL DR,78723.0,1.0,CH,4,N,2017-02-14 00:00:00,30.28890177,-97.67567143,2017,2,5,2
2017-02-02,AGG ROBBERY/DEADLY WEAPON,N,2017-02-02 19:11:00,PARKING LOTS / GARAGE,2400 WICKERSHAM LN,78741.0,3.0,HE,4,C,2017-03-09 00:00:00,30.22764855,-97.72330072,2017,2,5,2
2017-02-02,AGG ASSAULT,N,2017-02-02 19:50:00,PARKING LOTS / GARAGE,9715 N FM 620 RD,78726.0,6.0,AD,8,N,2017-02-06 00:00:00,30.43679351,-97.83820902,2017,2,5,2
2017-02-02,AGG ASLT STRANGLE/SUFFOCATE,Y,2017-02-02 01:22:00,RESIDENCE / HOME,5413 MANCHACA RD,78745.0,5.0,DA,3,C,2017-02-02 00:00:00,30.21674422,-97.79600805,2017,2,5,2
2017-02-02,AGG ROBBERY/DEADLY WEAPON,N,2017-02-03 00:04:00,PARKING LOTS / GARAGE,2425 E RIVERSIDE DR,78741.0,3.0,HE,2,O,2017-05-22 00:00:00,30.23532226,-97.72493362,2017,2,5,2
2017-02-02,AGG ROBBERY/DEADLY WEAPON,N,2017-02-02 20:09:00,PARKING LOTS / GARAGE,4320 S CONGRESS AVE,78745.0,3.0,DA,3,O,2017-06-14 00:00:00,30.21903307,-97.76718941,2017,2,5,2
2017-02-02,AGG ASSAULT,N,2017-02-02 14:23:00,RESIDENCE / HOME,5007 LYNNWOOD ST,78756.0,7.0,BA,6,C,2017-02-02 00:00:00,30.32216616,-97.74006382,2017,2,5,2
2017-02-03,AGG ROBBERY/DEADLY WEAPON,N,2017-02-03 09:22:00,STREETS / HWY / ROAD / ALLEY,5608 MEADOW CREST,78744.0,2.0,FR,6,C,2017-02-07 00:00:00,30.19261625,-97.73418851,2017,2,5,3
2017-02-03,AGG ROBBERY/DEADLY WEAPON,N,2017-02-03 13:53:00,GAS / SERVICE STATIONS,13125 POND SPRINGS RD,78729.0,6.0,AD,4,N,2017-03-14 00:00:00,30.44384434,-97.7758332,2017,2,5,3
2017-02-03,AGG ASSAULT,N,2017-02-03 23:52:00,STREETS / HWY / ROAD / ALLEY,500 E 6TH ST,78701.0,9.0,GE,2,O,2017-03-07 00:00:00,30.26704868,-97.73799564,2017,2,5,3
2017-02-03,AGG ASSAULT,N,2017-02-03 05:09:00,PARKING LOTS / GARAGE,2237 E RIVERSIDE DR,78741.0,3.0,HE,2,C,2017-02-09 00:00:00,30.23820652,-97.72624311,2017,2,5,3
2017-02-03,AGG ASSAULT,N,2017-02-03 02:21:00,STREETS / HWY / ROAD / ALLEY,E 7TH ST / TRINITY ST,78701.0,9.0,GE,2,C,2017-05-30 00:00:00,30.26800598,-97.73895531,2017,2,5,3
2017-02-03,AGG ASSAULT,N,2017-02-03 12:04:00,RESIDENCE / HOME,8404 GARCREEK CIR,78724.0,1.0,CH,7,N,2017-03-16 00:00:00,30.29462672,-97.62919219,2017,2,5,3
2017-02-03,AGG ASLT STRANGLE/SUFFOCATE,Y,2017-02-04 03:37:00,RESIDENCE / HOME,1139 RICHARDINE AVE,78721.0,3.0,CH,5,C,2017-02-04 00:00:00,30.27083739,-97.68550676,2017,2,5,3
2017-02-04,AGG ASSAULT WITH MOTOR VEH,N,2017-02-04 12:16:00,STREETS / HWY / ROAD / ALLEY,1400 BLOCK S CONGRESS AVE,78704.0,9.0,DA,1,N,2017-04-03 00:00:00,,,2017,2,5,4
2017-02-04,AGG ASSAULT,N,2017-02-04 08:13:00,STREETS / HWY / ROAD / ALLEY,800 GUADALUPE ST,78701.0,9.0,GE,1,C,2017-02-05 00:00:00,30.27124359,-97.74577908,2017,2,5,4
2017-02-04,AGG ASLT STRANGLE/SUFFOCATE,Y,2017-02-04 00:07:00,RESIDENCE / HOME,739 W WILLIAM CANNON DR,78745.0,2.0,FR,3,N,2017-02-10 00:00:00,30.1974094,-97.78989537,2017,2,5,4
2017-02-04,AGG ASSAULT FAM/DATE VIOLENCE,Y,2017-02-04 18:28:00,RESIDENCE / HOME,10505 S IH 35 SVRD NB,78747.0,5.0,FR,7,C,2017-02-04 00:00:00,30.1457963,-97.79066483,2017,2,5,4
2017-02-04,AGG ASSAULT,N,2017-02-04 04:02:00,RESIDENCE / HOME,8309 GRAYLEDGE DR,78753.0,4.0,ED,3,N,2017-05-09 00:00:00,30.34581602,-97.69274003,2017,2,5,4
2017-02-04,AGG ASSAULT WITH MOTOR VEH,N,2017-02-05 13:34:00,STREETS / HWY / ROAD / ALLEY,4900 BLOCK E BEN WHITE BLVD WB,78741.0,3.0,HE,4,O,2017-02-24 00:00:00,30.21370362,-97.72218597,2017,2,5,4
2017-02-04,RAPE,N,2017-02-04 06:30:00,PARKING LOTS / GARAGE,700 BLOCK SAN JACINTO BLVD,78701.0,9.0,GE,2,N,2017-02-08 00:00:00,,,2017,2,5,4
2017-02-04,AGG ASLT STRANGLE/SUFFOCATE,Y,2017-02-04 11:43:00,RESIDENCE / HOME,6704 TAMPA CV,78723.0,1.0,ID,3,C,2017-03-27 00:00:00,30.31268048,-97.67018539,2017,2,5,4
2017-02-04,AGG RAPE OF A CHILD,N,2017-02-05 00:01:00,RESIDENCE / HOME,1600 BLOCK RUTLAND DR,78758.0,4.0,ED,2,N,2017-07-07 00:00:00,,,2017,2,5,4
2017-02-04,AGG ASSAULT,N,2017-02-04 01:17:00,BAR / NIGHT CLUB,7522 N IH 35 SVRD SB,78752.0,4.0,ID,8,C,2017-02-04 00:00:00,30.33847755,-97.70395965,2017,2,5,4
2017-02-04,AGG ASLT STRANGLE/SUFFOCATE,Y,2017-02-04 04:18:00,RESIDENCE / HOME,8926 N LAMAR BLVD,78758.0,4.0,ED,1,O,2017-03-09 00:00:00,30.35875709,-97.69972149,2017,2,5,4
2017-02-04,AGG ROBBERY/DEADLY WEAPON,N,2017-02-04 02:36:00,OTHER / UNKNOWN,1301 E 4TH ST,78702.0,3.0,CH,1,N,2017-03-07 00:00:00,30.26197719,-97.73027451,2017,2,5,4
2017-02-04,AGG ROBBERY/DEADLY WEAPON,N,2017-02-04 03:06:00,PARKING LOTS / GARAGE,6307 CAMERON RD,78723.0,1.0,ID,5,N,2017-03-08 00:00:00,30.32022465,-97.6951872,2017,2,5,4
2017-02-05,AGG ASSAULT WITH MOTOR VEH,N,2017-02-05 23:30:00,STREETS / HWY / ROAD / ALLEY,200 WEST AVE,78701.0,9.0,GE,1,N,2017-03-01 00:00:00,30.26660944,-97.75205963,2017,2,5,5
2017-02-05,AGG ASLT STRANGLE/SUFFOCATE,Y,2017-02-05 19:33:00,RESIDENCE / HOME,10601 TURNER DR,78753.0,4.0,ED,1,C,2017-02-05 00:00:00,30.37284714,-97.68635372,2017,2,5,5
2017-02-05,AGG ASLT ENHANC STRANGL/SUFFOC,Y,2017-02-05 21:57:00,RESIDENCE / HOME,2112 E WILLIAM CANNON DR,78744.0,2.0,FR,8,C,2017-02-06 00:00:00,30.18782573,-97.76131607,2017,2,5,5
2017-02-05,AGG ASSAULT FAM/DATE VIOLENCE,Y,2017-02-05 01:02:00,RESIDENCE / HOME,8807 REDFIELD LN,78758.0,4.0,ED,2,C,2017-02-13 00:00:00,30.3625914,-97.71181814,2017,2,5,5
2017-02-05,AGG ASSAULT FAM/DATE VIOLENCE,Y,2017-02-05 01:45:00,RESIDENCE / HOME,201 LAVACA ST,78701.0,9.0,GE,4,C,2017-02-05 00:00:00,30.26529387,-97.74628707,2017,2,5,5
2017-02-05,AGG ASSAULT,N,2017-02-05 03:00:00,PARKING LOTS / GARAGE,501 E BEN WHITE BLVD EB,78745.0,3.0,DA,3,N,2017-02-21 00:00:00,30.21992497,-97.758596,2017,2,5,5
2017-02-05,AGG ROBBERY/DEADLY WEAPON,N,2017-02-05 19:50:00,STREETS / HWY / ROAD / ALLEY,1600 BLOCK ROYAL CREST DR,78741.0,3.0,HE,2,N,2017-02-20 00:00:00,30.23958468,-97.73098897,2017,2,5,5
2017-02-05,AGG ASSAULT FAM/DATE VIOLENCE,Y,2017-02-05 21:30:00,RESIDENCE / HOME,11210 FM 2222 RD,78726.0,6.0,AD,8,O,2017-02-16 00:00:00,30.40000312,-97.85056416,2017,2,5,5
2017-02-05,MURDER,N,2017-02-05 02:57:00,STREETS / HWY / ROAD / ALLEY,9049 GALEWOOD DR,78758.0,4.0,ED,2,C,2017-02-08 00:00:00,30.36796982,-97.71444728,2017,2,5,5
2017-02-06,AGG ASLT STRANGLE/SUFFOCATE,Y,2017-02-06 10:12:00,STREETS / HWY / ROAD / ALLEY,5789 AIRPORT BLVD,78752.0,4.0,ID,8,C,2017-02-13 00:00:00,30.32269352,-97.71432245,2017,2,6,6
2017-02-06,AGG ROBBERY/DEADLY WEAPON,N,2017-02-06 15:24:00,RESIDENCE / HOME,1071 CLAYTON LN,78723.0,4.0,ID,5,C,2017-04-04 00:00:00,30.3185291,-97.7034222,2017,2,6,6
2017-02-06,AGG ASSAULT,N,2017-02-06 00:05:00,RESIDENCE / HOME,2400 WICKERSHAM LN,78741.0,3.0,HE,4,N,2017-04-04 00:00:00,30.22764855,-97.72330072,2017,2,6,6
2017-02-06,AGG ASLT W/MOTOR VEH FAM/DAT V,Y,2017-02-06 21:38:00,STREETS / HWY / ROAD / ALLEY,4709 LESLIE AVE,78721.0,1.0,CH,4,C,2017-02-06 00:00:00,30.28168975,-97.68348196,2017,2,6,6
2017-02-06,AGG ASSAULT ON PUBLIC SERVANT,N,2017-02-06 00:38:00,STREETS / HWY / ROAD / ALLEY,SPRINGDALE RD / E 51ST ST,78723.0,1.0,CH,4,C,2017-05-17 00:00:00,30.2935999,-97.67781769,2017,2,6,6
2017-02-06,AGG ASSAULT,N,2017-02-06 01:38:00,RESIDENCE / HOME,3524 GREYSTONE DR,78731.0,10.0,BA,8,N,2017-03-09 00:00:00,30.35851201,-97.75042152,2017,2,6,6
2017-02-06,AGG ASSAULT FAM/DATE VIOLENCE,Y,2017-02-06 18:09:00,STREETS / HWY / ROAD / ALLEY,N LAMAR BLVD / KRAMER LN,78758.0,4.0,ED,4,N,2017-02-16 00:00:00,30.37953888,-97.68768953,2017,2,6,6
2017-02-06,AGG ASSAULT,N,2017-02-06 16:15:00,STREETS / HWY / ROAD / ALLEY,W 6TH ST / RIO GRANDE ST,78701.0,9.0,GE,1,N,2017-03-08 00:00:00,30.26994412,-97.74953066,2017,2,6,6
2017-02-07,AGG ASLT STRANGLE/SUFFOCATE,Y,2017-02-07 18:29:00,RESIDENCE / HOME,6807 TRENDAL LN,78744.0,2.0,FR,8,C,2017-02-08 00:00:00,30.18171037,-97.7605608,2017,2,6,7
2017-02-07,AGG ASSAULT FAM/DATE VIOLENCE,Y,2017-02-07 18:24:00,RESIDENCE / HOME,10611 CAROVILLI DR,78748.0,5.0,FR,2,C,2017-02-09 00:00:00,30.15872078,-97.81603329,2017,2,6,7
2017-02-07,AGG ASLT STRANGLE/SUFFOCATE,Y,2017-02-07 20:05:00,RESIDENCE / HOME,4407 DOVE SPRINGS DR,78744.0,2.0,FR,5,N,2017-03-17 00:00:00,30.18743164,-97.75334857,2017,2,6,7
2017-02-07,AGG ASSAULT,N,2017-02-07 08:29:00,STREETS / HWY / ROAD / ALLEY,300 BLOCK E 6TH ST,78701.0,9.0,GE,2,C,2017-02-07 00:00:00,30.2676012,-97.74015438,2017,2,6,7
2017-02-07,AGG ROBBERY/DEADLY WEAPON,N,2017-02-07 03:05:00,RESIDENCE / HOME,1112 BERGER ST,78721.0,3.0,CH,5,N,2017-06-13 00:00:00,30.26972657,-97.6880531,2017,2,6,7
2017-02-07,AGG ROBBERY/DEADLY WEAPON,N,2017-02-07 01:54:00,STREETS / HWY / ROAD / ALLEY,BENNETT AVE / CAMINO LA COSTA,78752.0,4.0,ID,1,N,2017-06-13 00:00:00,30.32808553,-97.70229616,2017,2,6,7
2017-02-08,AGG ASSAULT,N,2017-02-08 11:26:00,RESIDENCE / HOME,11700 METRIC BLVD,78758.0,7.0,AD,2,N,2017-06-06 00:00:00,30.39761338,-97.70517069,2017,2,6,8
2017-02-08,AGG ASLT STRANGLE/SUFFOCATE,Y,2017-02-08 18:40:00,STREETS / HWY / ROAD / ALLEY,1400 E ANDERSON LN WB,78753.0,4.0,ID,2,C,2017-02-09 00:00:00,30.33368617,-97.68856962,2017,2,6,8
2017-02-08,AGG ASSAULT FAM/DATE VIOLENCE,Y,2017-02-08 22:35:00,RESIDENCE / HOME,1016 CAMINO LA COSTA,78752.0,4.0,ID,1,C,2017-02-16 00:00:00,30.32645272,-97.70140223,2017,2,6,8
2017-02-08,AGG ASSAULT,N,2017-02-08 21:04:00,STREETS / HWY / ROAD / ALLEY,OVERBROOK DR / OVERDALE RD,78723.0,1.0,ID,4,C,2017-02-10 00:00:00,30.30238576,-97.68212444,2017,2,6,8
2017-02-09,AGG ASSAULT FAM/DATE VIOLENCE,Y,2017-02-09 23:56:00,RESIDENCE / HOME,1817 PRAIRIE KNOLL CT,78758.0,7.0,ED,4,C,2017-02-10 00:00:00,30.39666594,-97.70255677,2017,2,6,9
2017-02-09,AGG ASSAULT,N,2017-02-09 19:41:00,FIELD / WOODS,2700 GRACY FARMS LN,78758.0,7.0,AD,2,N,2017-03-15 00:00:00,30.4067171,-97.71296949,2017,2,6,9
2017-02-09,AGG ROBBERY/DEADLY WEAPON,N,2017-02-09 05:48:00,STREETS / HWY / ROAD / ALLEY,2901 S CAPITAL OF TEXAS HWY NB,78746.0,8.0,DA,5,C,2017-02-15 00:00:00,30.25788603,-97.80700704,2017,2,6,9
2017-02-09,AGG ASSAULT FAM/DATE VIOLENCE,Y,2017-02-09 19:54:00,RESIDENCE / HOME,12345 LAMPLIGHT VILLAGE AVE,78758.0,7.0,AD,3,C,2017-02-09 00:00:00,30.41260065,-97.6958102,2017,2,6,9
2017-02-09,AGG ASSAULT,N,2017-02-09 01:42:00,OTHER / UNKNOWN,412 COMAL ST,78702.0,3.0,CH,1,N,2017-03-10 00:00:00,30.26190753,-97.7272538,2017,2,6,9
2017-02-10,AGG ASSAULT,N,2017-02-10 14:25:00,PARKING LOTS / GARAGE,1925 AIRPORT BLVD,78723.0,1.0,CH,4,N,2017-02-24 00:00:00,30.28324167,-97.7039463,2017,2,6,10
2017-02-10,AGG SEXUAL ASSAULT W OBJECT,N,2017-02-14 13:35:00,STREETS / HWY / ROAD / ALLEY,00 BLOCK IH 35 SVRD SB / E ANDERSON LN SVRD WB,78752.0,4.0,ID,8,N,2017-04-19 00:00:00,,,2017,2,6,10
2017-02-10,AGG ASLT STRANGLE/SUFFOCATE,Y,2017-02-10 03:09:00,STREETS / HWY / ROAD / ALLEY,MANOR RD / NORTHEAST DR,78723.0,1.0,ID,3,N,2017-02-15 00:00:00,30.30853134,-97.67077221,2017,2,6,10
2017-02-10,AGG ASLT STRANGLE/SUFFOCATE,Y,2017-02-10 00:38:00,RESIDENCE / HOME,9107 WAMPTON WAY,78749.0,8.0,DA,7,O,2017-02-14 00:00:00,30.20659839,-97.87596765,2017,2,6,10
2017-02-10,AGG ROBBERY/DEADLY WEAPON,N,2017-02-10 19:06:00,RESIDENCE / HOME,5137 MEADOW CREEK DR,78745.0,3.0,DA,3,C,2017-06-08 00:00:00,30.21376093,-97.78330874,2017,2,6,10
2017-02-10,AGG ASLT ENHANC STRANGL/SUFFOC,Y,2017-02-10 20:02:00,RESIDENCE / HOME,2317 CORTA ST,78702.0,3.0,CH,1,C,2017-02-11 00:00:00,30.25643936,-97.71805217,2017,2,6,10
2017-02-10,AGG ASLT STRANGLE/SUFFOCATE,Y,2017-02-10 16:45:00,RESIDENCE / HOME,12100 METRIC BLVD,78758.0,7.0,AD,2,C,2017-02-12 00:00:00,30.40362788,-97.70098336,2017,2,6,10
2017-02-10,AGG ASLT STRANGLE/SUFFOCATE,Y,2017-02-10 22:23:00,RESIDENCE / HOME,6834 E BEN WHITE BLVD SVRD WB,78741.0,3.0,HE,5,N,2017-03-01 00:00:00,30.21463479,-97.70384725,2017,2,6,10
2017-02-11,AGG ASSAULT,N,2017-02-11 05:51:00,BAR / NIGHT CLUB,1200 W HOWARD LN,78660.0,7.0,ED,6,N,2017-04-02 00:00:00,30.42418877,-97.66974492,2017,2,6,11
2017-02-11,AGG ASSAULT FAM/DATE VIOLENCE,Y,2017-02-12 21:28:00,RESIDENCE / HOME,2317 S PLEASANT VALLEY RD,78741.0,3.0,HE,4,O,2017-04-04 00:00:00,30.22935819,-97.72621907,2017,2,6,11
2017-02-11,AGG SEXUAL ASSAULT CHILD/OBJEC,Y,2017-02-12 22:00:00,RESIDENCE / HOME,5500 BLOCK APPLE ORCHARD LN,78744.0,2.0,FR,6,C,2017-05-30 00:00:00,,,2017,2,6,11
2017-02-11,AGG ASLT STRANGLE/SUFFOCATE,Y,2017-02-11 12:27:00,RESIDENCE / HOME,515 E SLAUGHTER LN,78744.0,5.0,FR,7,O,2017-02-22 00:00:00,30.16358782,-97.77878351,2017,2,6,11
2017-02-11,AGG ASSAULT,N,2017-02-11 15:09:00,RESIDENCE / HOME,1124 RUTLAND DR,78758.0,4.0,ED,1,C,2017-02-11 00:00:00,30.36871033,-97.70372535,2017,2,6,11
2017-02-11,AGG ASLT STRANGLE/SUFFOCATE,Y,2017-02-11 21:28:00,RESIDENCE / HOME,5000 SPRINGDALE RD,78723.0,1.0,CH,4,N,2017-03-16 00:00:00,30.29340659,-97.67817798,2017,2,6,11
2017-02-11,AGG ASLT STRANGLE/SUFFOCATE,Y,2017-02-11 16:26:00,RESIDENCE / HOME,2709 ZARAGOSA ST,78702.0,3.0,CH,2,C,2017-02-11 00:00:00,30.26360295,-97.70992763,2017,2,6,11
2017-02-11,AGG ASSAULT,N,2017-02-11 16:18:00,STREETS / HWY / ROAD / ALLEY,1500 E CESAR CHAVEZ ST,78702.0,3.0,CH,1,C,2017-02-22 00:00:00,30.25895787,-97.72935475,2017,2,6,11
2017-02-11,AGG ASSAULT,N,2017-02-11 10:55:00,STREETS / HWY / ROAD / ALLEY,2700 S LAMAR BLVD,78704.0,5.0,DA,1,N,2017-02-16 00:00:00,30.24539031,-97.78045246,2017,2,6,11
2017-02-11,AGG ASLT STRANGLE/SUFFOCATE,Y,2017-02-11 00:07:00,STREETS / HWY / ROAD / ALLEY,600 BLOCK W 7TH ST,78701.0,9.0,GE,1,C,2017-02-11 00:00:00,30.2709462,-97.74821421,2017,2,6,11
2017-02-12,AGG ROBBERY/DEADLY WEAPON,N,2017-02-12 16:55:00,STREETS / HWY / ROAD / ALLEY,MOONGLOW DR / ASTRO VIEW DR,78724.0,1.0,CH,6,,,30.2969457,-97.64450584,2017,2,6,12
2017-02-12,AGG ASLT ENHANC STRANGL/SUFFOC,Y,2017-02-12 02:26:00,RESIDENCE / HOME,2504 NEW YORK DR,78702.0,1.0,CH,2,C,2017-02-17 00:00:00,30.27394366,-97.71339206,2017,2,6,12
2017-02-12,AGG ASSAULT FAM/DATE VIOLENCE,Y,2017-02-12 09:35:00,STREETS / HWY / ROAD / ALLEY,3500 WEBBERVILLE RD,78702.0,1.0,CH,2,C,2017-02-12 00:00:00,30.27086096,-97.70602626,2017,2,6,12
2017-02-12,AGG ASSAULT,N,2017-02-16 22:23:00,STREETS / HWY / ROAD / ALLEY,W 29TH ST / HEMPHILL PARK,78705.0,9.0,BA,1,N,2017-07-24 00:00:00,30.29448166,-97.74090276,2017,2,6,12
2017-02-12,AGG ASSAULT,N,2017-02-12 20:01:00,RESIDENCE / HOME,306 W RUNDBERG LN,78753.0,4.0,ED,1,C,2017-02-12 00:00:00,30.36239452,-97.6945729,2017,2,6,12
2017-02-12,AGG ASLT STRANGLE/SUFFOCATE,Y,2017-02-12 02:02:00,RESIDENCE / HOME,5114 HEFLIN LN,78721.0,1.0,CH,4,C,2017-02-12 00:00:00,30.28297464,-97.67699449,2017,2,6,12
2017-02-12,AGG ASSAULT,N,2017-02-13 00:35:00,OTHER / UNKNOWN,10701 RESEARCH BLVD SVRD NB,78759.0,7.0,AD,1,C,2017-02-13 00:00:00,30.39849733,-97.74527325,2017,2,6,12
2017-02-13,AGG ASSAULT,N,2017-02-13 19:09:00,OTHER / UNKNOWN,2400 WICKERSHAM LN,78741.0,3.0,HE,4,C,2017-02-14 00:00:00,30.22764855,-97.72330072,2017,2,7,13
2017-02-13,AGG ASLT ENHANC STRANGL/SUFFOC,Y,2017-02-13 09:51:00,COMMERCIAL / OFFICE BUILDING,611 S CONGRESS AVE,78704.0,9.0,HE,1,C,2017-02-13 00:00:00,30.25534382,-97.7471366,2017,2,7,13
2017-02-13,AGG ASSAULT,N,2017-02-14 12:26:00,STREETS / HWY / ROAD / ALLEY,1030 NORWOOD PARK BLVD,78753.0,4.0,ID,2,N,2017-03-07 00:00:00,30.3391525,-97.69116892,2017,2,7,13
2017-02-13,AGG ASSAULT,N,2017-02-13 17:29:00,RESIDENCE / HOME,9300 NORTH PLZ,78753.0,4.0,ED,3,N,2017-03-09 00:00:00,30.35500615,-97.68519101,2017,2,7,13
2017-02-13,AGG ASSAULT FAM/DATE VIOLENCE,Y,2017-02-14 00:12:00,RESIDENCE / HOME,6916 RIFLE BND,78736.0,8.0,DA,6,C,2017-02-14 00:00:00,30.24236729,-97.88885863,2017,2,7,13
2017-02-13,AGG ASSAULT,N,2017-02-14 16:54:00,STREETS / HWY / ROAD / ALLEY,E STASSNEY LN / S CONGRESS AVE,78745.0,3.0,DA,3,N,2017-02-16 00:00:00,30.20493874,-97.7747991,2017,2,7,13
2017-02-14,AGG ASLT STRANGLE/SUFFOCATE,Y,2017-02-16 21:00:00,PARKING LOTS / GARAGE,12611 RESEARCH BLVD NB,78727.0,6.0,AD,3,O,2017-02-24 00:00:00,30.4313166,-97.76316864,2017,2,7,14
2017-02-14,RAPE,Y,2017-03-02 01:26:00,RESIDENCE / HOME,5700 BLOCK S MOPAC EXPY SVRD NB,78749.0,8.0,DA,4,O,2017-03-09 00:00:00,,,2017,2,7,14
2017-02-14,AGG ASSAULT FAM/DATE VIOLENCE,Y,2017-02-15 00:58:00,RESIDENCE / HOME,9613 NIGHTJAR DR,78748.0,5.0,FR,1,O,2017-03-08 00:00:00,30.18168931,-97.83433378,2017,2,7,14
2017-02-14,AGG ASSAULT,N,2017-02-14 17:24:00,RESTAURANTS,5105 E STASSNEY LN,78744.0,2.0,FR,5,N,2017-03-02 00:00:00,30.19303309,-97.73968942,2017,2,7,14
2017-02-14,RAPE,N,2017-02-16 18:33:00,RESIDENCE / HOME,2800 BLOCK RIO GRANDE ST,78705.0,9.0,BA,3,O,2017-02-22 00:00:00,,,2017,2,7,14
2017-02-15,AGG ASSAULT WITH MOTOR VEH,N,2017-02-16 01:08:00,CONVENIENCE STORE,6518 ED BLUESTEIN BLVD SB,78723.0,1.0,CH,4,C,2017-02-16 00:00:00,30.30332175,-97.66163497,2017,2,7,15
2017-02-15,AGG SEXUAL ASSAULT W OBJECT,N,2017-02-16 00:12:00,HOTEL / MOTEL / ETC.,5500 BLOCK N IH 35 SVRD NB,78723.0,4.0,ID,5,N,2018-10-18 00:00:00,,,2017,2,7,15
2017-02-15,AGG ASSAULT WITH MOTOR VEH,N,2017-02-15 14:15:00,PARKING LOTS / GARAGE,2310 WICKERSHAM LN,78741.0,3.0,HE,4,O,2017-03-27 00:00:00,30.22896354,-97.72237201,2017,2,7,15
2017-02-15,AGG ASSAULT,N,2017-02-16 00:35:00,LIQUOR STORE,2915 E MARTIN LUTHER KING JR BLVD,78702.0,1.0,CH,3,N,2017-02-16 00:00:00,30.28177567,-97.70783339,2017,2,7,15
2017-02-15,AGG ASLT STRANGLE/SUFFOCATE,Y,2017-02-15 20:17:00,RESIDENCE / HOME,900 BLOCK THOMPSON ST,78702.0,1.0,CH,2,N,2017-03-15 00:00:00,,,2017,2,7,15
2017-02-16,RAPE,N,2017-02-16 17:10:00,RESIDENCE / HOME,8200 BLOCK SAM RAYBURN DR,78753.0,4.0,ED,1,N,2017-03-10 00:00:00,,,2017,2,7,16
2017-02-16,AGG ASSAULT,N,2017-02-16 17:50:00,RESIDENCE / HOME,8926 N LAMAR BLVD,78758.0,4.0,ED,1,O,2017-03-30 00:00:00,30.35875709,-97.69972149,2017,2,7,16
2017-02-17,AGG ROBBERY/DEADLY WEAPON,N,2017-02-17 15:14:00,PARKING LOTS / GARAGE,9316 N LAMAR BLVD,78758.0,4.0,ED,1,N,2017-02-27 00:00:00,30.36276408,-97.69796598,2017,2,7,17
2017-02-17,AGG ASLT STRANGLE/SUFFOCATE,Y,2017-02-17 22:11:00,RESIDENCE / HOME,7606 BLESSING AVE,78752.0,4.0,ID,1,N,2017-02-21 00:00:00,30.33372765,-97.6921831,2017,2,7,17
2017-02-17,AGG ROBBERY BY ASSAULT,N,2017-02-17 20:56:00,OTHER / UNKNOWN,1529 BARTON SPRINGS RD,78704.0,5.0,DA,1,C,2017-03-24 00:00:00,30.26141043,-97.76158945,2017,2,7,17
2017-02-17,AGG ASSAULT WITH MOTOR VEH,N,2017-02-17 00:07:00,STREETS / HWY / ROAD / ALLEY,N LAMAR BLVD / FERGUSON DR,78753.0,4.0,ED,1,O,2017-04-04 00:00:00,30.37768522,-97.68876182,2017,2,7,17
2017-02-17,AGG ASSAULT,N,2017-02-17 00:49:00,GAS / SERVICE STATIONS,2600 GUADALUPE ST,78705.0,9.0,BA,1,C,2017-02-17 00:00:00,30.29072945,-97.74181804,2017,2,7,17
2017-02-17,AGG ASSAULT FAM/DATE VIOLENCE,Y,2017-02-17 19:45:00,RESIDENCE / HOME,1117 EBERT AVE,78721.0,3.0,CH,5,C,2017-02-17 00:00:00,30.26879357,-97.68669083,2017,2,7,17
2017-02-17,AGG ROBBERY/DEADLY WEAPON,N,2017-02-17 16:02:00,OTHER / UNKNOWN,2439 E SH 71 SVRD WB,78617.0,2.0,HE,8,N,2017-02-23 00:00:00,30.21397261,-97.65951439,2017,2,7,17
2017-02-18,AGG ASLT STRANGLE/SUFFOCATE,Y,2017-02-23 21:59:00,RESIDENCE / HOME,100 BLOCK BLOCK SANDRA MURAIDA WAY,78703.0,9.0,GE,1,C,2017-03-27 00:00:00,,,2017,2,7,18
2017-02-18,AGG ASSAULT FAM/DATE VIOLENCE,Y,2017-02-18 03:36:00,PARKING LOTS / GARAGE,2207 WICKERSHAM LN,78741.0,3.0,HE,4,N,2017-02-22 00:00:00,30.22899132,-97.72063244,2017,2,7,18
2017-02-18,AGG ASLT STRANGLE/SUFFOCATE,Y,2017-02-18 03:51:00,RESIDENCE / HOME,8907 TRONEWOOD DR,78758.0,4.0,ED,2,C,2017-02-18 00:00:00,30.36348072,-97.71078854,2017,2,7,18
2017-02-18,RAPE,N,2017-02-21 20:02:00,RESIDENCE / HOME,BRAK00 BLOCK LN,,,,,N,2017-05-15 00:00:00,,,2017,2,7,18
2017-02-18,AGG ASSAULT WITH MOTOR VEH,N,2017-02-18 23:48:00,STREETS / HWY / ROAD / ALLEY,6809 ESTHER DR,78752.0,4.0,ID,8,C,2017-02-19 00:00:00,30.33169089,-97.71181121,2017,2,7,18
2017-02-18,AGG ASSAULT FAM/DATE VIOLENCE,Y,2017-02-18 14:13:00,STREETS / HWY / ROAD / ALLEY,539 W OLTORF ST,78704.0,3.0,DA,2,N,2017-03-07 00:00:00,30.24175172,-97.7591544,2017,2,7,18
2017-02-18,AGG RAPE OF A CHILD,N,2017-02-18 21:49:00,RESIDENCE / HOME,1800 BLOCK E STASSNEY LN,78744.0,2.0,FR,5,N,2017-05-31 00:00:00,,,2017,2,7,18
2017-02-18,AGG ROBBERY/DEADLY WEAPON,N,2017-02-18 17:24:00,DEPARTMENT / DISCOUNT STORE,10901 LAKELINE MALL DR,78717.0,6.0,AD,5,C,2017-02-21 00:00:00,30.47332237,-97.79565163,2017,2,7,18
2017-02-18,AGG ASSAULT,N,2017-02-18 22:14:00,PARKING LOTS / GARAGE,11701 METRIC BLVD,78758.0,7.0,ED,4,N,2017-03-31 00:00:00,30.39640062,-97.70517836,2017,2,7,18
2017-02-18,AGG ASLT STRANGLE/SUFFOCATE,N,2017-02-18 04:22:00,RESIDENCE / HOME,7117 WOOD HOLLOW DR,78731.0,10.0,BA,8,,,30.35446843,-97.75230576,2017,2,7,18
2017-02-18,AGG ASLT STRANGLE/SUFFOCATE,Y,2017-02-18 18:51:00,RESIDENCE / HOME,9617 GREAT HILLS TRL,78759.0,10.0,AD,7,C,2017-02-18 00:00:00,30.39443285,-97.75390414,2017,2,7,18
2017-02-19,AGG ROBBERY/DEADLY WEAPON,N,2017-02-19 17:33:00,RESIDENCE / HOME,7308 MEADOR AVE,78752.0,4.0,ID,1,C,2017-02-20 00:00:00,30.33103537,-97.69527206,2017,2,7,19
2017-02-19,AGG ROBBERY/DEADLY WEAPON,N,2017-02-19 21:04:00,PARKING LOTS / GARAGE,2011 IROQUOIS LN,78741.0,3.0,HE,2,C,2017-04-17 00:00:00,30.22764669,-97.73619763,2017,2,7,19
2017-02-19,AGG ASSAULT,N,2017-02-19 04:55:00,PARKING LOTS / GARAGE,6707 CAMERON RD,78752.0,1.0,ID,2,C,2017-02-22 00:00:00,30.32233701,-97.69398812,2017,2,7,19
2017-02-19,AGG ROBBERY/DEADLY WEAPON,N,2017-02-19 12:29:00,RESIDENCE / HOME,1508 SOUTHPORT DR,78704.0,5.0,DA,2,C,2017-04-10 00:00:00,30.2321832,-97.77975635,2017,2,7,19
2017-02-19,RAPE,N,2017-02-19 08:48:00,RESIDENCE / HOME,13000 BLOCK HYMEADOW DR,78729.0,6.0,AD,5,O,2017-03-27 00:00:00,,,2017,2,7,19
2017-02-19,AGG ASLT STRANGLE/SUFFOCATE,Y,2017-02-19 05:11:00,RESIDENCE / HOME,51 RAINEY ST,78701.0,9.0,GE,3,C,2017-02-21 00:00:00,30.25680566,-97.73918023,2017,2,7,19
2017-02-19,AGG SEXUAL ASSAULT CHILD/OBJEC,Y,2019-02-19 08:03:00,RESIDENCE / HOME,12500 BLOCK LA PAZ LN,78617.0,2.0,HE,7,C,2019-05-02 00:00:00,,,2017,2,7,19
2017-02-19,AGG ROBBERY/DEADLY WEAPON,N,2017-02-19 22:33:00,GAS / SERVICE STATIONS,1135 AIRPORT BLVD,78721.0,1.0,CH,4,C,2017-02-20 00:00:00,30.269543,-97.69635988,2017,2,7,19
2017-02-19,AGG ASSAULT FAM/DATE VIOLENCE,Y,2017-02-19 16:57:00,STREETS / HWY / ROAD / ALLEY,6815 COLONY LOOP DR,78724.0,1.0,CH,7,C,2017-02-24 00:00:00,30.29974044,-97.64032964,2017,2,7,19
2017-02-19,AGG ASLT STRANGLE/SUFFOCATE,Y,2017-02-19 22:57:00,RESIDENCE / HOME,9316 CARSON CREEK BLVD,78617.0,2.0,HE,8,N,2017-02-21 00:00:00,30.22523705,-97.67068354,2017,2,7,19
2017-02-19,AGG ROBBERY/DEADLY WEAPON,N,2017-02-19 20:08:00,PARKING LOTS / GARAGE,4089 MOUNT BONNELL RD,78731.0,10.0,BA,7,N,2017-03-21 00:00:00,30.32302272,-97.77324037,2017,2,7,19
2017-02-20,AGG ASLT STRANGLE/SUFFOCATE,Y,2017-02-20 09:16:00,RESIDENCE / HOME,5114 HEFLIN LN,78721.0,1.0,CH,4,C,2017-02-27 00:00:00,30.28297464,-97.67699449,2017,2,8,20
2017-02-20,AGG ASSAULT,N,2017-02-21 16:12:00,STREETS / HWY / ROAD / ALLEY,MILLRACE DR / LOYOLA LN,78724.0,1.0,CH,7,C,2017-04-20 00:00:00,30.30303569,-97.65715139,2017,2,8,20
2017-02-20,AGG ASSAULT FAM/DATE VIOLENCE,Y,2017-02-20 02:07:00,RESIDENCE / HOME,6204 MOUNTAIN SHADOWS DR,78735.0,8.0,DA,6,N,2017-11-16 00:00:00,30.25444417,-97.89480332,2017,2,8,20
2017-02-20,AGG ASSAULT,N,2017-02-20 17:49:00,PARKING LOTS / GARAGE,3603 SOUTHRIDGE DR,78704.0,3.0,DA,2,N,2017-03-13 00:00:00,30.23405088,-97.77742329,2017,2,8,20
2017-02-20,AGG ASLT STRANGLE/SUFFOCATE,Y,2017-02-20 12:14:00,RESIDENCE / HOME,7302 BUCKNELL DR,78723.0,1.0,ID,3,C,2017-03-27 00:00:00,30.32155785,-97.67318995,2017,2,8,20
2017-02-20,AGG ASLT STRANGLE/SUFFOCATE,Y,2017-02-20 23:56:00,RESIDENCE / HOME,8225 N FM 620 RD,78726.0,6.0,AD,8,C,2017-02-21 00:00:00,30.42004718,-97.84417065,2017,2,8,20
2017-02-21,AGG ROBBERY/DEADLY WEAPON,N,2017-02-21 03:38:00,GAS / SERVICE STATIONS,3112 E CESAR CHAVEZ ST,78702.0,3.0,CH,1,N,2017-03-01 00:00:00,30.25206413,-97.70906896,2017,2,8,21
2017-02-21,AGG ROBBERY/DEADLY WEAPON,N,2017-02-21 00:40:00,STREETS / HWY / ROAD / ALLEY,TERI RD / NUCKOLS CROSSING RD,78744.0,2.0,FR,6,C,2017-02-28 00:00:00,30.19499404,-97.73778776,2017,2,8,21
2017-02-21,AGG ROBBERY/DEADLY WEAPON,N,2017-02-21 01:40:00,GAS / SERVICE STATIONS,2222 E OLTORF ST,78741.0,3.0,HE,2,C,2017-02-23 00:00:00,30.23017696,-97.73118228,2017,2,8,21
2017-02-21,AGG ASLT STRANGLE/SUFFOCATE,Y,2017-02-21 02:36:00,RESIDENCE / HOME,901 RED RIVER ST,78701.0,9.0,GE,1,C,2017-03-08 00:00:00,30.26953097,-97.7357616,2017,2,8,21
2017-02-21,AGG ASSAULT,N,2017-02-21 01:02:00,RESIDENCE / HOME,1511 CAPE VERDE CV,,,,,,,,,2017,2,8,21
2017-02-21,AGG ASSAULT,N,2017-02-21 21:04:00,RESIDENCE / HOME,WENTWORTH DR / COLONY LOOP DR,78724.0,1.0,CH,7,N,2017-03-31 00:00:00,30.29590927,-97.62792965,2017,2,8,21
2017-02-21,AGG ASSAULT FAM/DATE VIOLENCE,Y,2017-02-21 23:07:00,RESIDENCE / HOME,2504 HUNTWICK DR,78741.0,3.0,HE,4,C,2017-02-21 00:00:00,30.22527133,-97.72757724,2017,2,8,21
2017-02-21,AGG ASLT STRANGLE/SUFFOCATE,Y,2017-02-21 08:37:00,HOTEL / MOTEL / ETC.,9420 N IH 35 SVRD SB,78753.0,4.0,ED,1,N,2017-03-15 00:00:00,30.35979391,-97.688358,2017,2,8,21
2017-02-21,AGG ASLT STRANGLE/SUFFOCATE,Y,2017-02-21 02:30:00,RESIDENCE / HOME,1781 SPYGLASS DR,78746.0,8.0,DA,4,O,2017-03-01 00:00:00,30.25836439,-97.79156238,2017,2,8,21
2017-02-21,AGG ASSAULT,N,2017-02-21 21:24:00,STREETS / HWY / ROAD / ALLEY,700 BLOCK E 7TH ST,78701.0,9.0,GE,2,C,2017-02-21 00:00:00,30.26744445,-97.73553891,2017,2,8,21
2017-02-22,AGG ROBBERY/DEADLY WEAPON,N,2017-02-22 22:06:00,STREETS / HWY / ROAD / ALLEY,OAK GROVE AVE / SOL WILSON AVE,78702.0,1.0,CH,2,N,2017-02-23 00:00:00,30.27534282,-97.70355304,2017,2,8,22
2017-02-22,AGG ASSAULT ON PUBLIC SERVANT,N,2017-02-23 16:07:00,STREETS / HWY / ROAD / ALLEY,7905 APPOMATTOX DR,78745.0,5.0,FR,1,O,2017-04-18 00:00:00,30.19582137,-97.81628241,2017,2,8,22
2017-02-22,AGG ASLT STRANGLE/SUFFOCATE,Y,2017-02-24 14:11:00,RESIDENCE / HOME,11701 METRIC BLVD,78758.0,7.0,ED,4,N,2017-02-28 00:00:00,30.39640062,-97.70517836,2017,2,8,22
2017-02-22,AGG ASSAULT,N,2017-02-22 04:18:00,PARKING LOTS / GARAGE,515 S PLEASANT VALLEY RD,78741.0,3.0,HE,3,,,30.24642671,-97.71421468,2017,2,8,22
2017-02-22,AGG ASLT ENHANC STRANGL/SUFFOC,Y,2017-02-22 14:43:00,RESIDENCE / HOME,1016 CAMINO LA COSTA,78752.0,4.0,ID,1,C,2017-02-22 00:00:00,30.32645272,-97.70140223,2017,2,8,22
2017-02-22,AGG ASLT STRANGLE/SUFFOCATE,Y,2017-02-22 22:22:00,RESIDENCE / HOME,3220 DUVAL RD,78759.0,7.0,AD,3,C,2017-02-25 00:00:00,30.41069234,-97.71678989,2017,2,8,22
2017-02-22,AGG ASLT STRANGLE/SUFFOCATE,Y,2017-02-23 10:50:00,RESIDENCE / HOME,7904 NATER LN,78747.0,2.0,FR,7,O,2017-02-24 00:00:00,30.15966417,-97.74937717,2017,2,8,22
2017-02-23,AGG ASSAULT,N,2017-02-23 22:25:00,RESIDENCE / HOME,1616 WEBBERVILLE RD,78721.0,1.0,CH,4,N,2017-03-27 00:00:00,30.28098932,-97.67900756,2017,2,8,23
2017-02-23,RAPE,N,2017-02-27 22:01:00,FIELD / WOODS,4800 BLOCK MANOR RD,78723.0,9.0,BA,4,C,2017-04-05 00:00:00,,,2017,2,8,23
2017-02-23,AGG ROBBERY/DEADLY WEAPON,N,2017-02-23 20:53:00,SPECIALTY  STORE (TV  FUR ETC.),9607 RESEARCH BLVD NB,78759.0,7.0,AD,1,N,2017-03-14 00:00:00,30.38772694,-97.74390948,2017,2,8,23
2017-02-23,MURDER,N,2018-05-03 09:26:00,STREETS / HWY / ROAD / ALLEY,5600 PURPLE SAGE DR,78724.0,1.0,CH,7,C,2018-05-08 00:00:00,30.30968426,-97.65469098,2017,2,8,23
2017-02-23,AGG ASSAULT,N,2017-02-23 22:25:00,PARKING LOTS / GARAGE,5506 ROSE HILL CIR,78745.0,5.0,DA,3,N,2017-03-10 00:00:00,30.21432975,-97.79421894,2017,2,8,23
2017-02-23,AGG ASSAULT,N,2017-02-23 22:31:00,STREETS / HWY / ROAD / ALLEY,810 E SLAUGHTER LN,78744.0,2.0,FR,7,N,2017-04-04 00:00:00,30.15957223,-97.77588295,2017,2,8,23
2017-02-23,AGG ASSAULT FAM/DATE VIOLENCE,Y,2017-02-23 19:54:00,RESIDENCE / HOME,1071 CLAYTON LN,78723.0,4.0,ID,5,C,2017-02-23 00:00:00,30.3185291,-97.7034222,2017,2,8,23
2017-02-24,AGG ASSAULT,N,2017-02-24 02:52:00,STREETS / HWY / ROAD / ALLEY,2000 W STASSNEY LN,78745.0,5.0,DA,4,,,30.21557575,-97.79769496,2017,2,8,24
2017-02-24,AGG ASSAULT,N,2017-02-24 22:24:00,TRANSPORTATION (AIR / BUS / TRAIN - TERMINALS),301 W BEN WHITE BLVD SVRD EB,78745.0,3.0,DA,3,N,2017-03-16 00:00:00,30.22410692,-97.76675373,2017,2,8,24
2017-02-24,AGG ASLT STRANGLE/SUFFOCATE,Y,2017-02-24 02:19:00,RESIDENCE / HOME,1881 GROVE BLVD,78741.0,3.0,HE,3,C,2017-02-24 00:00:00,30.22863192,-97.70615517,2017,2,8,24
2017-02-24,AGG ASSAULT,N,2017-02-24 17:44:00,RESIDENCE / HOME,4805 GRAY FOX DR,78759.0,6.0,AD,2,N,2017-03-02 00:00:00,30.41143529,-97.73875078,2017,2,8,24
2017-02-25,AGG ASSAULT,N,2017-02-25 19:54:00,RESIDENCE / HOME,3300 PARKER LN,78741.0,3.0,HE,2,N,2017-03-08 00:00:00,30.22253274,-97.7423905,2017,2,8,25
2017-02-25,RAPE,N,2017-02-25 10:12:00,RESIDENCE / HOME,1100 BLOCK GUNTER ST,78721.0,1.0,CH,4,O,2017-03-04 00:00:00,,,2017,2,8,25
2017-02-25,AGG ASSAULT,N,2017-02-25 21:02:00,STREETS / HWY / ROAD / ALLEY,WALLINGWOOD DR / S MOPAC EXPY SVRD NB,78746.0,8.0,DA,1,C,2017-02-25 00:00:00,30.26532309,-97.7823112,2017,2,8,25
2017-02-25,AGG ASSAULT,N,2017-02-25 22:57:00,GAS / SERVICE STATIONS,6518 ED BLUESTEIN BLVD SB,78723.0,1.0,CH,4,C,2017-02-26 00:00:00,30.30332175,-97.66163497,2017,2,8,25
2017-02-25,AGG ASSAULT,N,2017-02-25 00:01:00,STREETS / HWY / ROAD / ALLEY,300 E 6TH ST,78701.0,9.0,GE,2,C,2017-02-25 00:00:00,30.2676012,-97.74015438,2017,2,8,25
2017-02-25,AGG ROBBERY/DEADLY WEAPON,N,2017-02-25 22:05:00,RESIDENCE / HOME,104 W LOLA DR,78753.0,4.0,ED,1,C,2017-07-13 00:00:00,30.34726856,-97.7038659,2017,2,8,25
2017-02-25,AGG ASSAULT,N,2017-02-25 02:33:00,PARKING LOTS / GARAGE,13730 N FM 620 RD SB,78717.0,6.0,AD,5,N,2017-03-03 00:00:00,30.47675373,-97.77494682,2017,2,8,25
2017-02-25,AGG ASSAULT,N,2017-02-25 15:31:00,RESIDENCE / HOME,2506 MANOR RD,78722.0,9.0,CH,3,O,2017-02-28 00:00:00,30.28521907,-97.71549454,2017,2,8,25
2017-02-25,AGG ASLT STRANGLE/SUFFOCATE,Y,2017-02-25 00:30:00,RESIDENCE / HOME,5804 WOODROW AVE,78756.0,7.0,ID,7,C,2017-02-27 00:00:00,30.3303601,-97.73222153,2017,2,8,25
2017-02-25,AGG ASLT ENHANC STRANGL/SUFFOC,Y,2017-02-26 01:01:00,RESIDENCE / HOME,9807 N FM 620 RD,78726.0,6.0,AD,8,C,2017-02-28 00:00:00,30.43741621,-97.83741843,2017,2,8,25
2017-02-25,AGG ROBBERY/DEADLY WEAPON,N,2017-02-25 21:24:00,STREETS / HWY / ROAD / ALLEY,800 LYDIA ST,78702.0,1.0,CH,2,,,30.26615964,-97.72874544,2017,2,8,25
2017-02-26,AGG ASSAULT,N,2017-02-26 18:56:00,STREETS / HWY / ROAD / ALLEY,6000 N IH 35 SVRD SB,78752.0,4.0,ID,8,N,2017-03-01 00:00:00,30.3222052,-97.70752586,2017,2,8,26
2017-02-26,AGG ASLT STRANGLE/SUFFOCATE,Y,2017-02-26 00:09:00,RESIDENCE / HOME,1012 BIRD CREEK DR,78758.0,4.0,ED,1,C,2017-02-26 00:00:00,30.37212255,-97.69831609,2017,2,8,26
2017-02-26,RAPE,N,2017-03-01 23:10:00,HOTEL / MOTEL / ETC.,300 BLOCK E 4TH ST,78701.0,9.0,GE,2,N,2017-06-01 00:00:00,,,2017,2,8,26
2017-02-26,AGG ROBBERY/DEADLY WEAPON,N,2017-02-26 05:47:00,STREETS / HWY / ROAD / ALLEY,521 THOMPSON LN,78742.0,3.0,HE,5,O,2018-10-20 00:00:00,30.23714472,-97.68507484,2017,2,8,26
2017-02-27,AGG ASLT STRANGLE/SUFFOCATE,Y,2017-02-27 21:41:00,RESIDENCE / HOME,4501 E RIVERSIDE DR,78741.0,3.0,HE,4,C,2017-02-28 00:00:00,30.23258831,-97.72209348,2017,2,9,27
2017-02-27,AGG ASSAULT,N,2017-02-27 01:21:00,RESIDENCE / HOME,3309 CATALINA DR,78741.0,3.0,HE,2,N,2017-03-07 00:00:00,30.21949922,-97.73818385,2017,2,9,27
2017-02-27,AGG ASSAULT,N,2017-02-27 16:44:00,STREETS / HWY / ROAD / ALLEY,500 E 5TH ST,78701.0,9.0,GE,2,C,2017-03-08 00:00:00,30.26587546,-97.73846126,2017,2,9,27
2017-02-27,AGG ASSAULT,N,2017-02-27 07:53:00,STREETS / HWY / ROAD / ALLEY,E 12TH ST / CHICON ST,78702.0,1.0,CH,3,O,2017-04-25 00:00:00,30.27378531,-97.71991443,2017,2,9,27
2017-02-27,AGG ASLT STRANGLE/SUFFOCATE,Y,2017-02-27 18:39:00,RESIDENCE / HOME,1118 SPUR ST,78721.0,3.0,CH,5,C,2017-02-27 00:00:00,30.27076711,-97.68876289,2017,2,9,27
2017-02-27,AGG ASSAULT,N,2017-02-27 17:35:00,PARKING LOTS / GARAGE,707 CARPENTER AVE,78753.0,4.0,ED,1,N,2017-02-28 00:00:00,30.35776775,-97.69935841,2017,2,9,27
2017-02-27,AGG ASSAULT,N,2017-02-27 22:27:00,RESTAURANTS,5119 BURNET RD,78756.0,7.0,BA,6,N,2017-03-16 00:00:00,30.32334556,-97.73922369,2017,2,9,27
2017-02-28,AGG ASSAULT,N,2017-02-28 08:07:00,PARKING LOTS / GARAGE,3600 S IH 35 SVRD SB,78704.0,3.0,DA,2,N,2017-03-13 00:00:00,30.22235873,-97.74888756,2017,2,9,28
2017-02-28,AGG ASSAULT FAM/DATE VIOLENCE,Y,2017-03-01 00:27:00,RESIDENCE / HOME,8811 PINEY POINT DR,78729.0,6.0,AD,4,C,2017-03-01 00:00:00,30.44988835,-97.77687592,2017,2,9,28
2017-02-28,AGG ASSAULT,N,2017-03-01 00:37:00,RESIDENCE / HOME,11639 RIVER OAKS TRL,78753.0,1.0,ED,7,N,2017-03-31 00:00:00,30.37894172,-97.66536404,2017,2,9,28
2017-02-28,AGG ASSAULT,N,2017-02-28 23:59:00,STREETS / HWY / ROAD / ALLEY,5201 CAMERON RD,78723.0,4.0,ID,5,N,2017-03-14 00:00:00,30.30994366,-97.70844593,2017,2,9,28
2017-02-28,AGG ASSAULT,N,2017-02-28 01:16:00,STREETS / HWY / ROAD / ALLEY,500 BLOCK NECHES ST,78701.0,9.0,GE,2,C,2017-02-28 00:00:00,30.26633005,-97.73849973,2017,2,9,28
2017-02-28,AGG ASSAULT,N,2017-02-28 12:38:00,RESIDENCE / HOME,5603 MANOR RD,78723.0,1.0,ID,4,N,2017-03-08 00:00:00,30.30357658,-97.68198713,2017,2,9,28
2017-03-01,AGG ASSAULT,N,2017-03-01 16:56:00,GAS / SERVICE STATIONS,1919 S PLEASANT VALLEY RD,78741.0,3.0,HE,3,N,2017-05-09 00:00:00,30.23402135,-97.72209908,2017,3,9,1
2017-03-01,AGG ROBBERY/DEADLY WEAPON,N,2017-03-01 02:33:00,STREETS / HWY / ROAD / ALLEY,600 E 7TH ST,78701.0,9.0,GE,2,C,2017-05-17 00:00:00,30.26752585,-97.73656966,2017,3,9,1
2017-03-01,AGG ASLT STRANGLE/SUFFOCATE,Y,2017-03-20 02:32:00,RESIDENCE / HOME,6900 GRANGER DR,78744.0,2.0,FR,8,O,2017-03-27 00:00:00,30.17973468,-97.75709324,2017,3,9,1
2017-03-01,AGG ASLT STRANGLE/SUFFOCATE,Y,2017-03-01 05:18:00,RESIDENCE / HOME,3508 S 1ST ST,78704.0,3.0,DA,2,C,2017-03-01 00:00:00,30.23098818,-97.76702696,2017,3,9,1
2017-03-01,AGG ROBBERY/DEADLY WEAPON,N,2017-03-01 16:43:00,BANKS / SAVINGS & LOAN,2817 E CESAR CHAVEZ ST,78702.0,3.0,CH,1,C,2017-06-27 00:00:00,30.25246278,-97.71201707,2017,3,9,1
2017-03-01,AGG ASSAULT,N,2017-03-01 04:37:00,RESIDENCE / HOME,1521 REAGAN HILL DR,78752.0,4.0,ID,2,N,2017-03-03 00:00:00,30.32573466,-97.68909512,2017,3,9,1
2017-03-01,AGG ASSAULT,N,2017-03-01 20:44:00,GAMBLING FACILITY / CASINO / RACE TRACK,111 RAMBLE LN,78745.0,3.0,DA,3,,,30.20892777,-97.77347749,2017,3,9,1
2017-03-01,RAPE,Y,2017-10-10 17:19:00,RESIDENCE / HOME,2600 BLOCK WHELESS LN,78723.0,1.0,ID,4,O,2018-01-02 00:00:00,,,2017,3,9,1
2017-03-01,AGG ASSAULT FAM/DATE VIOLENCE,Y,2017-06-13 04:41:00,RESIDENCE / HOME,4017 VICTORY DR,78704.0,5.0,DA,4,O,2017-07-13 00:00:00,30.23350878,-97.78873562,2017,3,9,1
2017-03-01,AGG ROBBERY/DEADLY WEAPON,N,2017-03-01 18:29:00,RESIDENCE / HOME,7301 PROVIDENCE AVE,78752.0,4.0,ID,1,N,2017-04-10 00:00:00,30.330854,-97.69621552,2017,3,9,1
2017-03-01,AGG ROBBERY/DEADLY WEAPON,N,2017-03-01 22:12:00,RESTAURANTS,1923 E 7TH ST,78702.0,3.0,CH,1,C,2017-03-24 00:00:00,30.26203096,-97.72102469,2017,3,9,1
2017-03-02,AGG ASLT STRANGLE/SUFFOCATE,Y,2017-03-02 19:52:00,HOTEL / MOTEL / ETC.,5100 W US 290 HWY SVRD WB,78735.0,8.0,DA,5,C,2017-03-02 00:00:00,30.23800215,-97.82608234,2017,3,9,2
2017-03-02,AGG ASSAULT,N,2017-03-02 10:40:00,GOVERNMENT / PUBLIC BUILDING,719 E 6TH ST,78701.0,9.0,GE,2,N,2017-03-20 00:00:00,30.26576521,-97.7354637,2017,3,9,2
2017-03-02,AGG ASSAULT WITH MOTOR VEH,N,2017-03-02 19:38:00,PARKING LOTS / GARAGE,705 W 24TH ST,78705.0,9.0,BA,2,C,2017-04-17 00:00:00,30.28773841,-97.74555873,2017,3,9,2
2017-03-02,AGG ASLT STRANGLE/SUFFOCATE,Y,2017-03-02 22:02:00,RESIDENCE / HOME,8801 S IH 35 SVRD NB,78744.0,2.0,FR,7,C,2017-03-07 00:00:00,30.16833396,-97.78260193,2017,3,9,2
2017-03-02,AGG ASSAULT,N,2017-03-02 01:29:00,STREETS / HWY / ROAD / ALLEY,3213 GONZALES ST,78702.0,3.0,CH,2,N,2017-03-02 00:00:00,30.25847413,-97.70499148,2017,3,9,2
2017-03-02,AGG ASLT STRANGLE/SUFFOCATE,Y,2017-03-02 19:23:00,RESIDENCE / HOME,6600 ED BLUESTEIN BLVD SB,78723.0,1.0,CH,4,O,2017-03-13 00:00:00,30.30551917,-97.66162802,2017,3,9,2
2017-03-02,AGG ASSAULT,N,2017-03-02 17:23:00,PARKING LOTS / GARAGE,500 W WILLIAM CANNON DR,78745.0,2.0,FR,4,N,2017-04-05 00:00:00,30.1965442,-97.78511194,2017,3,9,2
2017-03-02,AGG ASSAULT,N,2017-03-02 13:28:00,HOTEL / MOTEL / ETC.,2707 S IH 35 SVRD NB,78741.0,3.0,HE,2,,,30.2290798,-97.74326956,2017,3,9,2
2017-03-02,AGG ASSAULT FAM/DATE VIOLENCE,Y,2017-03-02 23:25:00,STREETS / HWY / ROAD / ALLEY,5700 COUGAR DR,78745.0,2.0,FR,4,N,2017-03-23 00:00:00,30.20854531,-97.78546667,2017,3,9,2
2017-03-03,AGG ASSAULT,N,2017-03-03 05:33:00,RESIDENCE / HOME,7525 E US 290 HWY SVRD EB,78723.0,1.0,ID,3,N,2017-04-27 00:00:00,30.32382985,-97.67518807,2017,3,9,3
2017-03-03,AGG ROBBERY/DEADLY WEAPON,N,2017-03-04 14:21:00,STREETS / HWY / ROAD / ALLEY,2800 ROGGE LN,78723.0,1.0,ID,4,N,2017-03-08 00:00:00,30.30469036,-97.68144937,2017,3,9,3
2017-03-03,AGG ASSAULT FAM/DATE VIOLENCE,Y,2017-03-03 21:21:00,RESIDENCE / HOME,4900 MUELLER BLVD,78723.0,9.0,BA,4,N,2017-03-15 00:00:00,30.30349794,-97.70621861,2017,3,9,3
2017-03-03,AGG ASSAULT,N,2017-03-03 15:57:00,PARK / PLAYGROUND,E 10TH ST / RED RIVER ST,78701.0,1.0,GE,1,N,2017-04-20 00:00:00,30.27022719,-97.73578089,2017,3,9,3
2017-03-03,AGG ASSAULT FAM/DATE VIOLENCE,Y,2017-03-03 23:14:00,RESIDENCE / HOME,1515 WICKERSHAM LN,78741.0,3.0,HE,3,C,2017-03-04 00:00:00,30.23496305,-97.7183772,2017,3,9,3
2017-03-03,AGG ROBBERY/DEADLY WEAPON,N,2017-03-03 19:46:00,PARKING LOTS / GARAGE,8208 RESEARCH BLVD SVRD SB,78757.0,7.0,ID,7,,,30.35386342,-97.71620983,2017,3,9,3
2017-03-03,AGG ASSAULT,N,2017-03-03 20:07:00,RESIDENCE / HOME,4702 CYPRESS BND,78744.0,2.0,FR,6,N,2017-03-27 00:00:00,30.19871845,-97.73469242,2017,3,9,3
2017-03-03,AGG ASLT STRANGLE/SUFFOCATE,Y,2017-03-03 15:26:00,RESIDENCE / HOME,7201 WOOD HOLLOW DR,78731.0,10.0,BA,8,C,2017-03-10 00:00:00,30.35633266,-97.75091436,2017,3,9,3
2017-03-03,AGG ASSAULT,N,2017-03-03 21:53:00,STREETS / HWY / ROAD / ALLEY,6200 BLOCK FM 969 RD,78724.0,1.0,CH,6,C,2017-03-03 00:00:00,30.28531045,-97.66300185,2017,3,9,3
2017-03-04,AGG ASLT STRANGLE/SUFFOCATE,Y,2017-03-04 03:20:00,STREETS / HWY / ROAD / ALLEY,1000 SAN MARCOS ST,78702.0,1.0,CH,2,C,2017-03-10 00:00:00,30.26908233,-97.73140739,2017,3,9,4
2017-03-04,AGG ASSAULT,N,2017-03-05 00:42:00,GAS / SERVICE STATIONS,6214 E RIVERSIDE DR,78741.0,3.0,HE,3,,,30.22570611,-97.70390373,2017,3,9,4
2017-03-04,AGG ASLT STRANGLE/SUFFOCATE,Y,2017-03-04 06:05:00,RESIDENCE / HOME,3300 MANOR RD,78723.0,1.0,BA,4,C,2017-03-06 00:00:00,30.2872359,-97.70250644,2017,3,9,4
2017-03-04,AGG ASLT STRANGLE/SUFFOCATE,Y,2017-03-04 02:26:00,RESIDENCE / HOME,5417 S MOPAC EXPY SVRD NB,78749.0,8.0,DA,4,C,2017-03-04 00:00:00,30.23025919,-97.82406945,2017,3,9,4
2017-03-04,AGG ASLT STRANGLE/SUFFOCATE,Y,2017-03-04 04:02:00,PARKING LOTS / GARAGE,1000 E ANDERSON LN EB,78752.0,4.0,ID,2,O,2017-03-13 00:00:00,30.33082407,-97.68262707,2017,3,9,4
2017-03-04,AGG RAPE OF A CHILD,Y,2017-08-04 18:57:00,RESIDENCE / HOME,9000 BLOCK NORTHGATE BLVD,78758.0,4.0,ED,2,N,2018-02-01 00:00:00,,,2017,3,9,4
2017-03-04,RAPE,N,2017-03-04 03:16:00,RESIDENCE / HOME,2400 BLOCK TOWN LAKE CIR,78741.0,3.0,HE,2,O,2017-04-07 00:00:00,,,2017,3,9,4
2017-03-04,AGG ROBBERY/DEADLY WEAPON,N,2017-03-04 20:48:00,PARKING LOTS / GARAGE,1088 PARK PLZ,78753.0,4.0,ED,3,,,30.34887091,-97.6852326,2017,3,9,4
2017-03-04,AGG ROBBERY/DEADLY WEAPON,N,2017-03-04 18:12:00,STREETS / HWY / ROAD / ALLEY,1621 E CESAR CHAVEZ ST,78702.0,3.0,CH,1,N,2017-03-08 00:00:00,30.25759373,-97.72705659,2017,3,9,4
2017-03-05,AGG ASLT STRANGLE/SUFFOCATE,Y,2017-03-05 16:23:00,HOTEL / MOTEL / ETC.,3612 TUDOR BLVD,78759.0,7.0,AD,1,C,2017-03-05 00:00:00,30.38484371,-97.73747088,2017,3,9,5
2017-03-05,AGG ASSAULT FAM/DATE VIOLENCE,Y,2017-03-05 08:59:00,RESIDENCE / HOME,8201 BEAVER BROOK LN,78748.0,2.0,FR,3,C,2017-03-05 00:00:00,30.18044602,-97.79379556,2017,3,9,5
2017-03-05,RAPE,N,2017-03-05 01:29:00,OTHER / UNKNOWN,500 BLOCK BLOCK W 24TH ST,78705.0,9.0,BA,1,N,2017-04-19 00:00:00,,,2017,3,9,5
2017-03-05,AGG ASLT STRANGLE/SUFFOCATE,Y,2017-03-05 20:47:00,STREETS / HWY / ROAD / ALLEY,OLANDER ST / E 12TH ST,78702.0,1.0,CH,3,O,2017-03-14 00:00:00,30.27214311,-97.73017151,2017,3,9,5
2017-03-05,RAPE,N,2017-03-06 18:06:00,RESIDENCE / HOME,2400 BLOCK SAN GABRIEL ST,78705.0,9.0,BA,3,N,2017-08-02 00:00:00,,,2017,3,9,5
2017-03-05,AGG ASSAULT,N,2017-03-05 11:49:00,PARKING LOTS / GARAGE,2400 S CONGRESS AVE,78704.0,3.0,DA,2,C,2017-03-06 00:00:00,30.23829084,-97.75459354,2017,3,9,5
2017-03-06,AGG ASLT STRANGLE/SUFFOCATE,Y,2017-03-07 00:57:00,RESIDENCE / HOME,1104 TOYATH ST,78703.0,9.0,BA,2,C,2017-03-07 00:00:00,30.28204638,-97.76297273,2017,3,10,6
2017-03-06,AGG ASLT STRANGLE/SUFFOCATE,Y,2017-03-06 03:41:00,RESIDENCE / HOME,8000 W US 290 HWY,78736.0,8.0,DA,6,C,2017-03-15 00:00:00,30.23077116,-97.8895227,2017,3,10,6
2017-03-06,AGG ROBBERY/DEADLY WEAPON,N,2017-03-06 00:39:00,STREETS / HWY / ROAD / ALLEY,5400 FREIDRICH LN,78744.0,2.0,FR,5,N,2017-03-08 00:00:00,30.20006192,-97.75666834,2017,3,10,6
2017-03-06,AGG ASSAULT FAM/DATE VIOLENCE,Y,2017-03-06 14:30:00,RESIDENCE / HOME,4711 BANDERA RD,78721.0,1.0,CH,4,N,2017-03-20 00:00:00,30.28300412,-97.68200396,2017,3,10,6
2017-03-06,AGG ROBBERY/DEADLY WEAPON,N,2017-03-06 22:43:00,STREETS / HWY / ROAD / ALLEY,2504 DURWOOD ST,78704.0,3.0,DA,2,C,2017-05-07 00:00:00,30.23933421,-97.75915549,2017,3,10,6
2017-03-06,AGG ASSAULT,N,2017-03-06 18:38:00,HOTEL / MOTEL / ETC.,11901 PAVILION BLVD,78759.0,10.0,AD,7,O,2017-04-26 00:00:00,30.42460539,-97.75437566,2017,3,10,6
2017-03-07,AGG ASSAULT,N,2017-03-07 18:25:00,PARKING LOTS / GARAGE,1500 E PARMER LN,78753.0,7.0,ED,6,,,30.38978843,-97.65120925,2017,3,10,7
2017-03-07,AGG ASSAULT,N,2017-03-07 17:42:00,GROCERY / SUPERMARKET,8752 RESEARCH BLVD SVRD SB,78757.0,7.0,ID,7,N,2017-04-03 00:00:00,30.36504573,-97.71968391,2017,3,10,7
2017-03-07,AGG ASSAULT,N,2017-03-07 09:38:00,PARKING LOTS / GARAGE,2305 E 7TH ST,78702.0,3.0,CH,1,N,2017-06-13 00:00:00,30.26107328,-97.71668467,2017,3,10,7
2017-03-07,AGG ASLT STRANGLE/SUFFOCATE,Y,2017-03-07 10:23:00,STREETS / HWY / ROAD / ALLEY,BOLM RD / GARDNER RD,78721.0,3.0,CH,5,C,2017-03-08 00:00:00,30.25586095,-97.68507473,2017,3,10,7
2017-03-08,RAPE,Y,2017-03-08 20:47:00,RESIDENCE / HOME,700 BLOCK W WILLIAM CANNON DR,78745.0,2.0,FR,3,C,2017-03-09 00:00:00,,,2017,3,10,8
2017-03-08,AGG ROBBERY/DEADLY WEAPON,N,2017-03-08 22:05:00,TRANSPORTATION (AIR / BUS / TRAIN - TERMINALS),400 W WILLIAM CANNON DR,78745.0,2.0,FR,4,N,2017-03-21 00:00:00,30.19580856,-97.78504585,2017,3,10,8
2017-03-08,AGG ASLT STRANGLE/SUFFOCATE,Y,2017-03-08 13:47:00,RESIDENCE / HOME,1700 BURTON DR,78741.0,3.0,HE,2,O,2017-03-15 00:00:00,30.23770208,-97.72794502,2017,3,10,8
2017-03-08,RAPE,Y,2017-03-08 16:22:00,RESIDENCE / HOME,2900 BLOCK E 12TH ST,78702.0,1.0,CH,3,N,2017-04-18 00:00:00,,,2017,3,10,8
2017-03-08,AGG ASLT STRANGLE/SUFFOCATE,Y,2017-03-09 12:52:00,PARKING LOTS / GARAGE,1005 E BRAKER LN,78753.0,1.0,ED,7,O,2017-03-13 00:00:00,30.37490307,-97.67233064,2017,3,10,8
2017-03-08,AGG ASLT ENHANC STRANGL/SUFFOC,Y,2017-03-08 17:52:00,RESIDENCE / HOME,3603 SOUTHRIDGE DR,78704.0,3.0,DA,2,C,2017-03-20 00:00:00,30.23405088,-97.77742329,2017,3,10,8
2017-03-08,AGG ASSAULT,N,2017-03-08 20:28:00,STREETS / HWY / ROAD / ALLEY,1700 E 38TH ST,78722.0,9.0,CH,3,,,30.29110058,-97.71367113,2017,3,10,8
2017-03-08,AGG ROBBERY/DEADLY WEAPON,N,2017-03-08 22:46:00,GAS / SERVICE STATIONS,11100 N LAMAR BLVD,78758.0,4.0,ED,4,N,2017-05-05 00:00:00,30.38000532,-97.68790196,2017,3,10,8
2017-03-08,AGG ROBBERY/DEADLY WEAPON,N,2017-03-08 04:11:00,STREETS / HWY / ROAD / ALLEY,1400 BLOCK TINNIN FORD RD,78741.0,3.0,HE,2,C,2017-04-10 00:00:00,,,2017,3,10,8
2017-03-08,AGG ASSAULT FAM/DATE VIOLENCE,Y,2017-03-08 20:10:00,RESIDENCE / HOME,9920 NOCTURNE CV,78750.0,6.0,AD,8,C,2017-03-08 00:00:00,30.44370505,-97.80043429,2017,3,10,8
2017-03-09,AGG ASLT STRANGLE/SUFFOCATE,Y,2017-03-09 02:56:00,RESIDENCE / HOME,2215 POST RD,78704.0,9.0,HE,1,C,2017-03-09 00:00:00,30.24003446,-97.75158528,2017,3,10,9
2017-03-09,AGG ROBBERY/DEADLY WEAPON,N,2017-03-09 05:57:00,DRUG STORE / DR. OFFICE / HOSPITAL,1920 E RIVERSIDE DR,78741.0,3.0,HE,2,,,30.24250177,-97.72809745,2017,3,10,9
2017-03-09,AGG ASLT STRANGLE/SUFFOCATE,Y,2017-03-10 00:27:00,RESIDENCE / HOME,5902 TRACY LYNN LN,78721.0,3.0,CH,5,C,2017-03-16 00:00:00,30.25569241,-97.68676798,2017,3,10,9
2017-03-09,AGG ASLT STRANGLE/SUFFOCATE,Y,2017-03-09 01:41:00,RESIDENCE / HOME,1401 ST EDWARDS DR,78704.0,3.0,DA,2,C,2017-03-14 00:00:00,30.22826645,-97.74684498,2017,3,10,9
2017-03-09,AGG ASSAULT,N,2017-03-09 10:03:00,PARKING LOTS / GARAGE,2302 DURWOOD ST,78704.0,9.0,DA,1,N,2017-04-10 00:00:00,30.24193769,-97.7577335,2017,3,10,9
2017-03-10,AGG ASLT STRANGLE/SUFFOCATE,Y,2017-03-10 23:39:00,PARKING LOTS / GARAGE,2785 E 7TH ST,78702.0,3.0,CH,1,C,2017-03-10 00:00:00,30.2596268,-97.71023844,2017,3,10,10
2017-03-10,AGG ASSAULT,N,2017-03-10 12:05:00,CONVENIENCE STORE,5901 BURNET RD,78757.0,7.0,ID,7,N,2017-04-27 00:00:00,30.33492618,-97.73930547,2017,3,10,10
2017-03-10,MURDER,N,2017-03-10 19:53:00,STREETS / HWY / ROAD / ALLEY,1603 E 7TH ST,78702.0,3.0,CH,1,C,2017-05-05 00:00:00,30.26358801,-97.72590307,2017,3,10,10
2017-03-10,AGG ASSAULT,N,2017-03-10 09:02:00,GOVERNMENT / PUBLIC BUILDING,800 GUADALUPE ST,78701.0,9.0,GE,1,N,2017-03-24 00:00:00,30.27124359,-97.74577908,2017,3,10,10
2017-03-10,AGG ASSAULT WITH MOTOR VEH,Y,2017-03-10 02:54:00,PARKING LOTS / GARAGE,2425 E RIVERSIDE DR,78741.0,3.0,HE,2,N,2017-03-10 00:00:00,30.23532226,-97.72493362,2017,3,10,10
2017-03-10,RAPE,Y,2017-03-28 14:31:00,RESIDENCE / HOME,00 BLOCK TRINITY ST,78701.0,9.0,GE,3,N,2017-04-18 00:00:00,,,2017,3,10,10
2017-03-11,AGG ASSAULT FAM/DATE VIOLENCE,Y,2017-03-11 17:33:00,RESIDENCE / HOME,6855 E US 290 HWY SVRD EB,78723.0,1.0,ID,3,N,2017-03-29 00:00:00,30.32066659,-97.68767105,2017,3,10,11
2017-03-11,AGG ASSAULT,N,2017-03-11 19:53:00,PARKING LOTS / GARAGE,1601 ROYAL CREST DR,78741.0,3.0,HE,2,N,2017-06-28 00:00:00,30.23883442,-97.72979918,2017,3,10,11
2017-03-11,AGG ASSAULT,N,2017-03-11 20:43:00,RESIDENCE / HOME,5112 S 1ST ST,78745.0,3.0,DA,3,N,2017-03-17 00:00:00,30.21389561,-97.77806109,2017,3,10,11
2017-03-11,AGG ASSAULT,N,2017-03-12 01:35:00,STREETS / HWY / ROAD / ALLEY,9801 EASTWEND DR,78753.0,4.0,ED,1,N,2017-10-26 00:00:00,30.36598192,-97.69167724,2017,3,10,11
2017-03-11,AGG ROBBERY/DEADLY WEAPON,N,2017-03-12 00:17:00,PARKING LOTS / GARAGE,10300 GOLDEN MEADOW DR,78758.0,4.0,ED,2,C,2017-03-16 00:00:00,30.38041081,-97.71140349,2017,3,10,11
2017-03-11,AGG ASSAULT FAM/DATE VIOLENCE,Y,2017-03-11 08:27:00,RESIDENCE / HOME,1214 COTTON ST,78702.0,1.0,CH,2,C,2017-03-11 00:00:00,30.27156934,-97.72684089,2017,3,10,11
2017-03-11,AGG ROBBERY/DEADLY WEAPON,N,2017-03-11 03:04:00,STREETS / HWY / ROAD / ALLEY,1125 LEONA ST,78702.0,1.0,CH,2,N,2017-06-28 00:00:00,30.26809176,-97.72124725,2017,3,10,11
2017-03-11,AGG ASSAULT,N,2017-03-11 06:20:00,STREETS / HWY / ROAD / ALLEY,700 RED RIVER ST,78701.0,9.0,GE,2,C,2017-03-16 00:00:00,30.26751257,-97.73686469,2017,3,10,11
2017-03-11,AGG ROBBERY/DEADLY WEAPON,N,2017-03-11 20:38:00,STREETS / HWY / ROAD / ALLEY,7002 ONION CREEK DR,78744.0,2.0,FR,8,N,2017-04-13 00:00:00,30.171799,-97.74382035,2017,3,10,11
2017-03-11,AGG ROBBERY/DEADLY WEAPON,N,2017-03-11 23:35:00,BAR / NIGHT CLUB,417 E 6TH ST,78701.0,9.0,GE,2,N,2017-04-16 00:00:00,30.26666823,-97.7387663,2017,3,10,11
2017-03-11,AGG ASSAULT,N,2017-03-11 01:03:00,STREETS / HWY / ROAD / ALLEY,700 NECHES ST,78701.0,9.0,GE,2,N,2017-04-28 00:00:00,30.26781266,-97.7379656,2017,3,10,11
2017-03-11,AGG ASSAULT FAM/DATE VIOLENCE,Y,2017-03-11 17:20:00,RESIDENCE / HOME,6313 CRUMLEY LN,78741.0,3.0,HE,5,O,2017-03-21 00:00:00,30.24054761,-97.69230197,2017,3,10,11
2017-03-12,AGG ROBBERY/DEADLY WEAPON,N,2017-03-12 05:53:00,STREETS / HWY / ROAD / ALLEY,8548 N LAMAR BLVD,78758.0,4.0,ED,2,N,2017-04-03 00:00:00,30.354408,-97.70665872,2017,3,10,12
2017-03-12,AGG ASLT STRANGLE/SUFFOCATE,Y,2017-03-12 18:14:00,RESIDENCE / HOME,800 BLOCK AIRPORT BLVD,78721.0,3.0,CH,5,C,2017-04-06 00:00:00,,,2017,3,10,12
2017-03-12,AGG ASLT STRANGLE/SUFFOCATE,Y,2017-03-12 08:51:00,PARKING LOTS / GARAGE,12041 DESSAU RD,78754.0,1.0,ED,5,N,2017-04-10 00:00:00,30.38057808,-97.65216651,2017,3,10,12
2017-03-12,AGG ASLT STRANGLE/SUFFOCATE,Y,2017-03-28 14:41:00,RESIDENCE / HOME,85 TRINITY ST,78701.0,9.0,GE,3,C,2017-04-06 00:00:00,30.26144594,-97.74110545,2017,3,10,12
2017-03-12,AGG ASSAULT,N,2017-03-12 15:45:00,PARKING LOTS / GARAGE,7309 CAMERON RD,78752.0,4.0,ID,2,C,2017-03-12 00:00:00,30.32823802,-97.69018692,2017,3,10,12
2017-03-12,MURDER,Y,2017-03-12 18:43:00,RESIDENCE / HOME,916 BIRD CREEK DR,78758.0,4.0,ED,1,N,2017-03-13 00:00:00,30.37159208,-97.69712841,2017,3,10,12
2017-03-12,AGG ASLT STRANGLE/SUFFOCATE,Y,2017-03-12 01:56:00,RESIDENCE / HOME,8608 KEYNES LN,78747.0,2.0,FR,7,O,2017-03-24 00:00:00,30.15273602,-97.74678374,2017,3,10,12
2017-03-12,AGG ASLT STRANGLE/SUFFOCATE,Y,2017-03-12 20:48:00,STREETS / HWY / ROAD / ALLEY,6016 NELSON OAKS DR,78724.0,1.0,CH,6,O,2017-04-03 00:00:00,30.28422475,-97.62815257,2017,3,10,12
2017-03-12,AGG ASSAULT,N,2017-03-12 22:50:00,RESIDENCE / HOME,6600 BLOCK ED BLUESTEIN BLVD SB,78723.0,1.0,CH,4,C,2017-10-31 00:00:00,30.30551917,-97.66162802,2017,3,10,12
2017-03-12,AGG ASLT STRANGLE/SUFFOCATE,Y,2017-03-12 22:24:00,RESIDENCE / HOME,810 E SLAUGHTER LN,78744.0,2.0,FR,7,N,2017-03-24 00:00:00,30.15957223,-97.77588295,2017,3,10,12
2017-03-12,AGG ASSAULT,N,2017-03-12 05:08:00,PARKING LOTS / GARAGE,3621 W SLAUGHTER LN,78749.0,8.0,DA,8,N,2017-04-07 00:00:00,30.18444167,-97.85367793,2017,3,10,12
2017-03-13,AGG ROBBERY/DEADLY WEAPON,N,2017-03-13 08:05:00,PARKING LOTS / GARAGE,1071 CLAYTON LN,78723.0,4.0,ID,5,C,2017-04-19 00:00:00,30.3185291,-97.7034222,2017,3,11,13
2017-03-13,AGG ASSAULT,N,2017-03-14 12:05:00,STREETS / HWY / ROAD / ALLEY,5313 MANOR RD,78723.0,1.0,ID,4,N,2017-04-12 00:00:00,30.30054553,-97.68517346,2017,3,11,13
2017-03-13,AGG ASSAULT FAM/DATE VIOLENCE,Y,2017-03-13 02:19:00,RESIDENCE / HOME,1735 RUTLAND DR,78758.0,4.0,ED,2,N,2017-03-15 00:00:00,30.37699184,-97.71085251,2017,3,11,13
2017-03-13,RAPE,N,2017-03-13 15:02:00,RESIDENCE / HOME,8700 BLOCK CLEARBROOK TRL,78729.0,6.0,AD,4,N,2017-05-22 00:00:00,,,2017,3,11,13
2017-03-13,AGG ASLT STRANGLE/SUFFOCATE,Y,2017-03-13 03:48:00,RESIDENCE / HOME,6409 SPRINGDALE RD,78723.0,1.0,CH,4,C,2017-03-13 00:00:00,30.30714138,-97.66939998,2017,3,11,13
2017-03-13,AGG ASSAULT,N,2017-03-13 03:14:00,BAR / NIGHT CLUB,2237 E RIVERSIDE DR,78741.0,3.0,HE,2,N,2017-03-13 00:00:00,30.23820652,-97.72624311,2017,3,11,13
2017-03-13,AGG ASSAULT ON PUBLIC SERVANT,N,2017-03-13 08:20:00,PARKING LOTS / GARAGE,7100 N IH 35 SVRD SB,78752.0,4.0,ID,8,C,2017-04-13 00:00:00,30.3324806,-97.70524551,2017,3,11,13
2017-03-13,AGG ASSAULT,N,2017-03-13 12:54:00,STREETS / HWY / ROAD / ALLEY,500 E 7TH ST,78701.0,9.0,GE,2,C,2017-05-12 00:00:00,30.26797616,-97.737619,2017,3,11,13
2017-03-13,AGG ASSAULT FAM/DATE VIOLENCE,Y,2017-03-13 22:57:00,RESIDENCE / HOME,2124 BURTON DR,78741.0,3.0,HE,2,C,2017-03-13 00:00:00,30.23178517,-97.73358414,2017,3,11,13
2017-03-13,AGG ASSAULT,N,2017-03-13 18:38:00,STREETS / HWY / ROAD / ALLEY,3200 TAMARRON BLVD,78746.0,8.0,DA,5,N,2017-03-14 00:00:00,30.26156658,-97.80801646,2017,3,11,13
2017-03-14,AGG SEXUAL ASSAULT CHILD/OBJEC,Y,2018-04-17 13:26:00,RESIDENCE / HOME,9600 BLOCK MIDDLE FISKVILLE RD,78753.0,4.0,ED,7,C,2018-07-17 00:00:00,,,2017,3,11,14
2017-03-14,AGG ASSAULT,N,2017-03-14 15:59:00,RESIDENCE / HOME,6118 FAIRWAY ST,78741.0,3.0,HE,3,N,2017-05-01 00:00:00,30.22900387,-97.70310447,2017,3,11,14
2017-03-14,RAPE,N,2017-03-14 16:49:00,RESIDENCE / HOME,12800 BLOCK HARRISGLENN DR,78753.0,7.0,ED,6,C,2017-06-15 00:00:00,,,2017,3,11,14
2017-03-14,AGG ASLT STRANGLE/SUFFOCATE,Y,2017-03-14 17:37:00,RESIDENCE / HOME,2800 LYONS RD,78702.0,3.0,CH,2,O,2017-03-27 00:00:00,30.2640271,-97.7075398,2017,3,11,14
2017-03-14,AGG ASSAULT WITH MOTOR VEH,N,2017-03-14 09:31:00,PARKING LOTS / GARAGE,7404 MC NEIL DR,78729.0,6.0,AD,4,C,2017-03-14 00:00:00,30.43522721,-97.76837445,2017,3,11,14
2017-03-14,AGG ASSAULT,N,2017-03-14 16:02:00,RESIDENCE / HOME,1406 COOL SHADOW DR,78617.0,2.0,HE,8,C,2017-03-14 00:00:00,30.22328204,-97.66832727,2017,3,11,14
2017-03-14,AGG ASLT STRANGLE/SUFFOCATE,Y,2017-03-14 11:09:00,RESIDENCE / HOME,2322 E 2ND ST,78702.0,3.0,CH,1,C,2017-03-29 00:00:00,30.255934,-97.71768252,2017,3,11,14
2017-03-14,AGG ASSAULT,N,2017-03-14 18:26:00,STREETS / HWY / ROAD / ALLEY,9615 ABERDEEN WAY,78753.0,4.0,ED,7,O,2017-05-04 00:00:00,30.35610347,-97.67627764,2017,3,11,14
2017-03-15,AGG ROBBERY/DEADLY WEAPON,N,2017-03-15 03:11:00,STREETS / HWY / ROAD / ALLEY,DECKER LN / LOYOLA LN,78724.0,1.0,CH,6,C,2017-03-15 00:00:00,30.29122388,-97.62799126,2017,3,11,15
2017-03-15,AGG ASSAULT,N,2017-03-15 20:41:00,STREETS / HWY / ROAD / ALLEY,5205 E STASSNEY LN,78744.0,2.0,FR,6,O,2017-04-11 00:00:00,30.19301187,-97.73877816,2017,3,11,15
2017-03-15,AGG ASSAULT,N,2017-03-15 16:46:00,STREETS / HWY / ROAD / ALLEY,1800 BLOCK COLONY CREEK DR,78758.0,4.0,ED,2,N,2017-05-02 00:00:00,30.36954996,-97.71546061,2017,3,11,15
2017-03-15,AGG ASSAULT,N,2017-03-20 12:02:00,RESIDENCE / HOME,4700 E RIVERSIDE DR,78741.0,3.0,HE,3,N,2017-08-10 00:00:00,30.23289806,-97.71880686,2017,3,11,15
2017-03-15,AGG ROBBERY/DEADLY WEAPON,N,2017-03-15 05:19:00,STREETS / HWY / ROAD / ALLEY,1900 EVA ST,78704.0,9.0,DA,1,N,2017-04-13 00:00:00,30.24541888,-97.75277812,2017,3,11,15
2017-03-15,AGG ASLT STRANGLE/SUFFOCATE,Y,2017-03-15 06:36:00,RESIDENCE / HOME,4411 SPICEWOOD SPRINGS RD,78731.0,10.0,BA,8,C,2017-03-22 00:00:00,30.37292332,-97.75887896,2017,3,11,15
2017-03-15,AGG ASSAULT,N,2017-03-15 10:00:00,RESIDENCE / HOME,1601 MONTOPOLIS DR,78741.0,3.0,HE,5,N,2017-06-16 00:00:00,30.22771552,-97.70117271,2017,3,11,15
2017-03-15,AGG ASLT STRANGLE/SUFFOCATE,Y,2017-03-15 07:59:00,HOTEL / MOTEL / ETC.,700 SAN JACINTO BLVD,78701.0,9.0,GE,2,O,2017-03-15 00:00:00,30.26857033,-97.7402044,2017,3,11,15
2017-03-15,AGG ASSAULT,N,2017-03-15 01:50:00,STREETS / HWY / ROAD / ALLEY,5121 CAMERON RD,78723.0,4.0,ID,5,N,2017-03-16 00:00:00,30.30923263,-97.70918167,2017,3,11,15
2017-03-15,RAPE,Y,2018-03-18 19:07:00,RESIDENCE / HOME,1900 BLOCK WILLOW CREEK DR,78741.0,3.0,HE,2,N,2019-01-29 00:00:00,,,2017,3,11,15
2017-03-15,AGG ROBBERY/DEADLY WEAPON,N,2017-03-16 01:10:00,RESTAURANTS,719 W WILLIAM CANNON DR,78745.0,2.0,FR,3,N,2017-07-12 00:00:00,30.19666541,-97.78857884,2017,3,11,15
2017-03-16,RAPE,N,2020-05-17 10:50:00,HOTEL / MOTEL / ETC.,1900 BLOCK SIMOND AVE,78723.0,9.0,BA,4,N,2020-08-06 00:00:00,,,2017,3,11,16
2017-03-16,AGG ASSAULT,N,2017-03-16 04:23:00,STREETS / HWY / ROAD / ALLEY,4900 MUELLER BLVD,78723.0,9.0,BA,4,N,2017-07-11 00:00:00,30.30349794,-97.70621861,2017,3,11,16
2017-03-16,AGG ROBBERY/DEADLY WEAPON,N,2017-03-16 00:56:00,RESTAURANTS,720 BASTROP HWY SB,78741.0,3.0,HE,5,N,2017-07-12 00:00:00,30.23358128,-97.68592323,2017,3,11,16
2017-03-16,AGG ROBBERY/DEADLY WEAPON,N,2017-03-17 00:23:00,STREETS / HWY / ROAD / ALLEY,715 E 8TH ST,78701.0,9.0,GE,2,C,2017-03-17 00:00:00,30.26755343,-97.73467415,2017,3,11,16
2017-03-16,AGG ASSAULT,N,2017-03-16 18:28:00,RESIDENCE / HOME,1600 WICKERSHAM LN,78741.0,3.0,HE,3,C,2017-04-27 00:00:00,30.23597684,-97.71859364,2017,3,11,16
2017-03-16,AGG ASSAULT,N,2017-03-16 06:01:00,STREETS / HWY / ROAD / ALLEY,601 N IH 35 SVRD NB,78702.0,3.0,CH,1,C,2017-03-16 00:00:00,30.2657748,-97.73403764,2017,3,11,16
2017-03-16,AGG ASSAULT WITH MOTOR VEH,N,2017-03-16 00:15:00,RESIDENCE / HOME,4909 WEST PARK DR,78731.0,10.0,BA,6,N,2017-03-17 00:00:00,30.32685861,-97.75289533,2017,3,11,16
2017-03-16,RAPE,N,2017-05-26 13:00:00,RESIDENCE / HOME,11400 BLOCK RESEARCH BLVD NB,78759.0,6.0,AD,2,O,2017-06-28 00:00:00,,,2017,3,11,16
2017-03-16,AGG ASSAULT,N,2017-03-16 23:57:00,RESIDENCE / HOME,6600 ELM CREEK DR,78744.0,2.0,FR,8,N,2017-03-27 00:00:00,30.18739944,-97.76364483,2017,3,11,16
2017-03-16,AGG ROBBERY/DEADLY WEAPON,N,2017-03-16 04:29:00,STREETS / HWY / ROAD / ALLEY,600 BLOCK BRUSHY ST,78702.0,3.0,CH,1,N,2017-05-17 00:00:00,30.26591691,-97.73345081,2017,3,11,16
2017-03-17,AGG ASSAULT FAM/DATE VIOLENCE,Y,2017-03-17 05:34:00,RESIDENCE / HOME,2300 LOYOLA LN,78723.0,1.0,ID,3,C,2017-03-17 00:00:00,30.31877511,-97.67972443,2017,3,11,17
2017-03-17,AGG ASSAULT,N,2017-03-17 02:49:00,PARKING LOTS / GARAGE,30 N IH 35 SVRD SB,78701.0,9.0,GE,3,N,2017-04-03 00:00:00,30.25439593,-97.73712236,2017,3,11,17
2017-03-17,AGG ROBBERY/DEADLY WEAPON,N,2017-03-17 04:33:00,STREETS / HWY / ROAD / ALLEY,900 W 6TH ST,78703.0,9.0,GE,1,N,2017-03-17 00:00:00,30.27123551,-97.75301643,2017,3,11,17
2017-03-17,AGG SEXUAL ASSAULT CHILD/OBJEC,N,2017-03-20 22:21:00,RESIDENCE / HOME,8900 BLOCK N IH 35 SVRD SB,78753.0,4.0,ED,1,C,2017-03-21 00:00:00,,,2017,3,11,17
2017-03-17,AGG ASLT STRANGLE/SUFFOCATE,Y,2017-03-17 01:29:00,STREETS / HWY / ROAD / ALLEY,500 S PLEASANT VALLEY RD,78741.0,3.0,HE,2,N,2017-03-27 00:00:00,30.24652069,-97.714776,2017,3,11,17
2017-03-17,AGG ASSAULT WITH MOTOR VEH,N,2017-03-17 22:50:00,STREETS / HWY / ROAD / ALLEY,6813 PORTER ST,78741.0,3.0,HE,5,N,2017-03-21 00:00:00,30.22946323,-97.69361544,2017,3,11,17
2017-03-18,AGG ASSAULT,N,2017-03-18 04:50:00,BAR / NIGHT CLUB,403 E 6TH ST,78701.0,9.0,GE,2,N,2017-04-24 00:00:00,30.26678665,-97.73918136,2017,3,11,18
2017-03-18,AGG ROBBERY/DEADLY WEAPON,N,2017-03-18 21:49:00,PARK / PLAYGROUND,1101 MEARNS MEADOW BLVD,78758.0,4.0,ED,1,N,2017-03-21 00:00:00,30.36944251,-97.7006699,2017,3,11,18
2017-03-18,AGG ASLT STRANGLE/SUFFOCATE,Y,2017-03-19 00:32:00,RESIDENCE / HOME,7247 CAMERON RD,78752.0,4.0,ID,2,O,2017-04-04 00:00:00,30.32755039,-97.69098571,2017,3,11,18
2017-03-18,AGG ASSAULT FAM/DATE VIOLENCE,Y,2017-03-18 22:33:00,PARKING LOTS / GARAGE,1900K CEDAR RIDGE DR,78741.0,3.0,HE,2,N,2017-03-21 00:00:00,30.23618685,-97.73309822,2017,3,11,18
2017-03-18,AGG ASSAULT,N,2017-03-18 23:46:00,STREETS / HWY / ROAD / ALLEY,1700 BLOCK N IH 35 SVRD SB,78701.0,1.0,BA,1,N,2017-05-12 00:00:00,30.27737805,-97.73103486,2017,3,11,18
2017-03-18,AGG ROBBERY/DEADLY WEAPON,N,2017-03-18 21:46:00,STREETS / HWY / ROAD / ALLEY,E 3RD ST / NAVASOTA ST,78702.0,3.0,CH,1,N,2017-04-03 00:00:00,30.26100985,-97.72977149,2017,3,11,18
2017-03-18,RAPE,N,2017-03-18 09:15:00,RESIDENCE / HOME,600 BLOCK E 15TH ST,78701.0,1.0,BA,1,N,2017-04-26 00:00:00,,,2017,3,11,18
2017-03-18,AGG ROBBERY/DEADLY WEAPON,N,2017-03-18 11:29:00,STREETS / HWY / ROAD / ALLEY,4900 WEST GATE BLVD,78745.0,5.0,DA,4,N,2017-03-21 00:00:00,30.22744621,-97.80271047,2017,3,11,18
2017-03-18,AGG ASSAULT FAM/DATE VIOLENCE,Y,2017-03-18 18:57:00,RESIDENCE / HOME,304 E WILLIAM CANNON DR,78745.0,2.0,FR,4,C,2017-03-22 00:00:00,30.19280776,-97.77620629,2017,3,11,18
2017-03-18,AGG ASSAULT WITH MOTOR VEH,N,2017-03-18 21:48:00,STREETS / HWY / ROAD / ALLEY,5000 PECAN BROOK DR,78724.0,1.0,CH,7,N,2017-03-22 00:00:00,30.31669857,-97.65841777,2017,3,11,18
2017-03-19,AGG ASSAULT,N,2017-03-20 21:06:00,STREETS / HWY / ROAD / ALLEY,209 E 6TH ST,78701.0,9.0,GE,2,C,2017-03-25 00:00:00,30.26731856,-97.74113787,2017,3,11,19
2017-03-19,AGG ASSAULT,N,2017-03-20 02:48:00,STREETS / HWY / ROAD / ALLEY,200 BLOCK E 6TH ST,78701.0,9.0,GE,2,C,2017-03-25 00:00:00,30.26780114,-97.74120096,2017,3,11,19
2017-03-19,AGG ASSAULT,N,2017-03-19 19:30:00,PARK / PLAYGROUND,2201 BARTON SPRINGS RD,78704.0,5.0,DA,1,N,2017-05-14 00:00:00,30.26366649,-97.77110098,2017,3,11,19
2017-03-19,AGG ASSAULT,N,2017-03-19 06:11:00,STREETS / HWY / ROAD / ALLEY,8909 MERIDIAN OAK LN,78744.0,5.0,FR,7,C,2017-03-21 00:00:00,30.16281132,-97.78190894,2017,3,11,19
2017-03-19,AGG ROBBERY/DEADLY WEAPON,N,2017-03-19 11:56:00,STREETS / HWY / ROAD / ALLEY,700 E 6TH ST,78701.0,9.0,GE,2,N,2017-04-03 00:00:00,30.26628759,-97.73586154,2017,3,11,19
2017-03-19,AGG ROBBERY/DEADLY WEAPON,N,2017-03-20 00:22:00,PARKING LOTS / GARAGE,701 W LONGSPUR BLVD,78753.0,4.0,ED,1,N,2017-03-26 00:00:00,30.36652912,-97.69300709,2017,3,11,19
2017-03-19,AGG ROBBERY/DEADLY WEAPON,N,2017-03-19 11:43:00,HOTEL / MOTEL / ETC.,6911 N IH 35 SVRD NB,78752.0,4.0,ID,1,N,2017-03-23 00:00:00,30.32979046,-97.70496368,2017,3,11,19
2017-03-19,AGG ASSAULT,N,2017-03-19 15:08:00,RESIDENCE / HOME,WYNNE LN / W DITTMAR RD,78748.0,2.0,FR,3,O,2017-03-23 00:00:00,30.18572491,-97.80287876,2017,3,11,19
2017-03-19,AGG ASSAULT,N,2017-03-19 04:02:00,STREETS / HWY / ROAD / ALLEY,500 E 7TH ST,78701.0,9.0,GE,2,N,2017-04-03 00:00:00,30.26797616,-97.737619,2017,3,11,19
2017-03-19,AGG ASSAULT FAM/DATE VIOLENCE,Y,2017-03-19 01:14:00,RESIDENCE / HOME,201 E 2ND ST,78701.0,9.0,GE,3,C,2017-03-19 00:00:00,30.26358497,-97.74242943,2017,3,11,19
2017-03-19,RAPE,N,2017-03-19 10:07:00,PARK / PLAYGROUND,2000 BLOCK E 51ST ST,78723.0,4.0,ID,4,N,2017-03-27 00:00:00,,,2017,3,11,19
2017-03-19,AGG ASLT STRANGLE/SUFFOCATE,Y,2017-03-19 04:35:00,RESIDENCE / HOME,726 YARSA BLVD,78748.0,2.0,FR,3,C,2017-03-20 00:00:00,30.17609704,-97.80403619,2017,3,11,19
2017-03-19,AGG ROBBERY/DEADLY WEAPON,N,2017-03-19 04:30:00,STREETS / HWY / ROAD / ALLEY,W 3RD ST / LAVACA ST,78701.0,9.0,GE,4,N,2017-03-19 00:00:00,30.26592847,-97.74625106,2017,3,11,19
2017-03-19,RAPE,N,2017-03-20 19:47:00,STREETS / HWY / ROAD / ALLEY,11400 BLOCK BLOCK N MOPAC EXPY NB,78758.0,7.0,AD,2,N,2017-04-19 00:00:00,,,2017,3,11,19
2017-03-19,RAPE,N,2017-03-19 19:36:00,HOTEL / MOTEL / ETC.,1600 BLOCK N IH 35 SVRD NB,78702.0,1.0,CH,3,N,2017-05-08 00:00:00,,,2017,3,11,19
